{"cities":[{"id":7471,"longitude":"105.1500","city":"Ca Mau, Cà Mau","latitude":"9.1833","country":"Vietnam"},{"city":"Caacupe, Cordillera","latitude":"-25.3861","longitude":"-57.1408","country":"Paraguay","id":7472},{"country":"Brazil","city":"Caapiranga, Amazonas","longitude":"-61.2089","id":7473,"latitude":"-3.3275"},{"id":7474,"latitude":"-7.5167","longitude":"-34.9000","country":"Brazil","city":"Caapora, Paraíba"},{"country":"Paraguay","longitude":"-56.3800","latitude":"-26.2000","id":7475,"city":"Caazapa, Caazapá"},{"longitude":"120.3446","city":"Caba, La Union","latitude":"16.4316","country":"Philippines","id":7476},{"id":7477,"longitude":"-39.1833","country":"Brazil","latitude":"-12.5500","city":"Cabaceiras do Paraguacu, Bahia"},{"longitude":"125.5300","country":"Philippines","id":7478,"city":"Cabadbaran, Agusan del Norte","latitude":"9.1200"},{"id":7479,"city":"Cabagan, Isabela","longitude":"121.7700","latitude":"17.4300","country":"Philippines"},{"city":"Cabaiguan, Sancti Spíritus","latitude":"22.0839","longitude":"-79.4953","country":"Cuba","id":7480},{"id":7481,"city":"Caballococha, Loreto","latitude":"-3.9058","longitude":"-70.5164","country":"Peru"},{"country":"Spain","id":7482,"latitude":"43.1000","longitude":"-5.5833","city":"Cabanaquinta, Asturias"},{"longitude":"-89.8000","latitude":"14.9333","id":7483,"city":"Cabanas, Zacapa","country":"Guatemala"},{"latitude":"15.4908","city":"Cabanatuan City, Nueva Ecija","country":"Philippines","longitude":"120.9678","id":7484},{"latitude":"15.1300","id":7485,"city":"Cabangan, Zambales","country":"Philippines","longitude":"120.1500"},{"country":"Philippines","longitude":"125.2992","city":"Cabanglasan, Bukidnon","id":7486,"latitude":"8.0772"},{"latitude":"40.6383","city":"Cabanillas del Campo, Castille-La Mancha","country":"Spain","longitude":"-3.2353","id":7487},{"latitude":" 47° 41' 00\"","country":"Canada","longitude":"-68° 53' 00\"","city":"Cabano, Quebec","id":7488},{"id":7489,"city":"Cabaret, Ouest","latitude":"18.7333","country":"Haiti","longitude":"-72.4167"},{"longitude":"-70.4083","id":7490,"city":"Cabarete, Cibao Norte","country":"Dominican Republic","latitude":"19.7511"},{"city":"Cabarroguis, Quirino","country":"Philippines","longitude":"121.5222","id":7491,"latitude":"16.5103"},{"country":"Philippines","longitude":"122.4800","latitude":"10.8800","city":"Cabatuan, Iloilo","id":7492},{"city":"Cabatuan, Isabela","latitude":"16.9589","country":"Philippines","longitude":"121.6692","id":7493},{"id":7494,"city":"Cabeceiras de Basto, Braga","country":"Portugal","latitude":"41.5333","longitude":"-8.0167"},{"city":"Cabedelo, Paraíba","country":"Brazil","id":7495,"longitude":"-34.8339","latitude":"-6.9808"},{"longitude":"2.9433","id":7496,"city":"Cabestany, Occitanie","country":"France","latitude":"42.6811"},{"latitude":"15.2522","city":"Cabiao, Nueva Ecija","longitude":"120.8575","country":"Philippines","id":7497},{"country":"Chile","latitude":"-32.4275","city":"Cabildo, Valparaíso","longitude":"-71.0664","id":7498},{"longitude":"-71.4500","id":7499,"country":"Venezuela","latitude":"10.4000","city":"Cabimas, Zulia"},{"longitude":"12.1900","city":"Cabinda, Cabinda","id":7500,"country":"Angola","latitude":"-5.5600"},{"latitude":"26.1333","country":"Morocco","longitude":"-14.5000","id":7501,"city":"Cabo Bojador, Laâyoune-Sakia El Hamra"},{"id":7502,"city":"Cabo Frio, Rio de Janeiro","longitude":"-42.0189","latitude":"-22.8789","country":"Brazil"},{"country":"Puerto Rico","longitude":"-67.1482","id":7503,"city":"Cabo Rojo, Puerto Rico","latitude":"18.0867"},{"latitude":"22.8897","country":"Mexico","longitude":"-109.9156","id":7504,"city":"Cabo San Lucas, Baja California Sur"},{"longitude":"-46.3958","city":"Cabo Verde, Minas Gerais","id":7505,"country":"Brazil","latitude":"-21.4719"},{"id":7506,"country":"Australia","latitude":"-27.0850","city":"Caboolture, Queensland","longitude":"152.9513"},{"city":"Cabot, Arkansas","country":"United States","latitude":"34.9766","longitude":"-92.0274","id":7507},{"latitude":"37.4718","id":7508,"city":"Cabra, Andalusia","longitude":"-4.4336","country":"Spain"},{"id":7509,"longitude":"-71.2167","city":"Cabral, Enriquillo","country":"Dominican Republic","latitude":"18.2500"},{"latitude":"39.9333","city":"Cabras, Sardegna","country":"Italy","longitude":"8.5333","id":7510},{"longitude":"47.0261","id":7511,"city":"Cabrayil, Cəbrayıl","latitude":"39.4000","country":"Azerbaijan"},{"city":"Cabrera, Cibao Nordeste","latitude":"19.6300","id":7512,"country":"Dominican Republic","longitude":"-69.9000"},{"latitude":"-37.0333","id":7513,"longitude":"-72.4000","city":"Cabrero, Biobío","country":"Chile"},{"longitude":"-47.1331","city":"Cabreuva, São Paulo","latitude":"-23.3075","country":"Brazil","id":7514},{"id":7515,"latitude":"15.0747","city":"Cabrican, Quetzaltenango","country":"Guatemala","longitude":"-91.6486"},{"latitude":"43.4419","longitude":"5.3803","city":"Cabries, Provence-Alpes-Côte d’Azur","id":7516,"country":"France"},{"country":"Brazil","latitude":"-8.5142","city":"Cabrobo, Pernambuco","longitude":"-38.2767","id":7517},{"city":"Cabucgayan, Biliran","id":7518,"country":"Philippines","latitude":"11.4719","longitude":"124.5750"},{"country":"Venezuela","id":7519,"longitude":"-69.2633","latitude":"10.0331","city":"Cabudare, Lara"},{"latitude":"17.7947","longitude":"120.4556","city":"Cabugao, Ilocos Sur","country":"Philippines","id":7520},{"longitude":"123.1142","latitude":"13.7275","id":7521,"city":"Cabusao, Camarines Sur","country":"Philippines"},{"id":7522,"country":"Philippines","longitude":"121.1250","latitude":"14.2750","city":"Cabuyao, Laguna"},{"city":"Cacador, Santa Catarina","id":7523,"longitude":"-51.0150","latitude":"-26.7750","country":"Brazil"},{"longitude":"-92.1681","country":"Mexico","latitude":"14.9898","id":7524,"city":"Cacahoatan, Chiapas"},{"city":"Cacak, Čačak","longitude":"20.3500","country":"Serbia","id":7525,"latitude":"43.8833"},{"longitude":"-88.0833","city":"Cacaopera, Morazán","country":"El Salvador","id":7526,"latitude":"13.7667"},{"country":"Brazil","id":7527,"longitude":"-53.4908","city":"Cacapava do Sul, Rio Grande do Sul","latitude":"-30.5122"},{"country":"Brazil","longitude":"-45.7069","id":7528,"latitude":"-23.1008","city":"Cacapava, São Paulo"},{"id":7529,"city":"Cacem, Lisboa","latitude":"38.7704","country":"Portugal","longitude":"-9.3081"},{"city":"Cacequi, Rio Grande do Sul","id":7530,"latitude":"-29.8833","country":"Brazil","longitude":"-54.8167"},{"id":7531,"city":"Caceres, Antioquia","latitude":"7.6667","country":"Colombia","longitude":"-75.3333"},{"country":"Spain","longitude":"-6.3667","id":7532,"latitude":"39.4833","city":"Caceres, Extremadura"},{"city":"Caceres, Mato Grosso","country":"Brazil","longitude":"-57.6789","id":7533,"latitude":"-16.0711"},{"longitude":"2.3319","country":"France","id":7534,"latitude":"48.7919","city":"Cachan, Île-de-France"},{"city":"Cacheu, Cacheu","longitude":"-16.1667","latitude":"12.2667","country":"Guinea-Bissau","id":7535},{"longitude":"-74.4375","id":7536,"country":"Colombia","latitude":"4.7308","city":"Cachipay, Cundinamarca"},{"city":"Cachira, Norte de Santander","id":7537,"latitude":"7.7500","country":"Colombia","longitude":"-73.1667"},{"latitude":"-18.7558","city":"Cachoeira Alta, Goiás","id":7538,"country":"Brazil","longitude":"-50.9322"},{"longitude":"-45.0094","latitude":"-22.6650","country":"Brazil","id":7539,"city":"Cachoeira Paulista, São Paulo"},{"country":"Brazil","longitude":"-45.7789","id":7540,"latitude":"-22.3550","city":"Cachoeira de Minas, Minas Gerais"},{"latitude":"-1.0108","id":7541,"longitude":"-48.9628","city":"Cachoeira do Arari, Pará","country":"Brazil"},{"city":"Cachoeira do Sul, Rio Grande do Sul","country":"Brazil","longitude":"-52.8939","latitude":"-30.0392","id":7542},{"latitude":"-6.9269","city":"Cachoeira dos Indios, Paraíba","longitude":"-38.6739","country":"Brazil","id":7543},{"city":"Cachoeira, Bahia","longitude":"-38.9558","id":7544,"country":"Brazil","latitude":"-12.5844"},{"longitude":"-42.6528","country":"Brazil","latitude":"-22.4628","city":"Cachoeiras de Macacu, Rio de Janeiro","id":7545},{"id":7546,"latitude":"-8.4858","city":"Cachoeirinha, Pernambuco","country":"Brazil","longitude":"-36.2328"},{"id":7547,"city":"Cachoeirinha, Rio Grande do Sul","longitude":"-51.0939","latitude":"-29.9508","country":"Brazil"},{"latitude":"-20.8489","city":"Cachoeiro de Itapemirim, Espírito Santo","country":"Brazil","longitude":"-41.1128","id":7548},{"city":"Cacimba de Dentro, Paraíba","latitude":"-6.6419","country":"Brazil","longitude":"-35.7900","id":7549},{"latitude":"-9.4000","longitude":"-36.9900","id":7550,"city":"Cacimbinhas, Alagoas","country":"Brazil"},{"id":7551,"latitude":"-11.4386","city":"Cacoal, Rondônia","country":"Brazil","longitude":"-61.4472"},{"longitude":"-76.3242","city":"Cacocum, Holguín","id":7552,"latitude":"20.7439","country":"Cuba"},{"latitude":"-10.1333","longitude":"19.2667","country":"Angola","city":"Cacolo, Lunda-Sul","id":7553},{"country":"Brazil","longitude":"-46.6439","id":7554,"city":"Caconde, São Paulo","latitude":"-21.5289"},{"country":"Angola","latitude":"-5.2333","longitude":"12.1333","city":"Cacongo, Cabinda","id":7555},{"longitude":"-51.1247","city":"Cacu, Goiás","id":7556,"country":"Brazil","latitude":"-18.5631"},{"country":"Angola","latitude":"-8.8053","longitude":"13.2444","city":"Cacuaco, Luanda","id":7557},{"latitude":"-14.5028","city":"Cacule, Bahia","longitude":"-42.2219","id":7558,"country":"Brazil"},{"city":"Cacuso, Cuanza-Norte","latitude":"-8.2333","country":"Angola","id":7559,"longitude":"15.3500"},{"country":"Somalia","longitude":"46.6256","id":7560,"latitude":"6.1403","city":"Cadaado, Galguduud"},{"longitude":"46.3167","latitude":"2.7500","country":"Somalia","city":"Cadale, Shabeellaha Dhexe","id":7561},{"id":7562,"city":"Cadaval, Lisboa","latitude":"39.2333","country":"Portugal","longitude":"-9.1000"},{"longitude":"18.7922","latitude":"49.4358","country":"Slovakia","city":"Cadca, Žilina","id":7563},{"city":"Cadelbosco di Sopra, Emilia-Romagna","longitude":"10.6000","id":7564,"latitude":"44.7667","country":"Italy"},{"city":"Cadereyta Jimenez, Nuevo León","country":"Mexico","longitude":"-100.0000","latitude":"25.6000","id":7565},{"longitude":"-99.8167","city":"Cadereyta, Querétaro","latitude":"20.7000","id":7566,"country":"Mexico"},{"city":"Cadillac, Michigan","id":7567,"latitude":"44.2493","longitude":"-85.4164","country":"United States"},{"latitude":" 48° 13' 28\"","id":7568,"country":"Canada","longitude":"-78° 23' 06\"","city":"Cadillac, Quebec"},{"id":7569,"city":"Cadiz, Andalusia","latitude":"36.5350","longitude":"-6.2975","country":"Spain"},{"longitude":"123.3000","latitude":"10.9500","id":7570,"city":"Cadiz, Negros Occidental","country":"Philippines"},{"id":7571,"latitude":"49.4500","city":"Cadolzburg, Bavaria","country":"Germany","longitude":"10.8667"},{"id":7572,"city":"Cadomin, Alberta","country":"Canada","longitude":"-117° 20' 00\"","latitude":" 53° 02' 00\""},{"country":"Italy","longitude":"11.9333","city":"Cadoneghe, Veneto","latitude":"45.4500","id":7573},{"longitude":"-116° 22' 00\"","latitude":" 56° 28' 00\"","city":"Cadotte Lake, Alberta","id":7574,"country":"Canada"},{"city":"Caem, Bahia","country":"Brazil","longitude":"-40.4333","id":7575,"latitude":"-11.1000"},{"latitude":"49.1814","city":"Caen, Normandie","country":"France","id":7576,"longitude":"-0.3636"},{"country":"United Kingdom","latitude":"51.4833","city":"Caerdydd, Cardiff","longitude":"-3.1833","id":7577},{"city":"Caerfyrddin, Carmarthenshire","latitude":"51.8560","id":7578,"country":"United Kingdom","longitude":"-4.3160"},{"longitude":"-4.2700","latitude":"53.1400","country":"United Kingdom","city":"Caernarfon, Gwynedd","id":7579},{"id":7580,"longitude":"-3.2180","country":"United Kingdom","city":"Caerphilly, Caerphilly","latitude":"51.5780"},{"city":"Caetano, Bahia","latitude":"-14.3378","id":7581,"country":"Brazil","longitude":"-40.9100"},{"latitude":"-19.2950","country":"Brazil","longitude":"-44.4189","city":"Caetanopolis, Minas Gerais","id":7582},{"id":7583,"latitude":"-19.8800","longitude":"-43.6700","country":"Brazil","city":"Caete, Minas Gerais"},{"longitude":"-36.6228","latitude":"-8.7728","id":7584,"city":"Caetes, Pernambuco","country":"Brazil"},{"id":7585,"city":"Caetite, Bahia","longitude":"-42.4750","country":"Brazil","latitude":"-14.0689"},{"id":7586,"latitude":"-11.7000","city":"Cafarnaum, Bahia","country":"Brazil","longitude":"-41.4667"},{"country":"Argentina","longitude":"-65.9667","city":"Cafayate, Salta","id":7587,"latitude":"-26.0833"},{"longitude":"-53.3200","latitude":"-24.6178","id":7588,"country":"Brazil","city":"Cafelandia, Paraná"},{"city":"Cafelandia, São Paulo","country":"Brazil","longitude":"-49.6100","latitude":"-21.8025","id":7589},{"id":7590,"country":"Philippines","longitude":"124.6500","city":"Cagayan de Oro, Cagayan de Oro","latitude":"8.4800"},{"longitude":"125.6700","id":7591,"latitude":"9.9200","city":"Cagdianao, Dinagat Islands","country":"Philippines"},{"country":"Turkey","longitude":"37.2931","id":7592,"latitude":"37.7506","city":"Caglayancerit, Kahramanmaraş"},{"city":"Cagliari, Sardegna","latitude":"39.2278","longitude":"9.1111","country":"Italy","id":7593},{"country":"France","longitude":"7.1489","latitude":"43.6644","id":7594,"city":"Cagnes-sur-Mer, Provence-Alpes-Côte d’Azur"},{"longitude":"-67.4611","id":7595,"latitude":"10.1875","city":"Cagua, Aragua","country":"Venezuela"},{"latitude":"18.2319","country":"Puerto Rico","city":"Caguas, Puerto Rico","longitude":"-66.0388","id":7596},{"longitude":"126.3017","id":7597,"country":"Philippines","latitude":"8.9181","city":"Cagwait, Surigao del Sur"},{"country":"Angola","id":7598,"latitude":"-16.2833","longitude":"14.3167","city":"Cahama, Cunene"},{"latitude":"38.5710","city":"Cahokia Heights, Illinois","country":"United States","longitude":"-90.1525","id":7599},{"city":"Cahors, Occitanie","longitude":"1.4414","country":"France","id":7600,"latitude":"44.4483"},{"city":"Cahul, Cahul","latitude":"45.9167","country":"Moldova","longitude":"28.1836","id":7601},{"city":"Cai Lay, Tiền Giang","latitude":"10.4170","country":"Vietnam","longitude":"106.0830","id":7602},{"latitude":"-16.9519","city":"Caiaponia, Goiás","country":"Brazil","id":7603,"longitude":"-51.8061"},{"id":7604,"city":"Caibarien, Villa Clara","country":"Cuba","longitude":"-79.4722","latitude":"22.5158"},{"longitude":"124.5800","id":7605,"city":"Caibiran, Biliran","latitude":"11.5700","country":"Philippines"},{"country":"Colombia","latitude":"4.3333","longitude":"-75.8333","city":"Caicedonia, Valle del Cauca","id":7606},{"latitude":"-6.4578","longitude":"-37.0978","id":7607,"city":"Caico, Rio Grande do Norte","country":"Brazil"},{"latitude":"34.9148","city":"Caidat Sidi Boubker El Haj, Rabat-Salé-Kénitra","country":"Morocco","longitude":"-6.0735","id":7608},{"longitude":"-46.7408","latitude":"-23.3644","city":"Caieiras, São Paulo","country":"Brazil","id":7609},{"city":"Caiguantun, Guizhou","id":7610,"longitude":"105.9841","country":"China","latitude":"26.3363"},{"id":7611,"city":"Caimanera, Guantánamo","latitude":"19.9947","country":"Cuba","longitude":"-75.1600"},{"latitude":"-12.9000","longitude":"14.0833","id":7612,"city":"Caimbambo, Benguela","country":"Angola"},{"country":"Cuba","id":7613,"city":"Caimito, Artemisa","longitude":"-82.5964","latitude":"22.9575"},{"longitude":"-75.1667","latitude":"8.8333","city":"Caimito, Sucre","country":"Colombia","id":7614},{"id":7615,"latitude":"14.5700","city":"Cainta, Rizal","longitude":"121.1200","country":"Philippines"},{"country":"Guinea-Bissau","city":"Caio, Cacheu","id":7616,"latitude":"11.9278","longitude":"-16.2028"},{"latitude":"-16.9200","city":"Cairns, Queensland","longitude":"145.7800","id":7617,"country":"Australia"},{"country":"Italy","longitude":"8.2667","id":7618,"city":"Cairo Montenotte, Liguria","latitude":"44.4000"},{"id":7619,"country":"Egypt","longitude":"31.2358","city":"Cairo, Al Qāhirah","latitude":"30.0444"},{"id":7620,"city":"Cairo, Georgia","latitude":"30.8790","longitude":"-84.2050","country":"United States"},{"country":"Brazil","latitude":"-13.4869","city":"Cairu, Bahia","id":7621,"longitude":"-39.0439"},{"country":"United Kingdom","latitude":"52.6510","longitude":"1.7330","id":7622,"city":"Caister-on-Sea, Norfolk"},{"latitude":"40.9500","country":"Italy","longitude":"14.3000","id":7623,"city":"Caivano, Campania"},{"id":7624,"latitude":"-7.6237","city":"Cajabamba, Cajamarca","country":"Peru","longitude":"-78.0460"},{"id":7625,"longitude":"-46.8769","latitude":"-23.3561","country":"Brazil","city":"Cajamar, São Paulo"},{"city":"Cajamarca, Cajamarca","longitude":"-78.5167","latitude":"-7.1667","country":"Peru","id":7626},{"latitude":"4.4167","country":"Colombia","longitude":"-75.5000","id":7627,"city":"Cajamarca, Tolima"},{"latitude":"-2.9667","city":"Cajapio, Rio Grande do Norte","country":"Brazil","id":7628,"longitude":"-44.8000"},{"latitude":"-3.3208","city":"Cajari, Maranhão","country":"Brazil","longitude":"-45.0108","id":7629},{"country":"Brazil","longitude":"-48.1228","id":7630,"city":"Cajati, São Paulo","latitude":"-24.7361"},{"latitude":"-6.8900","country":"Brazil","id":7631,"longitude":"-38.5619","city":"Cajazeiras, Paraíba"},{"id":7632,"country":"Serbia","city":"Cajetina, Čajetina","latitude":"43.7500","longitude":"19.7167"},{"country":"Colombia","id":7633,"city":"Cajibio, Cauca","latitude":"2.6333","longitude":"-76.6333"},{"latitude":"4.9167","city":"Cajica, Cundinamarca","country":"Colombia","longitude":"-74.0333","id":7634},{"country":"Philippines","longitude":"122.6800","id":7635,"latitude":"12.3700","city":"Cajidiocan, Romblon"},{"city":"Cajobi, São Paulo","longitude":"-48.8089","id":7636,"country":"Brazil","latitude":"-20.8800"},{"latitude":"14.9167","city":"Cajola, Quetzaltenango","longitude":"-91.6167","id":7637,"country":"Guatemala"},{"id":7638,"latitude":"-9.3967","city":"Cajueiro, Alagoas","country":"Brazil","longitude":"-36.1536"},{"latitude":"-21.2753","longitude":"-47.3042","id":7639,"city":"Cajuru, São Paulo","country":"Brazil"},{"country":"Romania","longitude":"25.9694","id":7640,"city":"Cajvana, Suceava","latitude":"47.7044"},{"city":"Cakovec, Međimurska Županija","latitude":"46.3858","country":"Croatia","longitude":"16.4333","id":7641},{"longitude":"106.9473","country":"Indonesia","id":7642,"latitude":"-6.2138","city":"Cakung, Jakarta"},{"city":"Cal, Denizli","country":"Turkey","longitude":"29.3989","id":7643,"latitude":"38.0836"},{"city":"Calabanga, Camarines Sur","id":7644,"country":"Philippines","longitude":"123.2161","latitude":"13.7089"},{"latitude":"4.9767","country":"Nigeria","city":"Calabar, Cross River","longitude":"8.3383","id":7645},{"longitude":"-118.6689","city":"Calabasas, California","country":"United States","id":7646,"latitude":"34.1375"},{"city":"Calabayan, Isabela","country":"Philippines","id":7647,"longitude":"121.7800","latitude":"16.7700"},{"country":"Venezuela","longitude":"-67.4333","latitude":"8.9333","id":7648,"city":"Calabozo, Guárico"},{"longitude":"120.8131","id":7649,"latitude":"13.9300","city":"Calaca, Batangas","country":"Philippines"},{"longitude":"22.9575","latitude":"43.9858","id":7650,"city":"Calafat, Dolj","country":"Romania"},{"id":7651,"country":"Spain","longitude":"1.5700","latitude":"41.2020","city":"Calafell, Catalonia"},{"longitude":"-1.9667","latitude":"42.3000","city":"Calahorra, La Rioja","id":7652,"country":"Spain"},{"city":"Calais, Hauts-de-France","longitude":"1.8564","country":"France","latitude":"50.9481","id":7653},{"country":"Chile","id":7654,"city":"Calama, Antofagasta","longitude":"-68.9333","latitude":"-22.4667"},{"longitude":"-74.9158","city":"Calamar, Bolívar","country":"Colombia","latitude":"10.2500","id":7655},{"longitude":"-72.5542","id":7656,"latitude":"1.9206","country":"Colombia","city":"Calamar, Guaviare"},{"longitude":"123.6417","id":7657,"latitude":"8.5583","city":"Calamba, Misamis Occidental","country":"Philippines"},{"longitude":"23.0247","id":7658,"city":"Calan, Hunedoara","latitude":"45.7319","country":"Romania"},{"country":"Philippines","city":"Calanasan, Apayao","longitude":"121.0436","latitude":"18.2550","id":7659},{"id":7660,"latitude":"-9.0667","city":"Calandala, Lunda-Norte","country":"Angola","longitude":"17.9000"},{"longitude":"124.1000","city":"Calanogas, Lanao del Sur","latitude":"7.7500","id":7661,"country":"Philippines"},{"id":7662,"latitude":"13.4140","city":"Calapan, Bulacan","country":"Philippines","longitude":"121.1800"},{"longitude":"121.1800","city":"Calapan, Oriental Mindoro","country":"Philippines","id":7663,"latitude":"13.4140"},{"latitude":"9.8800","city":"Calape, Bohol","country":"Philippines","longitude":"123.8800","id":7664},{"latitude":"44.2000","city":"Calarasi, Călăraşi","id":7665,"longitude":"27.3333","country":"Romania"},{"id":7666,"country":"Moldova","latitude":"47.2500","city":"Calarasi, Călăraşi","longitude":"28.3000"},{"country":"Colombia","latitude":"4.5333","longitude":"-75.6500","city":"Calarca, Quindío","id":7667},{"latitude":"16.0200","city":"Calasiao, Pangasinan","country":"Philippines","longitude":"120.3700","id":7668},{"latitude":"38.2306","city":"Calasparra, Murcia","longitude":"-1.7000","id":7669,"country":"Spain"},{"longitude":"120.6322","latitude":"13.8322","country":"Philippines","id":7670,"city":"Calatagan, Batangas"},{"latitude":"41.3500","city":"Calatayud, Aragon","country":"Spain","longitude":"-1.6333","id":7671},{"latitude":"1.1164","country":"Equatorial Guinea","city":"Calatrava, Litoral","longitude":"9.4186","id":7672},{"city":"Calatrava, Negros Occidental","country":"Philippines","id":7673,"longitude":"123.4800","latitude":"10.6000"},{"latitude":"12.6167","id":7674,"city":"Calatrava, Romblon","country":"Philippines","longitude":"122.0708"},{"city":"Calauag, Quezon","longitude":"122.2875","id":7675,"country":"Philippines","latitude":"13.9575"},{"country":"Philippines","id":7676,"longitude":"121.3200","latitude":"14.1500","city":"Calauan, Laguna"},{"country":"Philippines","city":"Calayan, Cagayan","latitude":"19.2619","id":7677,"longitude":"121.4753"},{"longitude":"124.6000","city":"Calbayog City, Samar","latitude":"12.0700","country":"Philippines","id":7678},{"city":"Calbiga, Samar","longitude":"125.0200","latitude":"11.6300","country":"Philippines","id":7679},{"city":"Calbuco, Los Lagos","latitude":"-41.7667","country":"Chile","id":7680,"longitude":"-73.1333"},{"latitude":"-13.3230","country":"Peru","city":"Calca, Cusco","id":7681,"longitude":"-71.9560"},{"longitude":"-36.3339","latitude":"-8.7419","id":7682,"country":"Brazil","city":"Calcado, Pernambuco"},{"longitude":"-80.1700","id":7683,"latitude":"-0.8400","country":"Ecuador","city":"Calceta, Manabí"},{"country":"Italy","latitude":"43.6833","longitude":"10.6167","id":7684,"city":"Calcinaia, Tuscany"},{"longitude":"10.4167","id":7685,"city":"Calcinato, Lombardy","latitude":"45.4500","country":"Italy"},{"longitude":"-50.9489","id":7686,"latitude":"2.4978","city":"Calcoene, Amapá","country":"Brazil"},{"city":"Caldas Novas, Goiás","latitude":"-17.7450","country":"Brazil","id":7687,"longitude":"-48.6250"},{"id":7688,"latitude":"39.4072","longitude":"-9.1358","country":"Portugal","city":"Caldas da Rainha, Leiria"},{"longitude":"2.1694","latitude":"41.6292","city":"Caldas de Montbuy, Catalonia","country":"Spain","id":7689},{"latitude":"42.6028","country":"Spain","id":7690,"longitude":"-8.6383","city":"Caldas de Reyes, Galicia"},{"latitude":"6.0900","city":"Caldas, Antioquia","country":"Colombia","longitude":"-75.6380","id":7691},{"latitude":"-21.9239","longitude":"-46.3858","id":7692,"city":"Caldas, Minas Gerais","country":"Brazil"},{"city":"Caldeirao Grande, Bahia","latitude":"-11.0200","longitude":"-40.3028","id":7693,"country":"Brazil"},{"id":7694,"country":"Chile","latitude":"-27.0667","longitude":"-70.8333","city":"Caldera, Atacama"},{"country":"Italy","city":"Calderara di Reno, Emilia-Romagna","latitude":"44.5667","longitude":"11.2667","id":7695},{"latitude":"51.5910","country":"United Kingdom","longitude":"-2.7492","id":7696,"city":"Caldicot, Monmouthshire"},{"longitude":"43.9139","latitude":"39.1419","id":7697,"country":"Turkey","city":"Caldiran, Van"},{"latitude":"45.6000","country":"Italy","city":"Caldogno, Veneto","longitude":"11.4944","id":7698},{"city":"Caldono, Cauca","country":"Colombia","latitude":"2.8000","longitude":"-76.5333","id":7699},{"latitude":" 43° 39' 53\"","id":7700,"city":"Caldwell, Idaho","country":"United States","longitude":"-116° 41' 13\""},{"latitude":"40.8389","city":"Caldwell, New Jersey","country":"United States","longitude":"-74.2776","id":7701},{"latitude":"43.8667","city":"Caledon, Ontario","longitude":"-79.8667","id":7702,"country":"Canada"},{"longitude":"19.4283","id":7703,"latitude":"-34.2300","city":"Caledon, Western Cape","country":"South Africa"},{"latitude":" 44° 22' 00\"","city":"Caledonia, Nova Scotia","country":"Canada","id":7704,"longitude":"-65° 02' 00\""},{"latitude":"43.0773","city":"Caledonia, Ontario","country":"Canada","longitude":"-79.9514","id":7705},{"id":7706,"longitude":"-87.8762","city":"Caledonia, Wisconsin","latitude":"42.7986","country":"United States"},{"city":"Calella, Catalonia","country":"Spain","longitude":"2.6575","id":7707,"latitude":"41.6128"},{"latitude":"-11.3196","country":"Angola","id":7708,"longitude":"16.2000","city":"Calenga, Bié"},{"longitude":"11.1667","id":7709,"city":"Calenzano, Tuscany","latitude":"43.8667","country":"Italy"},{"city":"Calera de Tango, Región Metropolitana","longitude":"-70.7616","latitude":"-33.6302","id":7710,"country":"Chile"},{"longitude":"-86.7449","country":"United States","id":7711,"latitude":"33.1254","city":"Calera, Alabama"},{"country":"Argentina","longitude":"-67.5333","city":"Caleta Olivia, Santa Cruz","id":7712,"latitude":"-46.4333"},{"latitude":"32.6849","city":"Calexico, California","country":"United States","longitude":"-115.4944","id":7713},{"latitude":" 51° 02' 59\"","id":7714,"city":"Calgary, Alberta","longitude":"-114° 04' 58\"","country":"Canada"},{"latitude":"15.1860","city":"Calheta de Sao Miguel, São Miguel","country":"Cabo Verde","id":7715,"longitude":"-23.5930"},{"longitude":"-17.1658","latitude":"32.7258","id":7716,"country":"Portugal","city":"Calheta, Madeira"},{"longitude":"-84.9386","id":7717,"latitude":"34.4910","country":"United States","city":"Calhoun, Georgia"},{"city":"Cali, Valle del Cauca","longitude":"-76.5222","id":7718,"latitude":"3.4206","country":"Colombia"},{"longitude":"75.7804","country":"India","city":"Calicut, Kerala","latitude":"11.2588","id":7719},{"country":"USA","id":7720,"latitude":" 37° 37' 58\"","longitude":"-114° 30' 00\"","city":"Caliente, Nevada"},{"city":"California City, California","latitude":"35.1578","country":"United States","longitude":"-117.8721","id":7721},{"city":"California, Maryland","latitude":"38.2969","id":7722,"longitude":"-76.4949","country":"United States"},{"country":"Brazil","longitude":"-51.3550","latitude":"-23.6500","id":7723,"city":"California, Paraná"},{"latitude":"39.2089","city":"Calilabad, Cəlilabad","longitude":"48.4972","country":"Azerbaijan","id":7724},{"longitude":"-99.6172","latitude":"19.1608","city":"Calimaya, México","country":"Mexico","id":7725},{"latitude":"40.2500","city":"Calimera, Puglia","longitude":"18.2833","id":7726,"country":"Italy"},{"country":"United States","latitude":"33.9874","id":7727,"longitude":"-117.0542","city":"Calimesa, California"},{"latitude":"22.5339","city":"Calimete, Matanzas","id":7728,"longitude":"-80.9097","country":"Cuba"},{"latitude":"11.1300","longitude":"122.5000","country":"Philippines","id":7729,"city":"Calinog, Iloilo"},{"latitude":"12.5756","city":"Calintaan, Occidental Mindoro","country":"Philippines","id":7730,"longitude":"120.9428"},{"latitude":" 49° 03' 37\"","country":"Canada","longitude":"-93° 53' 40\"","city":"Caliper Lake, Ontario","id":7731},{"city":"Calkini, Campeche","longitude":"-90.0500","latitude":"20.3667","id":7732,"country":"Mexico"},{"latitude":"-12.0522","city":"Callao, Callao","country":"Peru","longitude":"-77.1392","id":7733},{"longitude":"-85.5568","city":"Callaway, Florida","id":7734,"latitude":"30.1349","country":"United States"},{"country":"Chile","city":"Calle Larga, Valparaíso","latitude":"-32.8831","longitude":"-70.6486","id":7735},{"latitude":"13.1308","id":7736,"longitude":"-61.1928","city":"Calliaqua, Saint George","country":"Saint Vincent and the Grenadines"},{"city":"Calling Lake, Alberta","country":"Canada","longitude":"-113° 12' 00\"","latitude":" 55° 15' 00\"","id":7737},{"city":"Callosa de Segura, Valencia","latitude":"38.1225","longitude":"-0.8797","id":7738,"country":"Spain"},{"country":"United States","city":"Caln, Pennsylvania","longitude":"-75.7619","id":7739,"latitude":"40.0014"},{"id":7740,"latitude":"20.9000","city":"Calnali, Hidalgo","country":"Mexico","longitude":"-98.5833"},{"longitude":"-2.0050","city":"Calne, Wiltshire","id":7741,"latitude":"51.4380","country":"United Kingdom"},{"longitude":"9.4333","latitude":"45.8000","city":"Calolziocorte, Lombardy","country":"Italy","id":7742},{"id":7743,"latitude":"14.6500","city":"Caloocan City, Caloocan","country":"Philippines","longitude":"120.9700"},{"latitude":"3.0333","country":"Colombia","city":"Caloto, Cauca","longitude":"-76.4167","id":7744},{"latitude":"-26.8047","id":7745,"longitude":"153.1338","country":"Australia","city":"Caloundra, Queensland"},{"longitude":"0.0442","id":7746,"city":"Calpe, Valencia","latitude":"38.6450","country":"Spain"},{"id":7747,"latitude":"19.5869","city":"Calpulalpan, Tlaxcala","country":"Mexico","longitude":"-98.5683"},{"country":"Italy","latitude":"37.2375","city":"Caltagirone, Sicilia","id":7748,"longitude":"14.5125"},{"longitude":"14.0625","country":"Italy","city":"Caltanissetta, Sicilia","id":7749,"latitude":"37.4903"},{"id":7750,"longitude":"124.4278","city":"Calubian, Leyte","latitude":"11.4467","country":"Philippines"},{"city":"Caluco, Sonsonate","latitude":"13.7167","country":"El Salvador","longitude":"-89.6500","id":7751},{"city":"Caluire-et-Cuire, Auvergne-Rhône-Alpes","latitude":"45.7953","id":7752,"country":"France","longitude":"4.8472"},{"longitude":"14.9010","city":"Calulo, Cuanza-Sul","latitude":"-10.0007","id":7753,"country":"Angola"},{"city":"Calumet City, Illinois","country":"United States","longitude":"-87.5505","latitude":"41.6134","id":7754},{"city":"Calumpang, Marikina","latitude":"14.6249","longitude":"121.0865","id":7755,"country":"Philippines"},{"longitude":"120.7700","latitude":"14.9200","id":7756,"country":"Philippines","city":"Calumpit, Bulacan"},{"latitude":"-13.7833","city":"Caluquembe, Huíla","longitude":"14.6833","country":"Angola","id":7757},{"id":7758,"latitude":"-13.9208","longitude":"14.5347","city":"Caluquembe, Huíla","country":"Angola"},{"country":"Somalia","longitude":"50.7500","latitude":"11.9667","city":"Caluula, Bari","id":7759},{"country":"Philippines","longitude":"121.5480","latitude":"11.9320","city":"Caluya, Antique","id":7760},{"latitude":" 47° 03' 00\"","city":"Calvert, Newfoundland","country":"Canada","id":7761,"longitude":"-52° 55' 00\""},{"id":7762,"city":"Calverton, Maryland","country":"United States","latitude":"39.0578","longitude":"-76.9488"},{"longitude":"-102.7167","id":7763,"country":"Mexico","city":"Calvillo, Aguascalientes","latitude":"21.8500"},{"city":"Calvizzano, Campania","id":7764,"country":"Italy","longitude":"14.1833","latitude":"40.9000"},{"city":"Calw, Baden-Württemberg","longitude":"8.7333","country":"Germany","id":7765,"latitude":"48.7167"},{"country":"Vietnam","city":"Cam Pha, Quảng Ninh","id":7766,"longitude":"107.3167","latitude":"21.0167"},{"latitude":"11.9020","longitude":"109.2207","city":"Cam Ranh, Khánh Hòa","country":"Vietnam","id":7767},{"latitude":"11.9136","city":"Cam Ranh, Khánh Hòa","country":"Vietnam","id":7768,"longitude":"109.1369"},{"id":7769,"longitude":"-2.3642","country":"United Kingdom","city":"Cam, Gloucestershire","latitude":"51.7011"},{"longitude":"15.3667","latitude":"-8.1833","country":"Angola","id":7770,"city":"Camabatela, Cuanza-Norte"},{"longitude":"-39.4958","id":7771,"latitude":"-15.4189","country":"Brazil","city":"Camacan, Bahia"},{"latitude":"-12.6978","longitude":"-38.3239","city":"Camacari, Bahia","country":"Brazil","id":7772},{"longitude":"17.4686","city":"Camacupa, Bié","latitude":"-12.0256","id":7773,"country":"Angola"},{"country":"Cuba","longitude":"-77.9075","city":"Camaguey, Camagüey","latitude":"21.3839","id":7774},{"city":"Camaiore, Tuscany","longitude":"10.3000","id":7775,"country":"Italy","latitude":"43.9333"},{"latitude":"22.4678","longitude":"-79.7239","city":"Camajuani, Villa Clara","country":"Cuba","id":7776},{"city":"Camalaniugan, Cagayan","longitude":"121.6756","id":7777,"latitude":"18.2756","country":"Philippines"},{"latitude":"13.1300","country":"Philippines","longitude":"123.6700","id":7778,"city":"Camalig, Albay"},{"latitude":"13.6208","country":"Philippines","longitude":"123.1656","city":"Camaligan, Camarines Sur","id":7779},{"longitude":"-39.1167","country":"Brazil","latitude":"-13.9500","city":"Camamu, Bahia","id":7780},{"longitude":"-72.7167","city":"Camana, Arequipa","country":"Peru","id":7781,"latitude":"-16.6167"},{"country":"Brazil","longitude":"-46.1450","latitude":"-22.7550","city":"Camanducaia, Minas Gerais","id":7782},{"latitude":"48.1865","longitude":"-122.4708","city":"Camano, Washington","country":"United States","id":7783},{"id":7784,"city":"Camapua, Mato Grosso do Sul","latitude":"-19.5308","longitude":"-54.0439","country":"Brazil"},{"country":"Brazil","latitude":"-30.8500","city":"Camaqua, Rio Grande do Sul","longitude":"-51.8167","id":7785},{"country":"Portugal","city":"Camara de Lobos, Madeira","latitude":"32.6953","longitude":"-16.9781","id":7786},{"city":"Camarajibe, Pernambuco","country":"Brazil","latitude":"-8.0219","longitude":"-34.9808","id":7787},{"longitude":"-9.1339","country":"Portugal","city":"Camarate, Lisboa","id":7788,"latitude":"38.7980"},{"id":7789,"longitude":"34.9928","city":"Camardi, Niğde","country":"Turkey","latitude":"37.8364"},{"longitude":"-105.1670","latitude":"27.6670","country":"Mexico","id":7790,"city":"Camargo, Chihuahua"},{"latitude":"-20.6403","country":"Bolivia","id":7791,"city":"Camargo, Chuquisaca","longitude":"-65.2103"},{"latitude":"34.2230","id":7792,"city":"Camarillo, California","country":"United States","longitude":"-119.0321"},{"id":7793,"country":"Spain","city":"Camas, Andalusia","longitude":"-6.0333","latitude":"37.4000"},{"city":"Camas, Ordu","latitude":"40.9025","longitude":"37.5281","id":7794,"country":"Turkey"},{"latitude":"45.6005","id":7795,"country":"United States","city":"Camas, Washington","longitude":"-122.4304"},{"id":7796,"longitude":"-8.8000","country":"Spain","latitude":"42.5000","city":"Cambados, Galicia"},{"longitude":"14.5122","city":"Cambambe, Cuanza-Norte","latitude":"-9.7586","country":"Angola","id":7797},{"country":"Philippines","id":7798,"latitude":"7.5386","longitude":"125.7508","city":"Cambanugoy, Davao del Norte"},{"city":"Cambara, Paraná","id":7799,"longitude":"-50.0739","latitude":"-23.0458","country":"Brazil"},{"id":7800,"city":"Cambe, Paraná","latitude":"-23.2758","country":"Brazil","longitude":"-51.2778"},{"country":"United Kingdom","longitude":"-0.7420","city":"Camberley, Surrey","id":7801,"latitude":"51.3350"},{"latitude":"-23.6000","id":7802,"longitude":"-51.5667","city":"Cambira, Paraná","country":"Brazil"},{"latitude":"18.4500","id":7803,"city":"Cambita Garabitos, Valdesia","country":"Dominican Republic","longitude":"-70.2000"},{"latitude":"-27.0250","city":"Camboriu, Santa Catarina","id":7804,"country":"Brazil","longitude":"-48.6539"},{"country":"United Kingdom","longitude":"-5.3000","id":7805,"latitude":"50.2130","city":"Camborne, Cornwall"},{"country":"France","latitude":"50.1767","city":"Cambrai, Hauts-de-France","longitude":"3.2356","id":7806},{"country":"Spain","city":"Cambre, Galicia","longitude":"-8.3330","latitude":"43.2830","id":7807},{"city":"Cambridge, Cambridgeshire","id":7808,"longitude":"0.1192","country":"United Kingdom","latitude":"52.2053"},{"longitude":"-76° 04' 41\"","city":"Cambridge, Maryland","id":7809,"latitude":" 38° 34' 12\"","country":"United States"},{"longitude":"-71° 06' 21\"","id":7810,"city":"Cambridge, Massachusetts","latitude":" 42° 22' 00\"","country":"United States"},{"city":"Cambridge, Minnesota","country":"United States","longitude":"-93.2283","id":7811,"latitude":"45.5612"},{"city":"Cambridge, Ohio","id":7812,"longitude":"-81.5869","latitude":"40.0221","country":"United States"},{"longitude":"-80.3114","country":"Canada","id":7813,"city":"Cambridge, Ontario","latitude":"43.3972"},{"id":7814,"latitude":"-37.8833","city":"Cambridge, Waikato","country":"New Zealand","longitude":"175.4667"},{"latitude":"41.0667","city":"Cambrils, Catalonia","country":"Spain","longitude":"1.0583","id":7815},{"country":"Brazil","longitude":"-41.9108","id":7816,"latitude":"-21.5750","city":"Cambuci, Rio de Janeiro"},{"longitude":"-46.0578","id":7817,"city":"Cambui, Minas Gerais","country":"Brazil","latitude":"-22.6119"},{"country":"Angola","latitude":"-10.0756","longitude":"17.5569","city":"Cambundi Catembo, Malanje","id":7818},{"latitude":"-21.8519","longitude":"-45.2958","city":"Cambuquira, Minas Gerais","id":7819,"country":"Brazil"},{"longitude":"-4.1671","id":7820,"city":"Cambuslang, South Lanarkshire","country":"United Kingdom","latitude":"55.8190"},{"city":"Camden, Arkansas","country":"United States","longitude":"-92.8467","id":7821,"latitude":"33.5672"},{"id":7822,"latitude":" 39° 56' 40\"","city":"Camden, New Jersey","country":"United States","longitude":"-75° 07' 13\""},{"country":"Turkey","latitude":"37.0708","id":7823,"city":"Cameli, Denizli","longitude":"29.3453"},{"id":7824,"country":"Moldova","latitude":"48.0167","city":"Camenca, Stînga Nistrului","longitude":"28.7167"},{"longitude":"8.6500","city":"Cameri, Piedmont","country":"Italy","latitude":"45.5000","id":7825},{"country":"Malaysia","latitude":"4.5000","id":7826,"longitude":"101.5000","city":"Cameron Highlands, Pahang"},{"id":7827,"latitude":"38.6738","longitude":"-120.9872","city":"Cameron Park, California","country":"United States"},{"latitude":"39.7444","city":"Cameron, Missouri","longitude":"-94.2329","id":7828,"country":"United States"},{"city":"Cameta, Pará","latitude":"-2.2439","longitude":"-49.4958","country":"Brazil","id":7829},{"latitude":"15.6867","country":"Philippines","city":"Camiling, Tarlac","longitude":"120.4131","id":7830},{"longitude":"-76.3056","city":"Camillus, New York","id":7831,"latitude":"43.0539","country":"United States"},{"latitude":"-3.0500","country":"Ecuador","longitude":"-79.7333","city":"Camilo Ponce Enriquez, Azuay","id":7832},{"longitude":"-63.5333","id":7833,"latitude":"-20.1000","city":"Camiri, Santa Cruz","country":"Bolivia"},{"latitude":"-20.0386","city":"Camiri, Santa Cruz","longitude":"-63.5183","id":7834,"country":"Bolivia"},{"latitude":"45.5167","country":"Italy","city":"Camisano Vicentino, Veneto","id":7835,"longitude":"11.7167"},{"longitude":"34.6083","id":7836,"latitude":"37.1703","city":"Camliyayla, Mersin","country":"Turkey"},{"city":"Camoapa, Boaco","id":7837,"latitude":"12.3833","country":"Nicaragua","longitude":"-85.5167"},{"country":"Brazil","id":7838,"latitude":"-8.3500","city":"Camocim de Sao Felix, Pernambuco","longitude":"-35.7667"},{"country":"Brazil","longitude":"-40.8408","id":7839,"latitude":"-2.9019","city":"Camocim, Ceará"},{"city":"Camoluk, Giresun","latitude":"40.1333","country":"Turkey","id":7840,"longitude":"38.7333"},{"country":"Australia","city":"Camooweal, Queensland","latitude":"-19.9211","longitude":"138.1194","id":7841},{"latitude":"14.8167","country":"Guatemala","longitude":"-89.3817","id":7842,"city":"Camotan, Chiquimula"},{"country":"United States","latitude":"33.2329","id":7843,"longitude":"-117.3930","city":"Camp Pendleton South, California"},{"longitude":"-73.8667","id":7844,"city":"Camp Perrin, Sud","country":"Haiti","latitude":"18.3167"},{"latitude":"38.8052","city":"Camp Springs, Maryland","country":"United States","longitude":"-76.9199","id":7845},{"country":"United States","longitude":"-111.8560","id":7846,"latitude":"34.5690","city":"Camp Verde, Arizona"},{"city":"Campagna, Campania","country":"Italy","longitude":"15.1000","latitude":"40.6667","id":7847},{"longitude":"12.3833","city":"Campagnano di Roma, Lazio","id":7848,"country":"Italy","latitude":"42.1333"},{"country":"Colombia","latitude":"6.9789","city":"Campamento, Antioquia","longitude":"-75.2964","id":7849},{"latitude":"14.5500","country":"Honduras","city":"Campamento, Olancho","longitude":"-86.6500","id":7850},{"id":7851,"longitude":"-58.9167","latitude":"-34.1667","country":"Argentina","city":"Campana, Buenos Aires"},{"country":"Brazil","longitude":"-45.3914","city":"Campanha, Minas Gerais","latitude":"-21.8389","id":7852},{"id":7853,"country":"Canada","latitude":" 50° 01' 00\"","city":"Campbell River, British Columbia","longitude":"-125° 14' 30\""},{"country":"United States","id":7854,"city":"Campbell, California","longitude":"-121.9539","latitude":"37.2802"},{"city":"Campbellsville, Kentucky","latitude":"37.3445","country":"United States","id":7855,"longitude":"-85.3511"},{"city":"Campbellton, New Brunswick","id":7856,"longitude":"-66° 40' 52\"","latitude":" 47° 59' 41\"","country":"Canada"},{"city":"Campbelltown, New South Wales","country":"Australia","longitude":"150.8167","id":7857,"latitude":"-34.0667"},{"latitude":"19.8500","city":"Campeche, Campeche","country":"Mexico","longitude":"-90.5306","id":7858},{"id":7859,"latitude":"20.2333","longitude":"-77.2792","country":"Cuba","city":"Campechuela, Granma"},{"id":7860,"city":"Campestre, Minas Gerais","latitude":"-21.7108","longitude":"-46.2458","country":"Brazil"},{"latitude":"43.8167","city":"Campi Bisenzio, Tuscany","id":7861,"longitude":"11.1333","country":"Italy"},{"country":"Italy","longitude":"18.0167","city":"Campi Salentina, Puglia","latitude":"40.4000","id":7862},{"id":7863,"city":"Campia Turzii, Cluj","latitude":"46.5486","country":"Romania","longitude":"23.8800"},{"country":"India","longitude":"83.2668","latitude":"27.0290","city":"Campiernagar, Uttar Pradesh","id":7864},{"city":"Campiglia Marittima, Tuscany","latitude":"43.0667","country":"Italy","id":7865,"longitude":"10.6167"},{"city":"Campina Grande do Sul, Paraná","latitude":"-25.3058","country":"Brazil","id":7866,"longitude":"-49.0550"},{"country":"Brazil","id":7867,"city":"Campina Grande, Paraíba","latitude":"-7.2306","longitude":"-35.8811"},{"longitude":"-49.4833","id":7868,"city":"Campina Verde, Minas Gerais","latitude":"-19.5333","country":"Brazil"},{"id":7869,"longitude":"-52.7167","country":"Brazil","latitude":"-24.5500","city":"Campina da Lagoa, Paraná"},{"longitude":"25.7400","latitude":"45.1300","city":"Campina, Prahova","country":"Romania","id":7870},{"country":"Brazil","city":"Campinas, São Paulo","latitude":"-22.9058","longitude":"-47.0608","id":7871},{"city":"Campinorte, Goiás","country":"Brazil","longitude":"-49.1500","id":7872,"latitude":"-14.3150"},{"latitude":"-9.5158","id":7873,"country":"Brazil","longitude":"-43.0108","city":"Campo Alegre de Lourdes, Bahia"},{"country":"Brazil","latitude":"-9.7819","city":"Campo Alegre, Alagoas","longitude":"-36.3508","id":7874},{"longitude":"-49.2658","country":"Brazil","id":7875,"city":"Campo Alegre, Santa Catarina","latitude":"-26.1928"},{"id":7876,"latitude":"-20.8969","longitude":"-45.2769","country":"Brazil","city":"Campo Belo, Minas Gerais"},{"longitude":"-51.0528","latitude":"-29.6789","id":7877,"country":"Brazil","city":"Campo Bom, Rio Grande do Sul"},{"latitude":"-26.3833","country":"Brazil","id":7878,"longitude":"-53.0500","city":"Campo Ere, Santa Catarina"},{"city":"Campo Formoso, Bahia","country":"Brazil","longitude":"-40.3208","latitude":"-10.5089","id":7879},{"latitude":"-20.4839","id":7880,"longitude":"-54.6150","city":"Campo Grande, Mato Grosso do Sul","country":"Brazil"},{"country":"Argentina","longitude":"-60.8333","id":7881,"latitude":"-26.8000","city":"Campo Largo, Chaco"},{"id":7882,"longitude":"-49.5278","city":"Campo Largo, Paraná","latitude":"-25.4589","country":"Brazil"},{"latitude":"-23.2064","country":"Brazil","longitude":"-46.7844","id":7883,"city":"Campo Limpo, São Paulo"},{"longitude":"-49.4508","id":7884,"city":"Campo Magro, Paraná","latitude":"-25.3689","country":"Brazil"},{"country":"Brazil","latitude":"-4.8333","longitude":"-42.1736","id":7885,"city":"Campo Maior, Piauí"},{"id":7886,"longitude":"-52.3828","country":"Brazil","latitude":"-24.0458","city":"Campo Mourao, Paraná"},{"city":"Campo Novo do Parecis, Mato Grosso","id":7887,"latitude":"-13.6750","country":"Brazil","longitude":"-57.8919"},{"city":"Campo Redondo, Rio Grande do Norte","latitude":"-6.2428","country":"Brazil","longitude":"-36.1828","id":7888},{"country":"Spain","city":"Campo de Criptana, Castille-La Mancha","longitude":"-3.1167","id":7889,"latitude":"39.4000"},{"latitude":"10.3778","city":"Campo de la Cruz, Atlántico","longitude":"-74.8814","id":7890,"country":"Colombia"},{"longitude":"-37.4928","country":"Brazil","latitude":"-10.7328","city":"Campo do Brito, Sergipe","id":7891},{"latitude":"-21.1069","city":"Campo do Meio, Minas Gerais","country":"Brazil","longitude":"-45.8300","id":7892},{"city":"Campoalegre, Huila","longitude":"-75.3256","id":7893,"latitude":"2.6867","country":"Colombia"},{"longitude":"14.6667","id":7894,"city":"Campobasso, Molise","country":"Italy","latitude":"41.5667"},{"city":"Campobello di Licata, Sicilia","longitude":"13.9167","country":"Italy","latitude":"37.2500","id":7895},{"city":"Campobello di Mazara, Sicilia","country":"Italy","longitude":"12.7500","id":7896,"latitude":"37.6333"},{"city":"Campodarsego, Veneto","id":7897,"latitude":"45.5000","country":"Italy","longitude":"11.9167"},{"country":"Italy","longitude":"10.8500","latitude":"44.6833","id":7898,"city":"Campogalliano, Emilia-Romagna"},{"longitude":"12.0500","latitude":"45.3333","city":"Campolongo Maggiore, Veneto","id":7899,"country":"Italy"},{"country":"Italy","longitude":"12.0667","latitude":"45.3833","id":7900,"city":"Camponogara, Veneto"},{"country":"Brazil","id":7901,"latitude":"-19.6958","city":"Campos Altos, Minas Gerais","longitude":"-46.1708"},{"latitude":"-13.0369","city":"Campos Belos, Goiás","country":"Brazil","longitude":"-46.7719","id":7902},{"latitude":"-21.2350","country":"Brazil","id":7903,"city":"Campos Gerais, Minas Gerais","longitude":"-45.7589"},{"country":"Brazil","city":"Campos Lindos, Tocantins","latitude":"-7.9939","id":7904,"longitude":"-46.8678"},{"latitude":"-27.4019","longitude":"-51.2250","city":"Campos Novos, Santa Catarina","id":7905,"country":"Brazil"},{"longitude":"-40.3758","id":7906,"city":"Campos Sales, Ceará","latitude":"-7.0739","country":"Brazil"},{"id":7907,"country":"Spain","longitude":"3.0194","city":"Campos del Puerto, Balearic Islands","latitude":"39.4306"},{"longitude":"-45.5908","id":7908,"latitude":"-22.7389","country":"Brazil","city":"Campos do Jordao, São Paulo"},{"city":"Campos, Rio de Janeiro","latitude":"-21.7539","country":"Brazil","id":7909,"longitude":"-41.3239"},{"country":"Italy","longitude":"11.9333","city":"Camposampiero, Veneto","id":7910,"latitude":"45.5667"},{"longitude":"-88.4166","latitude":"41.9498","country":"United States","id":7911,"city":"Campton Hills, Illinois"},{"latitude":"47.5308","city":"Campulung Moldovenesc, Suceava","country":"Romania","id":7912,"longitude":"25.5514"},{"city":"Campulung, Argeş","longitude":"25.0464","latitude":"45.2678","id":7913,"country":"Romania"},{"latitude":"53.0167","country":"Canada","longitude":"-112.8333","city":"Camrose, Alberta","id":7914},{"id":7915,"city":"Can Tho, Cần Thơ","country":"Vietnam","longitude":"105.7833","latitude":"10.0333"},{"longitude":"27.0475","city":"Can, Çanakkale","latitude":"40.0275","id":7916,"country":"Turkey"},{"longitude":"125.4500","latitude":"12.0000","id":7917,"country":"Philippines","city":"Can-Avid, Eastern Samar"},{"latitude":"-32.8167","country":"Argentina","id":7918,"city":"Canada de Gomez, Santa Fe","longitude":"-61.4000"},{"city":"Canagatan, Cagayan","country":"Philippines","id":7919,"latitude":"18.0000","longitude":"121.8000"},{"id":7920,"city":"Canakkale, Çanakkale","latitude":"40.1519","country":"Turkey","longitude":"26.4056"},{"id":7921,"latitude":"39.8437","longitude":"-82.8126","city":"Canal Winchester, Ohio","country":"United States"},{"city":"Canalete, Córdoba","country":"Colombia","latitude":"8.7900","longitude":"-76.2411","id":7922},{"id":7923,"latitude":"38.9611","longitude":"-0.5850","city":"Canals, Valencia","country":"Spain"},{"city":"Canaman, Camarines Sur","latitude":"13.6481","country":"Philippines","longitude":"123.1711","id":7924},{"country":"United States","city":"Canandaigua, New York","longitude":"-77.3182","latitude":"42.8608","id":7925},{"id":7926,"city":"Cananea, Sonora","country":"Mexico","latitude":"30.9828","longitude":"-110.3017"},{"longitude":"-47.9267","city":"Cananeia, São Paulo","id":7927,"country":"Brazil","latitude":"-25.0147"},{"city":"Canapi, Alagoas","country":"Brazil","longitude":"-37.6050","id":7928,"latitude":"-9.1269"},{"latitude":"-13.0700","city":"Canapolis, Bahia","country":"Brazil","longitude":"-44.2019","id":7929},{"city":"Canapolis, Minas Gerais","latitude":"-18.7250","id":7930,"country":"Brazil","longitude":"-49.2039"},{"city":"Canarana I, Mato Grosso","longitude":"-52.2722","id":7931,"country":"Brazil","latitude":"-13.5544"},{"city":"Canarana, Bahia","longitude":"-41.7689","id":7932,"country":"Brazil","latitude":"-11.6850"},{"latitude":"10.4457","country":"Costa Rica","id":7933,"city":"Canas, Guanacaste","longitude":"-85.0992"},{"longitude":"-76.0258","country":"Colombia","id":7934,"latitude":"6.7497","city":"Canasgordas, Antioquia"},{"id":7935,"city":"Canatlan, Durango","latitude":"24.5200","longitude":"-104.7800","country":"Mexico"},{"id":7936,"country":"Brazil","city":"Canavieiras, Bahia","latitude":"-15.6750","longitude":"-38.9469"},{"id":7937,"longitude":"149.1269","city":"Canberra, Australian Capital Territory","country":"Australia","latitude":"-35.2931"},{"id":7938,"latitude":"45.2652","country":"United States","city":"Canby, Oregon","longitude":"-122.6867"},{"longitude":"-86.8475","latitude":"21.1606","city":"Cancun, Quintana Roo","country":"Mexico","id":7939},{"longitude":"120.8283","id":7940,"latitude":"15.0933","country":"Philippines","city":"Candaba, Pampanga"},{"latitude":"-12.6678","city":"Candeias, Bahia","longitude":"-38.5508","country":"Brazil","id":7941},{"country":"Brazil","latitude":"-20.7669","id":7942,"longitude":"-45.2758","city":"Candeias, Minas Gerais"},{"latitude":"15.9167","country":"Mexico","longitude":"-96.4833","city":"Candelaria Loxicha, Oaxaca","id":7943},{"id":7944,"longitude":"-89.6500","latitude":"14.1167","city":"Candelaria de La Frontera, Santa Ana","country":"El Salvador"},{"latitude":"22.7439","city":"Candelaria, Artemisa","longitude":"-82.9581","country":"Cuba","id":7945},{"id":7946,"longitude":"-74.8806","country":"Colombia","latitude":"10.4592","city":"Candelaria, Atlántico"},{"longitude":"-91.0463","latitude":"18.1835","id":7947,"country":"Mexico","city":"Candelaria, Campeche"},{"id":7948,"latitude":"28.3547","country":"Spain","city":"Candelaria, Canary Islands","longitude":"-16.3711"},{"latitude":"13.7500","city":"Candelaria, Cuscatlán","longitude":"-88.9500","id":7949,"country":"El Salvador"},{"longitude":"-88.9755","latitude":"13.6890","city":"Candelaria, Cuscatlán","country":"El Salvador","id":7950},{"latitude":"-27.4594","id":7951,"city":"Candelaria, Misiones","country":"Argentina","longitude":"-55.7453"},{"country":"Puerto Rico","longitude":"-66.2175","latitude":"18.4042","id":7952,"city":"Candelaria, Puerto Rico"},{"longitude":"121.4233","country":"Philippines","city":"Candelaria, Quezon","latitude":"13.9311","id":7953},{"id":7954,"longitude":"-52.7889","latitude":"-29.6689","city":"Candelaria, Rio Grande do Sul","country":"Brazil"},{"longitude":"-76.3833","latitude":"3.4000","country":"Colombia","id":7955,"city":"Candelaria, Valle del Cauca"},{"city":"Candelaria, Zambales","id":7956,"latitude":"15.6300","country":"Philippines","longitude":"119.9300"},{"longitude":"-73.5200","city":"Candiac, Quebec","id":7957,"latitude":"45.3800","country":"Canada"},{"latitude":"-14.4000","city":"Candiba, Bahia","country":"Brazil","id":7958,"longitude":"-42.8667"},{"longitude":"-45.7169","city":"Candido Mendes, Maranhão","latitude":"-1.4469","id":7959,"country":"Brazil"},{"city":"Candido Mota, São Paulo","longitude":"-50.3869","id":7960,"country":"Brazil","latitude":"-22.7464"},{"longitude":"-41.2389","id":7961,"country":"Brazil","latitude":"-15.5050","city":"Candido Sales, Bahia"},{"longitude":"-51.3333","country":"Brazil","id":7962,"latitude":"-24.5833","city":"Candido de Abreu, Paraná"},{"latitude":"9.8180","city":"Candijay, Bohol","longitude":"124.4960","country":"Philippines","id":7963},{"longitude":"-53.7333","country":"Brazil","city":"Candiota, Rio Grande do Sul","latitude":"-31.6000","id":7964},{"country":"United States","latitude":"33.7267","longitude":"-84.2723","id":7965,"city":"Candler-McAfee, Georgia"},{"city":"Candoi, Paraná","country":"Brazil","id":7966,"latitude":"-25.7167","longitude":"-52.1833"},{"longitude":"120.4489","id":7967,"country":"Philippines","city":"Candon, Ilocos Sur","latitude":"17.1958"},{"latitude":"9.8200","city":"Candoni, Negros Occidental","country":"Philippines","longitude":"122.6000","id":7968},{"country":"Italy","city":"Canegrate, Lombardy","latitude":"45.5667","longitude":"8.9333","id":7969},{"country":"Chile","city":"Canela Baja, Coquimbo","id":7970,"latitude":"-31.3989","longitude":"-71.4561"},{"id":7971,"country":"Brazil","longitude":"-50.8156","latitude":"-29.3617","city":"Canela, Rio Grande do Sul"},{"latitude":"-27.2833","city":"Canelinha, Santa Catarina","country":"Brazil","id":7972,"longitude":"-48.7833"},{"id":7973,"latitude":"44.7225","country":"Italy","city":"Canelli, Piedmont","longitude":"8.2936"},{"latitude":"-34.5167","city":"Canelones, Canelones","country":"Uruguay","longitude":"-56.2833","id":7974},{"latitude":"41.5833","city":"Canet de Mar, Catalonia","country":"Spain","longitude":"2.5833","id":7975},{"latitude":"42.7067","id":7976,"longitude":"3.0078","city":"Canet-en-Roussillon, Occitanie","country":"France"},{"latitude":"-37.7994","country":"Chile","city":"Canete, Biobío","longitude":"-73.3953","id":7977},{"city":"Canford Cliffs, ","country":"United Kingdom","latitude":"50.7000","longitude":"-1.9300","id":7978},{"latitude":"-9.7833","city":"Cangandala, Malanje","id":7979,"country":"Angola","longitude":"16.4333"},{"id":7980,"longitude":"-6.5389","country":"Spain","latitude":"43.1714","city":"Cangas de Narcea, Asturias"},{"latitude":"42.2642","longitude":"-8.7819","country":"Spain","city":"Cangas, Galicia","id":7981},{"country":"Angola","city":"Cangola, Uíge","longitude":"15.8667","id":7982,"latitude":"-7.9667"},{"latitude":"-6.3833","country":"Brazil","city":"Canguaretama, Rio Grande do Norte","longitude":"-35.1333","id":7983},{"latitude":"-31.4000","id":7984,"city":"Cangucu, Rio Grande do Sul","country":"Brazil","longitude":"-52.6833"},{"id":7985,"latitude":"27.6481","longitude":"111.1458","city":"Cangxi, Hunan","country":"China"},{"city":"Cangzhou, Hebei","id":7986,"latitude":"38.3047","country":"China","longitude":"116.8387"},{"city":"Canhotinho, Pernambuco","longitude":"-36.1908","country":"Brazil","latitude":"-8.8819","id":7987},{"id":7988,"country":"Italy","city":"Canicatti, Sicilia","longitude":"13.8500","latitude":"37.3667"},{"city":"Canico, Madeira","country":"Portugal","longitude":"-16.8410","id":7989,"latitude":"32.6510"},{"city":"Canilla, Quiché","longitude":"-90.8500","id":7990,"country":"Guatemala","latitude":"15.1667"},{"longitude":"1.6000","id":7991,"city":"Canillo, Canillo","country":"Andorra","latitude":"42.5667"},{"country":"Brazil","latitude":"-9.6419","id":7992,"city":"Caninde de Sao Francisco, Sergipe","longitude":"-37.7878"},{"country":"Brazil","latitude":"-4.3586","longitude":"-39.3140","city":"Caninde, Ceará","id":7993},{"id":7994,"latitude":"39.9244","country":"Turkey","city":"Cankaya, Ankara","longitude":"32.8856"},{"city":"Cankiri, Çankırı","latitude":"40.5986","country":"Turkey","longitude":"33.6192","id":7995},{"longitude":"16.0179","country":"Slovenia","id":7996,"latitude":"46.7193","city":"Cankova, Cankova"},{"country":"Burundi","longitude":"30.5528","id":7997,"city":"Cankuzo, Cankuzo","latitude":"-3.2194"},{"country":"Philippines","latitude":"10.3800","longitude":"123.2000","city":"Canlaon, Negros Oriental","id":7998},{"id":7999,"latitude":"51.0890","city":"Canmore, Alberta","country":"Canada","longitude":"-115.3590"},{"country":"India","city":"Cannanore, Kerala","longitude":"75.3704","id":8000,"latitude":"11.8745"},{"id":8001,"latitude":"43.5513","longitude":"7.0128","city":"Cannes, Provence-Alpes-Côte d’Azur","country":"France"},{"city":"Cannock, Staffordshire","id":8002,"latitude":"52.6910","longitude":"-2.0270","country":"United Kingdom"},{"id":8003,"city":"Cano Martin Pena, Puerto Rico","country":"Puerto Rico","longitude":"-66.0507","latitude":"18.4309"},{"id":8004,"country":"Costa Rica","longitude":"-82.8333","latitude":"8.5333","city":"Canoas, Puntarenas"},{"id":8005,"city":"Canoas, Rio Grande do Sul","country":"Brazil","longitude":"-51.1800","latitude":"-29.9200"},{"longitude":"-118° 34' 11\"","latitude":" 34° 12' 36\"","country":"USA","id":8006,"city":"Canoga Park, California"},{"country":"Brazil","longitude":"-50.3900","latitude":"-26.1769","id":8007,"city":"Canoinhas, Santa Catarina"},{"country":"United States","latitude":"38.4430","id":8008,"longitude":"-105.2203","city":"Canon City, Colorado"},{"city":"Canonsburg, Pennsylvania","country":"United States","latitude":"40.2643","longitude":"-80.1867","id":8009},{"longitude":"-102° 26' 00\"","id":8010,"city":"Canora, Saskatchewan","latitude":" 51° 38' 00\"","country":"Canada"},{"latitude":"41.2167","longitude":"16.0667","city":"Canosa di Puglia, Puglia","id":8011,"country":"Italy"},{"longitude":"-65.9009","latitude":"18.3693","country":"Puerto Rico","city":"Canovanas, Puerto Rico","id":8012},{"longitude":"2.2847","id":8013,"latitude":"41.6203","city":"Canovellas, Catalonia","country":"Spain"},{"city":"Cansancao, Bahia","country":"Brazil","longitude":"-39.4978","id":8014,"latitude":"-10.6708"},{"id":8015,"country":"Canada","latitude":" 45° 20' 00\"","city":"Canso, Nova Scotia","longitude":"-61° 00' 00\""},{"city":"Canta, İstanbul","longitude":"28.0819","latitude":"41.0806","id":8016,"country":"Turkey"},{"id":8017,"country":"Brazil","longitude":"-52.1258","latitude":"-25.3739","city":"Cantagalo, Paraná"},{"latitude":"-21.9808","id":8018,"city":"Cantagalo, Rio de Janeiro","longitude":"-42.3678","country":"Brazil"},{"country":"Portugal","latitude":"40.3500","city":"Cantanhede, Coimbra","longitude":"-8.5833","id":8019},{"longitude":"-44.4000","latitude":"-3.6500","city":"Cantanhede, Maranhão","country":"Brazil","id":8020},{"longitude":"-64.3594","city":"Cantaura, Anzoátegui","id":8021,"latitude":"9.3111","country":"Venezuela"},{"longitude":"-91.4555","country":"Guatemala","id":8022,"latitude":"14.8112","city":"Cantel, Quetzaltenango"},{"city":"Canteleu, Normandie","id":8023,"longitude":"1.0261","country":"France","latitude":"49.4411"},{"latitude":"46.2667","country":"Moldova","id":8024,"city":"Cantemir, Cantemir","longitude":"28.2167"},{"longitude":"-1.0438","latitude":"37.6122","country":"Spain","id":8025,"city":"Canteras, Murcia"},{"id":8026,"latitude":"51.2800","country":"United Kingdom","city":"Canterbury, Kent","longitude":"1.0800"},{"city":"Cantilan, Surigao del Sur","country":"Philippines","longitude":"125.9769","id":8027,"latitude":"9.3356"},{"latitude":"37.6000","country":"Spain","longitude":"-5.8167","city":"Cantillana, Andalusia","id":8028},{"city":"Cantley, Quebec","longitude":"-75.7833","country":"Canada","id":8029,"latitude":"45.5667"},{"latitude":"-8.1167","longitude":"-42.9667","id":8030,"country":"Brazil","city":"Canto do Buriti, Piauí"},{"city":"Canton, Georgia","longitude":"-84.4897","latitude":"34.2467","country":"United States","id":8031},{"longitude":"-90.0409","city":"Canton, Illinois","id":8032,"country":"United States","latitude":"40.5632"},{"latitude":"42.1750","country":"United States","longitude":"-71.1264","id":8033,"city":"Canton, Massachusetts"},{"id":8034,"city":"Canton, Mississippi","longitude":"-90.0317","latitude":"32.5975","country":"United States"},{"city":"Canton, New York","longitude":"-75.1978","country":"United States","latitude":"44.5802","id":8035},{"city":"Canton, Ohio","country":"United States","longitude":"-81° 22' 36\"","latitude":" 40° 47' 49\"","id":8036},{"country":"Pakistan","latitude":"31.5167","id":8037,"city":"Cantonment, Punjab","longitude":"74.3833"},{"longitude":"-76° 36' 44\"","country":"USA","id":8038,"city":"Cantonsville, Maryland","latitude":" 39° 17' 25\""},{"city":"Cantu, Lombardy","id":8039,"latitude":"45.7333","country":"Italy","longitude":"9.1333"},{"country":"Brazil","id":8040,"longitude":"-39.1640","latitude":"-9.9640","city":"Canudos, Bahia"},{"longitude":"-58.7333","city":"Canuelas, Buenos Aires","country":"Argentina","id":8041,"latitude":"-35.0333"},{"country":"Brazil","city":"Canutama, Amazonas","id":8042,"latitude":"-6.5339","longitude":"-64.3828"},{"city":"Canyon Lake, California","id":8043,"longitude":"-117.2621","latitude":"33.6885","country":"United States"},{"longitude":"-98.2611","latitude":"29.8761","city":"Canyon Lake, Texas","id":8044,"country":"United States"},{"latitude":"34.9911","longitude":"-101.9190","city":"Canyon, Texas","country":"United States","id":8045},{"id":8046,"latitude":"22.6667","country":"Vietnam","longitude":"106.2583","city":"Cao Bang, Cao Bằng"},{"country":"Vietnam","city":"Cao Lanh, Đồng Tháp","longitude":"105.6303","id":8047,"latitude":"10.4672"},{"country":"Philippines","longitude":"120.3831","id":8048,"latitude":"17.5469","city":"Caoayan, Ilocos Sur"},{"longitude":"111.3364","id":8049,"latitude":"27.8197","city":"Caojia, Hunan","country":"China"},{"longitude":"111.5210","latitude":"34.9016","city":"Caojiachuan, Shanxi","id":8050,"country":"China"},{"latitude":"-8.7000","longitude":"16.5167","city":"Caombo, Malanje","id":8051,"country":"Angola"},{"latitude":"45.6000","id":8052,"longitude":"12.8833","country":"Italy","city":"Caorle, Veneto"},{"longitude":"105.1742","country":"China","latitude":"36.2501","city":"Caotan, Gansu","id":8053},{"longitude":"120.7326","latitude":"23.9830","city":"Caotun, Nantou","id":8054,"country":"Taiwan"},{"latitude":"37.2739","country":"China","city":"Caowotan, Gansu","longitude":"104.1046","id":8055},{"latitude":" 49° 06' 00\"","country":"Canada","id":8056,"longitude":"-66° 41' 00\"","city":"Cap-Chat, Quebec"},{"city":"Cap-Haitien, Nord","latitude":"19.7600","country":"Haiti","longitude":"-72.2000","id":8057},{"country":"Canada","latitude":" 47° 23' 00\"","longitude":"-61° 52' 00\"","id":8058,"city":"Cap-aux-Meules, Quebec"},{"city":"Capaci, Sicilia","id":8059,"longitude":"13.2333","country":"Italy","latitude":"38.1667"},{"latitude":"14.3314","longitude":"122.4928","city":"Capalonga, Camarines Norte","country":"Philippines","id":8060},{"latitude":"-25.6719","city":"Capanema, Paraná","country":"Brazil","id":8061,"longitude":"-53.8089"},{"latitude":"-1.1958","country":"Brazil","id":8062,"longitude":"-47.1808","city":"Capanema, Pará"},{"longitude":"10.5667","id":8063,"latitude":"43.8500","city":"Capannori, Tuscany","country":"Italy"},{"country":"Brazil","latitude":"-24.0058","city":"Capao Bonito, São Paulo","longitude":"-48.3494","id":8064},{"id":8065,"country":"Brazil","latitude":"-29.7667","city":"Capao da Canoa, Rio Grande do Sul","longitude":"-50.0167"},{"city":"Capao do Leao, Rio Grande do Sul","country":"Brazil","longitude":"-52.4839","id":8066,"latitude":"-31.7628"},{"id":8067,"city":"Caparica, Setúbal","country":"Portugal","latitude":"38.6640","longitude":"-9.2000"},{"latitude":"5.3442","id":8068,"longitude":"-74.4917","country":"Colombia","city":"Caparrapi, Cundinamarca"},{"latitude":"15.3372","longitude":"120.5900","id":8069,"country":"Philippines","city":"Capas, Tarlac"},{"id":8070,"latitude":"10.4286","city":"Capaya, Miranda","country":"Venezuela","longitude":"-66.2717"},{"city":"Capbreton, Nouvelle-Aquitaine","id":8071,"longitude":"-1.4311","latitude":"43.6431","country":"France"},{"id":8072,"city":"Capdepera, Balearic Islands","country":"Spain","latitude":"39.7000","longitude":"3.4167"},{"city":"Cape Breton, Nova Scotia","latitude":"46.1389","longitude":"-60.1931","country":"Canada","id":8073},{"city":"Cape Canaveral, Florida","latitude":"28° 30' 27\"","longitude":"-80° 39' 9\"","country":"United States","id":8074},{"id":8075,"latitude":"5.1000","city":"Cape Coast, Central","country":"Ghana","longitude":"-1.2500"},{"city":"Cape Coral, Florida","country":"United States","id":8076,"longitude":"-81.9957","latitude":"26.6443"},{"city":"Cape Elizabeth, Maine","country":"United States","latitude":"43.5891","longitude":"-70.2380","id":8077},{"city":"Cape Girardeau, Missouri","country":"United States","longitude":"-89° 31' 59\"","latitude":" 37° 18' 36\"","id":8078},{"city":"Cape May, New Jersey","country":"USA","latitude":"38° 56' 25\"","longitude":"-74° 56' 20\"","id":8079},{"country":"United States","longitude":"-76.4471","id":8080,"latitude":"39.0433","city":"Cape St. Claire, Maryland"},{"longitude":"18.4239","latitude":"-33.9253","country":"South Africa","city":"Cape Town, Western Cape","id":8081},{"longitude":"-51.3333","id":8082,"country":"Brazil","city":"Capela de Santana, Rio Grande do Sul","latitude":"-29.7000"},{"city":"Capela do Alto Alegre, Bahia","country":"Brazil","longitude":"-39.8500","id":8083,"latitude":"-11.6667"},{"longitude":"-47.7347","latitude":"-23.4706","country":"Brazil","id":8084,"city":"Capela do Alto, São Paulo"},{"country":"Brazil","longitude":"-36.0736","id":8085,"latitude":"-9.4075","city":"Capela, Alagoas"},{"id":8086,"latitude":"-10.5028","country":"Brazil","longitude":"-37.0528","city":"Capela, Sergipe"},{"id":8087,"country":"Brazil","longitude":"-42.5158","latitude":"-17.6908","city":"Capelinha, Minas Gerais"},{"latitude":"51.9333","country":"Netherlands","longitude":"4.5833","id":8088,"city":"Capelle aan den IJssel, Zuid-Holland"},{"longitude":"5.9897","latitude":"49.6444","id":8089,"city":"Capellen, Capellen","country":"Luxembourg"},{"country":"Italy","latitude":"42.1403","longitude":"12.5403","city":"Capena, Lazio","id":8090},{"latitude":"-9.4233","city":"Capenda Camulemba, Lunda-Norte","id":8091,"country":"Angola","longitude":"18.4328"},{"longitude":"-57.4200","id":8092,"city":"Capiata, Central","latitude":"-25.3500","country":"Paraguay"},{"city":"Capilla de Guadalupe, Jalisco","country":"Mexico","longitude":"-102.8000","id":8093,"latitude":"20.6500"},{"id":8094,"latitude":"-30.8500","country":"Argentina","longitude":"-64.5167","city":"Capilla del Monte, Córdoba"},{"latitude":"-34.2833","city":"Capilla del Senor, Buenos Aires","id":8095,"longitude":"-59.1000","country":"Argentina"},{"id":8096,"city":"Capim Branco, Minas Gerais","latitude":"-19.5489","country":"Brazil","longitude":"-44.1169"},{"city":"Capim Grosso, Bahia","id":8097,"latitude":"-11.3808","country":"Brazil","longitude":"-40.0128"},{"longitude":"-47.7750","country":"Brazil","city":"Capim, Pará","latitude":"-1.6750","id":8098},{"city":"Capinopolis, Minas Gerais","id":8099,"country":"Brazil","longitude":"-49.5667","latitude":"-18.6667"},{"id":8100,"longitude":"-66.2636","country":"Bolivia","latitude":"-17.7150","city":"Capinota, Cochabamba"},{"country":"Brazil","city":"Capinzal, Santa Catarina","longitude":"-51.6119","latitude":"-27.3439","id":8101},{"latitude":"-4.4667","city":"Capistrano, Ceará","country":"Brazil","longitude":"-38.9167","id":8102},{"country":"Paraguay","id":8103,"longitude":"-55.5400","city":"Capitan Bado, Amambay","latitude":"-23.2600"},{"country":"Argentina","latitude":"-32.8167","city":"Capitan Bermudez, Santa Fe","longitude":"-60.7167","id":8104},{"id":8105,"latitude":"-25.7500","city":"Capitan Mauricio Jose Troche, Guairá","country":"Paraguay","longitude":"-56.4333"},{"id":8106,"country":"Paraguay","longitude":"-60.7900","city":"Capitan Pablo Lagerenza, Alto Paraguay","latitude":"-19.9200"},{"latitude":"-34.1667","city":"Capitan Sarmiento, Buenos Aires","country":"Argentina","id":8107,"longitude":"-59.7833"},{"id":8108,"longitude":"-43.7092","city":"Capitao Eneas, Minas Gerais","latitude":"-16.3178","country":"Brazil"},{"longitude":"-47.0833","city":"Capitao Poco, Pará","latitude":"-1.7500","country":"Brazil","id":8109},{"longitude":"-41.9439","country":"Brazil","latitude":"-4.4569","city":"Capitao de Campos, Piauí","id":8110},{"country":"Northern Mariana Islands","latitude":"15.2137","id":8111,"longitude":"145.7546","city":"Capitol Hill, "},{"city":"Capitola, California","country":"United States","longitude":"-121.9537","id":8112,"latitude":"36.9773"},{"longitude":"-46.0500","city":"Capitolio, Minas Gerais","latitude":"-20.6150","country":"Brazil","id":8113},{"id":8114,"latitude":"-22.9950","country":"Brazil","city":"Capivari, São Paulo","longitude":"-47.5078"},{"country":"Bosnia and Herzegovina","city":"Capljina, Bosnia and Herzegovina","latitude":"43.1118","longitude":"17.7055","id":8115},{"latitude":"38.1500","city":"Capo d'Orlando, Sicilia","id":8116,"country":"Italy","longitude":"14.7333"},{"longitude":"14.3000","id":8117,"city":"Capodrise, Campania","latitude":"41.0500","country":"Italy"},{"longitude":"-36.6269","id":8118,"latitude":"-8.7350","city":"Capoeiras, Pernambuco","country":"Brazil"},{"latitude":"11.2944","longitude":"124.6419","id":8119,"country":"Philippines","city":"Capoocan, Leyte"},{"country":"Italy","latitude":"39.1744","city":"Capoterra, Sardegna","longitude":"8.9711","id":8120},{"country":"Haiti","longitude":"-71.7000","latitude":"19.4500","id":8121,"city":"Capotille, Nord-Est"},{"longitude":"10.8000","country":"Italy","latitude":"45.6000","city":"Caprino Veronese, Veneto","id":8122},{"latitude":"45.6389","city":"Capriolo, Lombardy","longitude":"9.9339","country":"Italy","id":8123},{"longitude":"14.2139","id":8124,"city":"Capua, Campania","latitude":"41.1056","country":"Italy"},{"country":"Philippines","id":8125,"longitude":"124.1820","latitude":"12.4230","city":"Capul, Northern Samar"},{"longitude":"-99.4667","country":"Mexico","latitude":"19.2000","city":"Capulhuac, México","id":8126},{"latitude":"41.0500","city":"Capurso, Puglia","country":"Italy","id":8127,"longitude":"16.9167"},{"id":8128,"country":"Brazil","longitude":"-42.2667","latitude":"-20.1667","city":"Caputira, Minas Gerais"},{"city":"Caqueza, Cundinamarca","latitude":"4.4053","country":"Colombia","longitude":"-73.9478","id":8129},{"latitude":"10.6131","id":8130,"city":"Caraballeda, La Guaira","longitude":"-66.8506","country":"Venezuela"},{"longitude":"24.3472","country":"Romania","city":"Caracal, Olt","id":8131,"latitude":"44.1125"},{"longitude":"-61.1384","latitude":"1.8119","id":8132,"city":"Caracarai, Roraima","country":"Brazil"},{"country":"Venezuela","longitude":"-66.9036","id":8133,"latitude":"10.4806","city":"Caracas, Distrito Capital"},{"longitude":"42.5442","city":"Caracase, Gedo","latitude":"3.7533","country":"Somalia","id":8134},{"latitude":"9.7072","country":"Venezuela","id":8135,"city":"Carache, Trujillo","longitude":"-70.1933"},{"latitude":"-9.2789","city":"Caracol, Piauí","id":8136,"country":"Brazil","longitude":"-43.3300"},{"city":"Caracuaro, Michoacán","latitude":"19.0167","country":"Mexico","id":8137,"longitude":"-101.1261"},{"city":"Caraga, Davao Oriental","country":"Philippines","longitude":"126.5658","id":8138,"latitude":"7.3283"},{"country":"Brazil","id":8139,"latitude":"-23.6200","city":"Caraguatatuba, São Paulo","longitude":"-45.4128"},{"latitude":"-25.2333","city":"Caraguatay, Cordillera","country":"Paraguay","id":8140,"longitude":"-56.8167"},{"latitude":"-38.7089","longitude":"-73.1647","country":"Chile","city":"Carahue, Araucanía","id":8141},{"latitude":"-17.1889","id":8142,"city":"Carai, Minas Gerais","country":"Brazil","longitude":"-41.6950"},{"country":"Brazil","city":"Caraibas, Bahia","longitude":"-41.3350","latitude":"-14.6000","id":8143},{"longitude":"-50.0833","latitude":"-24.9333","city":"Carambei, Paraná","country":"Brazil","id":8144},{"latitude":"13.7707","country":"Philippines","city":"Caramoan, Camarines Sur","longitude":"123.8631","id":8145},{"country":"Philippines","longitude":"124.1300","id":8146,"city":"Caramoran, Catanduanes","latitude":"13.9800"},{"id":8147,"city":"Caranavi, La Paz","country":"Bolivia","longitude":"-67.5667","latitude":"-15.8333"},{"latitude":"-20.9544","country":"Brazil","city":"Carandai, Minas Gerais","longitude":"-43.7914","id":8148},{"country":"Brazil","id":8149,"city":"Carangola, Minas Gerais","longitude":"-42.0289","latitude":"-20.7328"},{"country":"Romania","longitude":"22.2219","id":8150,"city":"Caransebes, Caraş-Severin","latitude":"45.4214"},{"longitude":"-41.6608","id":8151,"city":"Carapebus, Rio de Janeiro","country":"Brazil","latitude":"-22.1869"},{"longitude":"-57.2470","latitude":"-25.7690","city":"Carapegua, Paraguarí","id":8152,"country":"Paraguay"},{"city":"Carapicuiba, São Paulo","country":"Brazil","id":8153,"latitude":"-23.5192","longitude":"-46.8358"},{"latitude":"-22.6339","city":"Carapo, Mato Grosso do Sul","country":"Brazil","longitude":"-54.8219","id":8154},{"city":"Caras, Ancash","country":"Peru","longitude":"-77.7433","latitude":"-9.0472","id":8155},{"city":"Carate Brianza, Lombardy","country":"Italy","latitude":"45.7667","longitude":"9.1833","id":8156},{"longitude":"-42.1333","latitude":"-19.7833","city":"Caratinga, Minas Gerais","country":"Brazil","id":8157},{"country":"Brazil","city":"Carauari, Amazonas","latitude":"-4.8828","longitude":"-66.8958","id":8158},{"city":"Caraubas, Rio Grande do Norte","country":"Brazil","longitude":"-37.5569","id":8159,"latitude":"-5.7928"},{"country":"Italy","city":"Caravaggio, Lombardy","longitude":"9.6500","id":8160,"latitude":"45.5000"},{"id":8161,"city":"Caravelas, Bahia","country":"Brazil","latitude":"-17.7320","longitude":"-39.2660"},{"city":"Carazinho, Rio Grande do Sul","longitude":"-52.7858","latitude":"-28.2839","id":8162,"country":"Brazil"},{"country":"Spain","longitude":"-8.6833","city":"Carballo, Galicia","id":8163,"latitude":"43.2167"},{"city":"Carbonado, Washington","id":8164,"longitude":"-122° 02' 59\"","latitude":" 47° 04' 58\"","country":"USA"},{"city":"Carbondale, Illinois","latitude":" 37° 42' 00\"","longitude":"-89° 12' 00\"","id":8165,"country":"United States"},{"country":"United States","longitude":"-75.5048","id":8166,"latitude":"41.5714","city":"Carbondale, Pennsylvania"},{"city":"Carbonear, Newfoundland","country":"Canada","id":8167,"latitude":" 47° 44' 00\"","longitude":"-53° 13' 00\""},{"latitude":"45.6833","country":"Italy","id":8168,"city":"Carbonera, Veneto","longitude":"12.2833"},{"city":"Carbonia, Sardegna","country":"Italy","longitude":"8.5222","id":8169,"latitude":"39.1672"},{"city":"Carbonita, Minas Gerais","country":"Brazil","latitude":"-17.5269","longitude":"-43.0158","id":8170},{"city":"Carcagente, Valencia","country":"Spain","latitude":"39.1222","longitude":"-0.4489","id":8171},{"city":"Carcar, Cebu","country":"Philippines","latitude":"10.1200","longitude":"123.6300","id":8172},{"country":"Argentina","longitude":"-61.1500","latitude":"-32.8500","city":"Carcarana, Santa Fe","id":8173},{"city":"Carcassonne, Occitanie","country":"France","longitude":"2.3500","id":8174,"latitude":"43.2100"},{"city":"Cardedeu, Catalonia","country":"Spain","longitude":"2.3594","latitude":"41.6406","id":8175},{"longitude":"-81.2036","country":"Cuba","id":8176,"latitude":"23.0428","city":"Cardenas, Matanzas"},{"latitude":"22.0100","city":"Cardenas, San Luis Potosí","longitude":"-99.6520","id":8177,"country":"Mexico"},{"id":8178,"latitude":"40.9500","country":"Italy","city":"Cardito, Campania","longitude":"14.3000"},{"country":"Philippines","longitude":"121.2289","latitude":"14.4861","id":8179,"city":"Cardona, Rizal"},{"id":8180,"latitude":"20.6167","country":"Mexico","city":"Cardonal, Hidalgo","longitude":"-99.1167"},{"latitude":"-21.4878","country":"Brazil","city":"Cardoso Moreira, Rio de Janeiro","id":8181,"longitude":"-41.6158"},{"city":"Cardoso, São Paulo","longitude":"-49.9139","id":8182,"country":"Brazil","latitude":"-20.0819"},{"longitude":"22.4669","country":"Romania","latitude":"47.6839","city":"Carei, Satu Mare","id":8183},{"id":8184,"city":"Careiro da Varzea, Amazonas","longitude":"-59.8258","latitude":"-3.2208","country":"Brazil"},{"longitude":"-60.3689","city":"Careiro, Amazonas","country":"Brazil","id":8185,"latitude":"-3.7678"},{"latitude":"30.3126","country":"United States","longitude":"-92.0388","id":8186,"city":"Carencro, Louisiana"},{"country":"Colombia","city":"Carepa, Antioquia","latitude":"7.7578","id":8187,"longitude":"-76.6553"},{"city":"Carhue, Buenos Aires","id":8188,"latitude":"-37.1796","country":"Argentina","longitude":"-62.7601"},{"city":"Cariacica, Espírito Santo","country":"Brazil","id":8189,"latitude":"-20.2639","longitude":"-40.4200"},{"id":8190,"latitude":"-4.3200","country":"Ecuador","longitude":"-79.5600","city":"Cariamanga, Loja"},{"latitude":"10.4349","id":8191,"city":"Cariari, Limón","country":"Costa Rica","longitude":"-83.6851"},{"country":"Haiti","id":8192,"latitude":"19.3833","city":"Carice, Nord-Est","longitude":"-71.8333"},{"id":8193,"longitude":"120.8958","country":"Philippines","latitude":"14.4828","city":"Caridad, Cavite"},{"city":"Caridade, Ceará","country":"Brazil","longitude":"-39.1928","id":8194,"latitude":"-4.2319"},{"id":8195,"country":"Philippines","latitude":"11.3000","city":"Carigara, Leyte","longitude":"124.6800"},{"city":"Carignan, Quebec","country":"Canada","id":8196,"longitude":"-73.3000","latitude":"45.4500"},{"latitude":"44.9000","longitude":"7.6833","id":8197,"city":"Carignano, Piedmont","country":"Italy"},{"id":8198,"latitude":"-14.3050","longitude":"-43.7650","city":"Carinhanha, Bahia","country":"Brazil"},{"longitude":"13.1833","id":8199,"latitude":"38.1333","country":"Italy","city":"Carini, Sicilia"},{"city":"Caripito, Monagas","country":"Venezuela","latitude":"10.1167","longitude":"-63.1000","id":8200},{"city":"Carira, Sergipe","id":8201,"country":"Brazil","latitude":"-10.3608","longitude":"-37.7008"},{"latitude":"-3.9508","longitude":"-40.4728","city":"Carire, Ceará","country":"Brazil","id":8202},{"longitude":"-39.2833","country":"Brazil","latitude":"-7.0333","city":"Caririacu, Ceará","id":8203},{"id":8204,"city":"Carius, Ceará","longitude":"-39.5000","latitude":"-6.5333","country":"Brazil"},{"latitude":"37.2833","city":"Carlentini, Sicilia","country":"Italy","id":8205,"longitude":"15.0167"},{"country":"Philippines","latitude":"11.5700","longitude":"123.1300","city":"Carles, Iloilo","id":8206},{"longitude":"-0.5211","latitude":"39.2264","country":"Spain","id":8207,"city":"Carlet, Valencia"},{"id":8208,"latitude":" 45° 08' 00\"","country":"Canada","city":"Carleton Place, Ontario","longitude":"-76° 09' 00\""},{"longitude":"27.3981","id":8209,"city":"Carletonville, Gauteng","latitude":"-26.3581","country":"South Africa"},{"latitude":"54.8947","country":"United Kingdom","longitude":"-2.9364","city":"Carlisle, Cumbria","id":8210},{"latitude":"40.2000","city":"Carlisle, Pennsylvania","longitude":"-77.2034","country":"United States","id":8211},{"city":"Carlopolis, Paraná","country":"Brazil","longitude":"-49.6833","latitude":"-23.4167","id":8212},{"city":"Carlos A. Carrillo, Veracruz","longitude":"-95.7500","id":8213,"country":"Mexico","latitude":"18.3667"},{"latitude":"-29.3000","id":8214,"city":"Carlos Barbosa, Rio Grande do Sul","longitude":"-51.5000","country":"Brazil"},{"longitude":"-61.3667","latitude":"-35.6167","id":8215,"city":"Carlos Casares, Buenos Aires","country":"Argentina"},{"city":"Carlos Chagas, Minas Gerais","longitude":"-40.7631","country":"Brazil","id":8216,"latitude":"-17.7056"},{"latitude":"21.5767","longitude":"-78.2775","city":"Carlos Manuel de Cespedes, Camagüey","country":"Cuba","id":8217},{"id":8218,"city":"Carlos Spegazzini, Buenos Aires","latitude":"-34.8833","longitude":"-58.5667","country":"Argentina"},{"latitude":"0.8658","country":"Colombia","id":8219,"city":"Carlosama, Nariño","longitude":"-77.7294"},{"longitude":"-6.9317","country":"Ireland","city":"Carlow, Carlow","id":8220,"latitude":"52.8306"},{"country":"United States","id":8221,"longitude":"-117.2834","city":"Carlsbad, California","latitude":"33.1246"},{"id":8222,"longitude":"-104.2388","latitude":"32.4010","country":"United States","city":"Carlsbad, New Mexico"},{"country":"United Kingdom","longitude":"1.6910","id":8223,"latitude":"52.4540","city":"Carlton Colville, Suffolk"},{"latitude":" 46° 40' 01\"","country":"USA","city":"Carlton, Minnesota","id":8224,"longitude":"-92° 25' 58\""},{"longitude":"-3.8340","id":8225,"latitude":"55.7340","city":"Carluke, South Lanarkshire","country":"United Kingdom"},{"longitude":"-102° 16' 00\"","city":"Carlyle, Saskatchewan","latitude":" 49° 38' 00\"","country":"Canada","id":8226},{"latitude":"44.8500","id":8227,"city":"Carmagnola, Piedmont","country":"Italy","longitude":"7.7167"},{"country":"Canada","id":8228,"latitude":" 49° 29' 57\"","city":"Carman, Manitoba","longitude":"-98° 00' 03\""},{"latitude":"44.0500","city":"Carmaux, Occitanie","id":8229,"country":"France","longitude":"2.1589"},{"country":"United States","longitude":"-86.1460","id":8230,"latitude":"39.9650","city":"Carmel, Indiana"},{"country":"United States","latitude":"41.3899","city":"Carmel, New York","longitude":"-73.7239","id":8231},{"city":"Carmelo, Colonia","id":8232,"country":"Uruguay","longitude":"-58.2833","latitude":"-34.0000"},{"city":"Carmen de Apicala, Tolima","longitude":"-74.7333","latitude":"4.1500","country":"Colombia","id":8233},{"longitude":"-59.8294","country":"Argentina","city":"Carmen de Areco, Buenos Aires","latitude":"-34.3858","id":8234},{"city":"Carmen de Carupa, Cundinamarca","country":"Colombia","longitude":"-73.9053","latitude":"5.3503","id":8235},{"country":"Argentina","city":"Carmen de Patagones, Buenos Aires","longitude":"-62.9667","latitude":"-40.7833","id":8236},{"id":8237,"city":"Carmen de Viboral, Antioquia","country":"Colombia","latitude":"6.0833","longitude":"-75.3333"},{"longitude":"125.2600","id":8238,"latitude":"9.0000","city":"Carmen, Agusan del Norte","country":"Philippines"},{"latitude":"9.8200","country":"Philippines","id":8239,"city":"Carmen, Bohol","longitude":"124.2000"},{"latitude":"18.6431","id":8240,"city":"Carmen, Campeche","country":"Mexico","longitude":"-91.8306"},{"latitude":"7.2000","id":8241,"country":"Philippines","longitude":"124.7800","city":"Carmen, Cotabato"},{"latitude":"7.3606","longitude":"125.7064","id":8242,"country":"Philippines","city":"Carmen, Davao del Norte"},{"country":"Philippines","city":"Carmen, Surigao del Sur","id":8243,"latitude":"9.2289","longitude":"126.0167"},{"latitude":"40.3458","country":"Italy","longitude":"18.0458","id":8244,"city":"Carmiano, Puglia"},{"country":"United States","id":8245,"longitude":"-121° 19' 44\"","city":"Carmichael, California","latitude":" 38° 40' 00\""},{"id":8246,"latitude":"43.8167","country":"Italy","city":"Carmignano, Tuscany","longitude":"11.0167"},{"id":8247,"latitude":"-21.4608","country":"Brazil","longitude":"-45.2239","city":"Carmo da Cachoeira, Minas Gerais"},{"latitude":"-20.5500","city":"Carmo da Mata, Minas Gerais","id":8248,"country":"Brazil","longitude":"-44.8833"},{"country":"Brazil","longitude":"-45.1289","city":"Carmo de Minas, Minas Gerais","id":8249,"latitude":"-22.1219"},{"city":"Carmo do Cajuru, Minas Gerais","country":"Brazil","latitude":"-20.1839","longitude":"-44.7708","id":8250},{"city":"Carmo do Paranaiba, Minas Gerais","latitude":"-19.0008","country":"Brazil","longitude":"-48.3158","id":8251},{"id":8252,"city":"Carmo do Rio Claro, Minas Gerais","country":"Brazil","latitude":"-20.9731","longitude":"-46.1189"},{"longitude":"-49.7058","city":"Carmo do Rio Verde, Goiás","latitude":"-15.3569","country":"Brazil","id":8253},{"id":8254,"longitude":"-42.6089","country":"Brazil","latitude":"-21.9339","city":"Carmo, Rio de Janeiro"},{"latitude":"37.4667","longitude":"-5.6333","city":"Carmona, Andalusia","country":"Spain","id":8255},{"id":8256,"city":"Carmona, Cavite","latitude":"14.3200","country":"Philippines","longitude":"121.0500"},{"longitude":"-44.6333","city":"Carmopolis de Minas, Minas Gerais","id":8257,"latitude":"-20.5500","country":"Brazil"},{"latitude":"-10.6478","longitude":"-36.9889","id":8258,"country":"Brazil","city":"Carmopolis, Sergipe"},{"latitude":"-7.8050","city":"Carnaiba, Pernambuco","id":8259,"longitude":"-37.7939","country":"Brazil"},{"city":"Carnarvon, Northern Cape","longitude":"22.1333","latitude":"-30.9667","country":"South Africa","id":8260},{"id":8261,"latitude":"-24.8672","city":"Carnarvon, Western Australia","country":"Australia","longitude":"113.6611"},{"country":"Brazil","longitude":"-36.8333","latitude":"-5.3500","city":"Carnaubais, Rio Grande do Norte","id":8262},{"latitude":"-4.1669","city":"Carnaubal, Ceará","longitude":"-40.9428","country":"Brazil","id":8263},{"city":"Carnaubeira da Penha, Pernambuco","latitude":"-8.3219","country":"Brazil","longitude":"-38.7439","id":8264},{"city":"Carneirinho, Minas Gerais","latitude":"-19.6978","longitude":"-50.6878","country":"Brazil","id":8265},{"longitude":"-37.3769","id":8266,"latitude":"-9.4828","city":"Carneiros, Alagoas","country":"Brazil"},{"latitude":"39.4050","city":"Carney, Maryland","longitude":"-76.5235","country":"United States","id":8267},{"country":"United States","city":"Carneys Point, New Jersey","latitude":"39.6967","longitude":"-75.4475","id":8268},{"longitude":"15.8700","country":"Central African Republic","latitude":"4.9400","id":8269,"city":"Carnot, Mambéré-Kadéï"},{"latitude":"40.5187","id":8270,"city":"Carnot-Moon, Pennsylvania","country":"United States","longitude":"-80.2178"},{"latitude":"56.5010","country":"United Kingdom","id":8271,"longitude":"-2.7100","city":"Carnoustie, Angus"},{"country":"United States","longitude":"-88.1307","id":8272,"city":"Carol Stream, Illinois","latitude":"41.9181"},{"latitude":"33.7651","city":"Carolina Forest, South Carolina","longitude":"-78.9130","country":"United States","id":8273},{"country":"Puerto Rico","longitude":"-65.9792","latitude":"18.4054","id":8274,"city":"Carolina, Puerto Rico"},{"id":8275,"latitude":"10.1711","longitude":"-70.0797","city":"Carora, Lara","country":"Venezuela"},{"latitude":"46.1833","country":"Switzerland","city":"Carouge, Genève","longitude":"6.1333","id":8276},{"city":"Carovigno, Puglia","country":"Italy","longitude":"17.6667","latitude":"40.7000","id":8277},{"country":"Italy","city":"Carpenedolo, Lombardy","latitude":"45.3667","id":8278,"longitude":"10.4333"},{"id":8279,"latitude":"42.1227","city":"Carpentersville, Illinois","longitude":"-88.2896","country":"United States"},{"latitude":"44.0558","longitude":"5.0489","country":"France","id":8280,"city":"Carpentras, Provence-Alpes-Côte d’Azur"},{"city":"Carpi, Emilia-Romagna","id":8281,"longitude":"10.8833","latitude":"44.7833","country":"Italy"},{"id":8282,"latitude":"-7.8508","city":"Carpina, Pernambuco","country":"Brazil","longitude":"-35.2547"},{"country":"United States","city":"Carpinteria, California","longitude":"-119.5118","latitude":"34.3962","id":8283},{"city":"Carquefou, Pays de la Loire","latitude":"47.2975","country":"France","id":8284,"longitude":"-1.4914"},{"city":"Carqueiranne, Provence-Alpes-Côte d’Azur","country":"France","longitude":"6.0742","id":8285,"latitude":"43.0958"},{"longitude":"121.0631","latitude":"15.9608","city":"Carranglan, Nueva Ecija","id":8286,"country":"Philippines"},{"city":"Carrara, Tuscany","country":"Italy","longitude":"10.1000","id":8287,"latitude":"44.0792"},{"longitude":"125.9494","id":8288,"city":"Carrascal, Surigao del Sur","country":"Philippines","latitude":"9.3683"},{"id":8289,"latitude":"35.9259","city":"Carrboro, North Carolina","country":"United States","longitude":"-79.0878"},{"city":"Carrefour, Ouest","country":"Haiti","longitude":"-72.4094","id":8290,"latitude":"18.5344"},{"id":8291,"country":"Portugal","city":"Carregado, Lisboa","latitude":"39.0167","longitude":"-8.9667"},{"latitude":"40.4333","city":"Carregal do Sal, Viseu","country":"Portugal","longitude":"-8.0000","id":8292},{"latitude":"53.9440","country":"Ireland","id":8293,"longitude":"-8.0950","city":"Carrick on Shannon, Leitrim"},{"latitude":"54.7136","city":"Carrickfergus, Mid and East Antrim","id":8294,"country":"United Kingdom","longitude":"-5.8075"},{"latitude":"48.9486","city":"Carrieres-sous-Poissy, Île-de-France","id":8295,"longitude":"2.0394","country":"France"},{"latitude":"48.9108","city":"Carrieres-sur-Seine, Île-de-France","longitude":"2.2889","country":"France","id":8296},{"longitude":"-8.3905","id":8297,"latitude":"51.8166","city":"Carrigaline, Cork","country":"Ireland"},{"city":"Carrillos, Alajuela","country":"Costa Rica","id":8298,"latitude":"10.0369","longitude":"-84.2740"},{"country":"USA","longitude":"-105° 55' 01\"","id":8299,"latitude":" 33° 40' 01\"","city":"Carrizozo, New Mexico"},{"country":"United States","id":8300,"longitude":"-94.8646","latitude":"42.0699","city":"Carroll, Iowa"},{"id":8301,"country":"United States","longitude":"-84° 04' 58\"","latitude":" 33° 34' 58\"","city":"Carrollton, Georgia"},{"country":"United States","latitude":"32.9890","longitude":"-96.8999","city":"Carrollton, Texas","id":8302},{"city":"Carrollwood, Florida","country":"United States","longitude":"-82.5148","id":8303,"latitude":"28.0577"},{"city":"Carros, Provence-Alpes-Côte d’Azur","longitude":"7.1883","latitude":"43.7933","country":"France","id":8304},{"city":"Carsamba, Samsun","country":"Turkey","latitude":"41.1992","id":8305,"longitude":"36.7275"},{"longitude":"-0.1676","id":8306,"country":"United Kingdom","city":"Carshalton, Sutton","latitude":"51.3652"},{"city":"Carsibasi, Trabzon","country":"Turkey","longitude":"39.3833","latitude":"41.0833","id":8307},{"city":"Carson City, Nevada","id":8308,"longitude":"-119° 46' 01\"","country":"United States","latitude":" 39° 10' 00\""},{"longitude":"-118° 16' 58\"","country":"United States","id":8309,"city":"Carson, California","latitude":" 33° 48' 24\""},{"latitude":"1.3500","id":8310,"country":"Colombia","city":"Cartagena del Chaira, Caquetá","longitude":"-74.8333"},{"country":"Colombia","longitude":"-75.5000","id":8311,"latitude":"10.4000","city":"Cartagena, Bolívar"},{"city":"Cartagena, Murcia","latitude":"37.6000","country":"Spain","longitude":"-0.9833","id":8312},{"latitude":"-33.5425","longitude":"-71.5958","country":"Chile","city":"Cartagena, Valparaíso","id":8313},{"city":"Cartago, Cartago","country":"Costa Rica","id":8314,"longitude":"-83.9167","latitude":"9.8667"},{"longitude":"-75.9167","id":8315,"city":"Cartago, Valle del Cauca","latitude":"4.7000","country":"Colombia"},{"longitude":"-4.6306","city":"Cartama, Andalusia","latitude":"36.7114","id":8316,"country":"Spain"},{"city":"Cartavio, La Libertad","id":8317,"longitude":"-79.2167","latitude":"-7.8833","country":"Peru"},{"city":"Cartaxo, Santarém","country":"Portugal","id":8318,"longitude":"-8.7833","latitude":"39.1500"},{"id":8319,"latitude":"37.2833","city":"Cartaya, Andalusia","country":"Spain","longitude":"-7.1500"},{"id":8320,"latitude":"40.5849","country":"United States","city":"Carteret, New Jersey","longitude":"-74.2284"},{"latitude":" 34° 08' 59\"","country":"United States","longitude":"-84° 46' 58\"","city":"Cartersville, Georgia","id":8321},{"id":8322,"country":"United Kingdom","longitude":"-1.5900","city":"Carterton, Oxfordshire","latitude":"51.7600"},{"id":8323,"latitude":"37.1503","city":"Carthage, Missouri","country":"United States","longitude":"-94.3225"},{"latitude":"36.8528","country":"Tunisia","city":"Carthage, Tunis","longitude":"10.3233","id":8324},{"latitude":"-8.2828","longitude":"-35.9758","city":"Caruaru, Pernambuco","country":"Brazil","id":8325},{"latitude":"45.5500","city":"Carugate, Lombardy","longitude":"9.3333","id":8326,"country":"Italy"},{"longitude":"-63.2403","id":8327,"city":"Carupano, Sucre","latitude":"10.6722","country":"Venezuela"},{"latitude":"-1.1950","id":8328,"city":"Carutapera, Maranhão","country":"Brazil","longitude":"-46.0200"},{"country":"Venezuela","id":8329,"latitude":"9.3300","longitude":"-70.5767","city":"Carvajal, Trujillo"},{"country":"United States","city":"Carver, Massachusetts","id":8330,"longitude":"-70.7563","latitude":"41.8739"},{"longitude":"2.9589","latitude":"50.4939","country":"France","city":"Carvin, Hauts-de-France","id":8331},{"latitude":" 42° 13' 00\"","city":"Cary, Illinois","longitude":"-88° 13' 59\"","country":"United States","id":8332},{"latitude":"35.7819","city":"Cary, North Carolina","country":"United States","longitude":"-78.8195","id":8333},{"latitude":"-21.7739","country":"Brazil","longitude":"-47.0858","city":"Casa Branca, São Paulo","id":8334},{"city":"Casa Grande, Arizona","country":"United States","longitude":"-111° 44' 52\"","latitude":" 32° 52' 48\"","id":8335},{"latitude":"-9.1619","id":8336,"city":"Casa Nova, Bahia","longitude":"-40.9708","country":"Brazil"},{"longitude":"-116.9688","id":8337,"latitude":"32.7640","country":"United States","city":"Casa de Oro-Mount Helix, California"},{"id":8338,"latitude":"33.5333","city":"Casablanca, Casablanca-Settat","country":"Morocco","longitude":"-7.5833"},{"id":8339,"latitude":"-33.3167","longitude":"-71.4167","city":"Casablanca, Región Metropolitana","country":"Chile"},{"longitude":"14.1333","id":8340,"city":"Casal di Principe, Campania","country":"Italy","latitude":"41.0167"},{"latitude":"45.1333","country":"Italy","longitude":"8.4500","id":8341,"city":"Casale Monferrato, Piedmont"},{"city":"Casale sul Sile, Veneto","longitude":"12.3333","id":8342,"latitude":"45.6000","country":"Italy"},{"longitude":"-72.3854","city":"Casale, Ouest","id":8343,"latitude":"18.7990","country":"Haiti"},{"id":8344,"latitude":"44.4833","city":"Casalecchio di Reno, Emilia-Romagna","longitude":"11.2833","country":"Italy"},{"latitude":"44.5833","longitude":"10.7333","id":8345,"country":"Italy","city":"Casalgrande, Emilia-Romagna"},{"city":"Casalmaggiore, Lombardy","latitude":"44.9833","country":"Italy","id":8346,"longitude":"10.4167"},{"city":"Casalnuovo di Napoli, Campania","longitude":"14.3500","country":"Italy","latitude":"40.9167","id":8347},{"id":8348,"country":"Italy","longitude":"9.6500","city":"Casalpusterlengo, Lombardy","latitude":"45.1833"},{"city":"Casaluce, Campania","country":"Italy","longitude":"14.2000","id":8349,"latitude":"41.0000"},{"id":8350,"city":"Casamassima, Puglia","country":"Italy","longitude":"16.9167","latitude":"40.9500"},{"country":"Italy","id":8351,"longitude":"14.2500","latitude":"40.9333","city":"Casandrino, Campania"},{"longitude":"18.1667","latitude":"40.0167","city":"Casarano, Puglia","id":8352,"country":"Italy"},{"country":"United States","city":"Casas Adobes, Arizona","id":8353,"longitude":"-111.0113","latitude":"32.3423"},{"city":"Casatenovo, Lombardy","longitude":"9.3122","latitude":"45.6972","id":8354,"country":"Italy"},{"country":"Brazil","latitude":"-28.5667","city":"Casca, Rio Grande do Sul","longitude":"-51.9833","id":8355},{"longitude":"-77.3874","city":"Cascades, Virginia","latitude":"39.0464","country":"United States","id":8356},{"longitude":"-9.4167","latitude":"38.7000","city":"Cascais, Lisboa","country":"Portugal","id":8357},{"id":8358,"city":"Cascavel, Ceará","latitude":"-4.1308","longitude":"-38.2358","country":"Brazil"},{"longitude":"-53.4553","id":8359,"country":"Brazil","latitude":"-24.9556","city":"Cascavel, Paraná"},{"latitude":"43.6833","country":"Italy","city":"Cascina, Tuscany","longitude":"10.5500","id":8360},{"country":"Italy","city":"Caselle Torinese, Piedmont","latitude":"45.1833","longitude":"7.6500","id":8361},{"country":"Argentina","city":"Caseros, Buenos Aires","id":8362,"latitude":"-34.6106","longitude":"-58.5625"},{"latitude":"41.0667","id":8363,"city":"Caserta, Campania","country":"Italy","longitude":"14.3333"},{"country":"Italy","longitude":"12.3000","id":8364,"latitude":"45.6500","city":"Casier, Veneto"},{"city":"Casiguran, Aurora","id":8365,"latitude":"16.2800","country":"Philippines","longitude":"122.1200"},{"country":"Philippines","longitude":"124.0081","latitude":"12.8731","id":8366,"city":"Casiguran, Sorsogon"},{"city":"Casilda, Santa Fe","longitude":"-61.1667","latitude":"-33.0500","id":8367,"country":"Argentina"},{"city":"Casillas, Santa Rosa","country":"Guatemala","latitude":"14.4167","longitude":"-90.2500","id":8368},{"id":8369,"city":"Casimiro de Abreu, Rio de Janeiro","latitude":"-22.4808","country":"Brazil","longitude":"-42.2039"},{"longitude":"-35.7208","country":"Brazil","id":8370,"latitude":"-7.7408","city":"Casinhas, Pernambuco"},{"latitude":"-28.8667","longitude":"153.0500","city":"Casino, New South Wales","country":"Australia","id":8371},{"id":8372,"country":"Czechia","city":"Caslav, Středočeský Kraj","latitude":"49.9117","longitude":"15.3950"},{"longitude":"-78.3106","city":"Casma, Ancash","country":"Peru","id":8373,"latitude":"-9.4742"},{"country":"Italy","longitude":"9.0167","latitude":"45.3167","id":8374,"city":"Casorate Primo, Lombardy"},{"longitude":"14.3000","country":"Italy","city":"Casoria, Campania","id":8375,"latitude":"40.9000"},{"id":8376,"longitude":"-0.0333","latitude":"41.2333","city":"Caspe, Aragon","country":"Spain"},{"country":"United States","latitude":" 42° 50' 48\"","longitude":"-106° 18' 46\"","city":"Casper, Wyoming","id":8377},{"longitude":"2.8772","latitude":"41.8892","country":"Spain","id":8378,"city":"Cassa de la Selva, Catalonia"},{"city":"Cassano al Ionio, Calabria","latitude":"39.7833","country":"Italy","longitude":"16.3167","id":8379},{"id":8380,"latitude":"45.5333","country":"Italy","city":"Cassano d'Adda, Lombardy","longitude":"9.5167"},{"latitude":"40.8833","country":"Italy","id":8381,"longitude":"16.7667","city":"Cassano delle Murge, Puglia"},{"latitude":"28.6624","id":8382,"city":"Casselberry, Florida","country":"United States","longitude":"-81.3217"},{"country":"Canada","id":8383,"longitude":"-75° 05' 00\"","city":"Casselman, Ontario","latitude":" 45° 19' 00\""},{"city":"Cassia, Minas Gerais","id":8384,"country":"Brazil","latitude":"-20.5828","longitude":"-46.9219"},{"city":"Cassilandia, Mato Grosso do Sul","longitude":"-51.7339","id":8385,"country":"Brazil","latitude":"-19.1128"},{"id":8386,"latitude":"45.5167","city":"Cassina de' Pecchi, Lombardy","country":"Italy","longitude":"9.3667"},{"latitude":"41.5000","country":"Italy","longitude":"13.8333","city":"Cassino, Lazio","id":8387},{"longitude":"15.0000","id":8388,"city":"Cassongue, Cuanza-Sul","latitude":"-11.8333","country":"Angola"},{"latitude":"43.1667","city":"Castagneto Carducci, Tuscany","country":"Italy","longitude":"10.6000","id":8389},{"latitude":"34.4818","city":"Castaic, California","country":"United States","longitude":"-118.6316","id":8390},{"country":"Spain","id":8391,"latitude":"38.5967","longitude":"-0.6708","city":"Castalla, Valencia"},{"longitude":"1.4989","id":8392,"country":"France","latitude":"43.5164","city":"Castanet-Tolosan, Occitanie"},{"id":8393,"longitude":"-47.9219","country":"Brazil","city":"Castanhal, Pará","latitude":"-1.2969"},{"country":"Italy","latitude":"45.5500","longitude":"8.7667","id":8394,"city":"Castano Primo, Lombardy"},{"latitude":"26.7833","city":"Castanos, Coahuila","country":"Mexico","longitude":"-101.4167","id":8395},{"latitude":"19.7000","city":"Castanuelas, Cibao Noroeste","id":8396,"country":"Dominican Republic","longitude":"-71.5000"},{"id":8397,"longitude":"31.0201","city":"Casteel, Mpumalanga","country":"South Africa","latitude":"-24.7247"},