{"cities":[{"latitude":"50.2430","id":12548,"city":"E'erguna, Inner Mongolia","country":"China","longitude":"120.1810"},{"country":"United States","longitude":"-93° 13' 11\"","city":"Eagan, Minnesota","id":12549,"latitude":" 44° 49' 47\""},{"latitude":"40.3137","city":"Eagle Mountain, Utah","country":"United States","longitude":"-112.0114","id":12550},{"latitude":"28.7125","country":"United States","longitude":"-100.4840","id":12551,"city":"Eagle Pass, Texas"},{"id":12552,"country":"United States","latitude":"42.4677","city":"Eagle Point, Oregon","longitude":"-122.8016"},{"country":"USA","latitude":" 61° 19' 18\"","city":"Eagle River, Alaska","longitude":"-149° 34' 01\"","id":12553},{"longitude":"-141° 19' 58\"","city":"Eagle, Alaska","latitude":" 64° 42' 00\"","country":"USA","id":12554},{"city":"Eagle, Idaho","longitude":"-116.3866","country":"United States","latitude":"43.7223","id":12555},{"latitude":"51.5175","country":"United Kingdom","city":"Ealing, Ealing","id":12556,"longitude":"-0.2988"},{"city":"Ear Falls, Ontario","latitude":" 50° 38' 00\"","longitude":"-93° 13' 00\"","id":12557,"country":"Canada"},{"country":"United Kingdom","id":12558,"city":"Earlestown, St. Helens","longitude":"-2.6500","latitude":"53.4500"},{"country":"United Kingdom","id":12559,"longitude":"-0.9330","city":"Earley, Wokingham","latitude":"51.4330"},{"city":"Earlton, Ontario","country":"Canada","longitude":"-79° 49' 00\"","id":12560,"latitude":" 47° 43' 00\""},{"latitude":"34.8188","longitude":"-82.5827","id":12561,"country":"United States","city":"Easley, South Carolina"},{"country":"United States","longitude":"-118.9743","id":12562,"latitude":"35.3832","city":"East Bakersfield, California"},{"city":"East Barnet, Barnet","country":"United Kingdom","longitude":"-0.1630","id":12563,"latitude":"51.6430"},{"country":"United States","longitude":"-93.2038","city":"East Bethel, Minnesota","id":12564,"latitude":"45.3557"},{"id":12565,"city":"East Boston, Massachusetts","longitude":"-71° 02' 59\"","latitude":" 42° 20' 34\"","country":"USA"},{"country":"United States","longitude":"-75.6469","id":12566,"city":"East Bradford, Pennsylvania","latitude":"39.9590"},{"longitude":"-75.7505","id":12567,"country":"United States","latitude":"40.0364","city":"East Brandywine, Pennsylvania"},{"city":"East Bridgewater, Massachusetts","id":12568,"latitude":"42.0352","country":"United States","longitude":"-70.9424"},{"longitude":"-74° 25' 12\"","city":"East Brunswick, New Jersey","id":12569,"country":"United States","latitude":" 40° 26' 23\""},{"id":12570,"country":"United States","latitude":"41.6469","city":"East Chicago, Indiana","longitude":"-87.4545"},{"city":"East Cleveland, Ohio","country":"United States","latitude":"41.5317","longitude":"-81.5794","id":12571},{"latitude":"40.2242","id":12572,"city":"East Cocalico, Pennsylvania","longitude":"-76.1057","country":"United States"},{"id":12573,"longitude":"0.9400","city":"East Dereham, Norfolk","country":"United Kingdom","latitude":"52.6810"},{"latitude":"40.0823","city":"East Donegal, Pennsylvania","country":"United States","longitude":"-76.5631","id":12574},{"longitude":"-0.1753","id":12575,"city":"East Finchley, Barnet","latitude":"51.5902","country":"United Kingdom"},{"city":"East Fishkill, New York","latitude":"41.5567","id":12576,"country":"United States","longitude":"-73.7824"},{"latitude":"40.4933","id":12577,"longitude":"-74.4710","city":"East Franklin, New Jersey","country":"United States"},{"longitude":"-73.9256","city":"East Glenville, New York","latitude":"42.8648","country":"United States","id":12578},{"id":12579,"latitude":"39.9934","city":"East Goshen, Pennsylvania","country":"United States","longitude":"-75.5478"},{"latitude":"47.9286","longitude":"-97.0138","city":"East Grand Forks, Minnesota","id":12580,"country":"United States"},{"country":"United States","latitude":"42.9464","longitude":"-85.6088","city":"East Grand Rapids, Michigan","id":12581},{"country":"United States","id":12582,"longitude":"-73.6969","latitude":"42.6122","city":"East Greenbush, New York"},{"latitude":"39.7903","longitude":"-75.2396","city":"East Greenwich, New Jersey","country":"United States","id":12583},{"longitude":"-71.5058","latitude":"41.6362","id":12584,"city":"East Greenwich, Rhode Island","country":"United States"},{"id":12585,"country":"United Kingdom","longitude":"-0.0144","latitude":"51.1286","city":"East Grinstead, West Sussex"},{"city":"East Gwillimbury, Ontario","id":12586,"longitude":"-79.4167","latitude":"44.1333","country":"Canada"},{"longitude":"0.0554","country":"United Kingdom","latitude":"51.5323","id":12587,"city":"East Ham, Newham"},{"city":"East Hampton, New York","longitude":"-72.1277","country":"United States","id":12588,"latitude":"41.0117"},{"longitude":"-74.3638","city":"East Hanover, New Jersey","country":"United States","id":12589,"latitude":"40.8192"},{"country":"United States","id":12590,"longitude":"-116.9410","city":"East Hemet, California","latitude":"33.7301"},{"country":"United States","longitude":"-76.3831","id":12591,"latitude":"40.0825","city":"East Hempfield, Pennsylvania"},{"id":12592,"city":"East Highland Park, Virginia","latitude":"37.5770","country":"United States","longitude":"-77.3865"},{"city":"East Honolulu, Hawaii","id":12593,"latitude":"21.2975","country":"United States","longitude":"-157.7211"},{"id":12594,"city":"East Islip, New York","latitude":"40.7257","country":"United States","longitude":"-73.1869"},{"country":"Canada","longitude":"-119.5833","id":12595,"latitude":"49.8625","city":"East Kelowna, British Columbia"},{"city":"East Kilbride, South Lanarkshire","country":"United Kingdom","longitude":"-4.1769","id":12596,"latitude":"55.7644"},{"longitude":"-82.6868","country":"United States","id":12597,"latitude":"28.1206","city":"East Lake, Florida"},{"city":"East Lake-Orient Park, Florida","longitude":"-82.3653","latitude":"27.9970","country":"United States","id":12598},{"latitude":"40.0375","city":"East Lampeter, Pennsylvania","id":12599,"country":"United States","longitude":"-76.2162"},{"longitude":"-84° 28' 59\"","latitude":" 42° 44' 05\"","country":"United States","id":12600,"city":"East Lansing, Michigan"},{"country":"USA","longitude":"-115° 02' 31\"","id":12601,"latitude":" 36° 05' 41\"","city":"East Las Vegas, Nevada"},{"latitude":"52.8320","id":12602,"longitude":"-1.1770","city":"East Leake, Nottinghamshire","country":"United Kingdom"},{"city":"East Liverpool, Ohio","country":"United States","longitude":"-80.5677","latitude":"40.6333","id":12603},{"latitude":"-33.0175","city":"East London, Eastern Cape","longitude":"27.9047","country":"South Africa","id":12604},{"city":"East Longmeadow, Massachusetts","longitude":"-72.4990","id":12605,"country":"United States","latitude":"42.0597"},{"longitude":"-118° 09' 10\"","country":"United States","latitude":" 34° 01' 12\"","city":"East Los Angeles, California","id":12606},{"id":12607,"latitude":"40.6742","city":"East Massapequa, New York","country":"United States","longitude":"-73.4359"},{"id":12608,"city":"East Meadow, New York","longitude":"-73.5604","latitude":"40.7197","country":"United States"},{"latitude":"30.6175","city":"East Milton, Florida","country":"United States","longitude":"-86.9636","id":12609},{"city":"East Moline, Illinois","latitude":"41.5199","country":"United States","longitude":"-90.3879","id":12610},{"latitude":"35.3683","longitude":"-118.9225","id":12611,"city":"East Niles, California","country":"United States"},{"id":12612,"latitude":"40.1506","city":"East Norriton, Pennsylvania","country":"United States","longitude":"-75.3364"},{"country":"United States","latitude":"40.8791","city":"East Northport, New York","longitude":"-73.3233","id":12613},{"city":"East Nottingham, Pennsylvania","id":12614,"country":"United States","latitude":"39.7621","longitude":"-75.9705"},{"longitude":"-74° 12' 35\"","city":"East Orange, New Jersey","id":12615,"latitude":" 40° 45' 47\"","country":"United States"},{"latitude":"37.4671","longitude":"-122.1352","country":"United States","city":"East Palo Alto, California","id":12616},{"country":"United States","longitude":"-72.9817","id":12617,"city":"East Patchogue, New York","latitude":"40.7704"},{"country":"United States","latitude":"40.2886","longitude":"-76.9394","city":"East Pennsboro, Pennsylvania","id":12618},{"longitude":"-89.5419","city":"East Peoria, Illinois","id":12619,"country":"United States","latitude":"40.6736"},{"country":"United States","latitude":" 33° 40' 36\"","longitude":"-84° 26' 35\"","city":"East Point, Georgia","id":12620},{"latitude":"41.8065","city":"East Providence, Rhode Island","longitude":"-71.3565","id":12621,"country":"United States"},{"city":"East Rancho Dominguez, California","latitude":"33.8949","country":"United States","id":12622,"longitude":"-118.1956"},{"country":"United States","longitude":"-122.0854","id":12623,"latitude":"47.4718","city":"East Renton Highlands, Washington"},{"longitude":"-0.9431","latitude":"53.3228","country":"United Kingdom","city":"East Retford, Nottinghamshire","id":12624},{"id":12625,"city":"East Ridge, Tennessee","latitude":"34.9973","country":"United States","longitude":"-85.2285"},{"longitude":"-76.9109","latitude":"38.9600","country":"United States","city":"East Riverdale, Maryland","id":12626},{"city":"East Rockaway, New York","longitude":"-73.6672","id":12627,"latitude":"40.6432","country":"United States"},{"latitude":"40.8179","id":12628,"city":"East Rutherford, New Jersey","country":"United States","longitude":"-74.0854"},{"longitude":"-118.0791","city":"East San Gabriel, California","id":12629,"latitude":"34.1157","country":"United States"},{"id":12630,"city":"East Setauket, New York","latitude":"40.9210","longitude":"-73.0942","country":"United States"},{"longitude":"-90° 09' 18\"","country":"United States","city":"East St. Louis, Illinois","id":12631,"latitude":" 38° 37' 18\""},{"latitude":"49.9772","id":12632,"city":"East St. Paul, Manitoba","country":"Canada","longitude":"-97.0103"},{"country":"United States","latitude":" 41° 04' 59\"","city":"East Stroudsburg, Pennsylvania","longitude":"-75° 13' 00\"","id":12633},{"latitude":" 47° 12' 12\"","city":"East Wenatchee, Washington","country":"United States","longitude":"-120° 03' 10\"","id":12634},{"latitude":"40.0474","country":"United States","id":12635,"longitude":"-75.5547","city":"East Whiteland, Pennsylvania"},{"longitude":"-117.9887","country":"United States","city":"East Whittier, California","latitude":"33.9244","id":12636},{"latitude":"40.2606","city":"East Windsor, New Jersey","country":"United States","longitude":"-74.5295","id":12637},{"longitude":"-76.6755","latitude":"39.9687","city":"East York, Pennsylvania","country":"United States","id":12638},{"id":12639,"latitude":" 39° 34' 47\"","city":"Eastampton, New Jersey","country":"USA","longitude":"-74° 24' 00\""},{"latitude":"50.7700","country":"United Kingdom","longitude":"0.2800","id":12640,"city":"Eastbourne, East Sussex"},{"latitude":"40.9536","city":"Eastchester, New York","country":"United States","longitude":"-73.8133","id":12641},{"country":"United States","latitude":"34.4448","longitude":"-119.7879","city":"Eastern Goleta Valley, California","id":12642},{"country":"United Kingdom","latitude":"53.3130","longitude":"-2.9620","id":12643,"city":"Eastham, Liverpool"},{"latitude":"42.2651","longitude":"-72.6720","city":"Easthampton, Massachusetts","country":"United States","id":12644},{"longitude":"-81.4322","latitude":"41.6581","id":12645,"country":"United States","city":"Eastlake, Ohio"},{"city":"Eastleigh, Hampshire","country":"United Kingdom","latitude":"50.9667","longitude":"-1.3500","id":12646},{"id":12647,"longitude":"-122.1818","latitude":"47.8968","city":"Eastmont, Washington","country":"United States"},{"id":12648,"country":"United States","longitude":"-76.0701","city":"Easton, Maryland","latitude":"38.7760"},{"city":"Easton, Massachusetts","latitude":"42.0362","id":12649,"longitude":"-71.1103","country":"United States"},{"latitude":"40.6858","city":"Easton, Pennsylvania","country":"United States","id":12650,"longitude":"-75.2209"},{"country":"United States","longitude":"-82.9461","latitude":"42.4657","city":"Eastpointe, Michigan","id":12651},{"country":"Canada","latitude":" 48° 39' 00\"","city":"Eastport, Newfoundland","longitude":"-53° 45' 00\"","id":12652},{"latitude":"40.0281","city":"Easttown, Pennsylvania","id":12653,"country":"United States","longitude":"-75.4403"},{"city":"Eastvale, California","longitude":"-117.5803","country":"United States","id":12654,"latitude":"33.9617"},{"latitude":"53.0180","longitude":"-1.3040","city":"Eastwood, Nottinghamshire","id":12655,"country":"United Kingdom"},{"longitude":"-83° 15' 00\"","latitude":" 33° 04' 58\"","country":"USA","id":12656,"city":"Eatonton, Georgia"},{"city":"Eatontown, New Jersey","country":"United States","latitude":"40.2913","longitude":"-74.0558","id":12657},{"id":12658,"latitude":" 44° 48' 47\"","city":"Eau Claire, Wisconsin","longitude":"-91° 29' 42\"","country":"United States"},{"latitude":"48.9922","longitude":"2.2806","id":12659,"city":"Eaubonne, Île-de-France","country":"France"},{"country":"United Kingdom","id":12660,"city":"Ebbw Vale, Blaenau Gwent","longitude":"-3.2100","latitude":"51.7800"},{"longitude":"11.3167","id":12661,"country":"Equatorial Guinea","city":"Ebebiyin, Kié-Ntem","latitude":"2.1500"},{"country":"Colombia","id":12662,"latitude":"6.3333","city":"Ebejico, Antioquia","longitude":"-75.7667"},{"country":"Madagascar","longitude":"46.0333","latitude":"-24.4833","id":12663,"city":"Ebelo, Toliara"},{"city":"Eberbach, Baden-Württemberg","id":12664,"latitude":"49.4667","country":"Germany","longitude":"8.9833"},{"id":12665,"latitude":"48.7147","city":"Ebersbach an der Fils, Baden-Württemberg","longitude":"9.5236","country":"Germany"},{"latitude":"48.0833","id":12666,"country":"Germany","longitude":"11.9667","city":"Ebersberg, Bavaria"},{"latitude":"52.8333","country":"Germany","id":12667,"city":"Eberswalde, Brandenburg","longitude":"13.8333"},{"city":"Ebetsu, Hokkaidō","longitude":"141.5333","country":"Japan","id":12668,"latitude":"43.1000"},{"id":12669,"city":"Ebina, Kanagawa","country":"Japan","longitude":"139.3908","latitude":"35.4464"},{"latitude":"32.0453","city":"Ebino, Miyazaki","country":"Japan","id":12670,"longitude":"130.8108"},{"id":12671,"country":"Algeria","latitude":"36.3833","city":"Ebn Ziad, Constantine","longitude":"6.4667"},{"id":12672,"country":"Angola","latitude":"-11.0000","city":"Ebo, Cuanza-Sul","longitude":"14.6667"},{"latitude":"40.6169","city":"Eboli, Campania","longitude":"15.0564","country":"Italy","id":12673},{"country":"Cameroon","city":"Ebolowa, Sud","longitude":"11.1500","id":12674,"latitude":"2.9167"},{"id":12675,"city":"Ebreichsdorf, Niederösterreich","latitude":"47.9667","country":"Austria","longitude":"16.4000"},{"city":"Ecatepec, México","country":"Mexico","longitude":"-99.0600","latitude":"19.6097","id":12676},{"country":"Mexico","city":"Ecatzingo, México","latitude":"18.9500","longitude":"-98.7500","id":12677},{"city":"Ecaussinnes-Lalaing, Wallonia","country":"Belgium","longitude":"4.1833","id":12678,"latitude":"50.5667"},{"longitude":"-2.3390","city":"Eccles, Salford","id":12679,"country":"United Kingdom","latitude":"53.4824"},{"city":"Ecclesall, Sheffield","id":12680,"longitude":"-1.4980","country":"United Kingdom","latitude":"53.3620"},{"longitude":"-1.4698","country":"United Kingdom","id":12681,"latitude":"53.4429","city":"Ecclesfield, Sheffield"},{"id":12682,"longitude":"-2.7748","latitude":"53.4539","city":"Eccleston, St. Helens","country":"United Kingdom"},{"longitude":"26.3564","id":12683,"country":"Turkey","latitude":"40.1839","city":"Eceabat, Çanakkale"},{"city":"Ech Chaibat, Marrakech-Safi","longitude":"-7.8500","latitude":"31.6000","id":12684,"country":"Morocco"},{"latitude":"16.7056","city":"Echague, Isabela","id":12685,"country":"Philippines","longitude":"121.6761"},{"city":"Echelon, New Jersey","country":"United States","id":12686,"latitude":"39.8482","longitude":"-74.9957"},{"id":12687,"country":"Morocco","city":"Echemmaia Est, Marrakech-Safi","longitude":"-8.6325","latitude":"32.0786"},{"country":"Germany","longitude":"11.6167","latitude":"48.3000","city":"Eching, Bavaria","id":12688},{"country":"France","longitude":"5.7183","id":12689,"city":"Echirolles, Auvergne-Rhône-Alpes","latitude":"45.1436"},{"id":12690,"country":"Japan","city":"Echizen, Fukui","latitude":"35.9035","longitude":"136.1687"},{"id":12691,"latitude":"35.9742","city":"Echizen, Fukui","longitude":"136.1298","country":"Japan"},{"latitude":"49.8117","city":"Echternach, Echternach","id":12692,"country":"Luxembourg","longitude":"6.4217"},{"country":"Australia","latitude":"-36.1333","city":"Echuca, Victoria","longitude":"144.7500","id":12693},{"id":12694,"country":"Spain","city":"Ecija, Andalusia","latitude":"37.5333","longitude":"-5.0833"},{"latitude":"54.4742","longitude":"9.8378","country":"Germany","city":"Eckernforde, Schleswig-Holstein","id":12695},{"latitude":"53.3080","country":"United Kingdom","id":12696,"city":"Eckington, Derbyshire","longitude":"-1.3643"},{"longitude":"-80.1841","id":12697,"country":"United States","city":"Economy, Pennsylvania","latitude":"40.6411"},{"city":"Ecoporanga, Espírito Santo","country":"Brazil","longitude":"-40.8308","id":12698,"latitude":"-18.3728"},{"city":"Ecorse, Michigan","country":"United States","id":12699,"longitude":"-83.1399","latitude":"42.2489"},{"city":"Ecublens, Vaud","longitude":"6.5667","id":12700,"country":"Switzerland","latitude":"46.5333"},{"city":"Ecully, Auvergne-Rhône-Alpes","country":"France","latitude":"45.7753","id":12701,"longitude":"4.7783"},{"latitude":"11.4608","country":"Sudan","id":12702,"city":"Ed Daein, East Darfur","longitude":"26.1283"},{"longitude":"34.3500","city":"Ed Damazin, Blue Nile","country":"Sudan","latitude":"11.7667","id":12703},{"id":12704,"longitude":"33.9600","latitude":"17.5900","city":"Ed Damer, River Nile","country":"Sudan"},{"longitude":"35.4500","latitude":"33.7333","country":"Lebanon","city":"Ed Damour, Mont-Liban","id":12705},{"city":"Edakkazhiyur, Kerala","longitude":"75.9833","id":12706,"latitude":"10.6167","country":"India"},{"country":"India","id":12707,"longitude":"76.8333","latitude":"9.5333","city":"Edakkunnam, Kerala"},{"latitude":"52.5167","country":"Netherlands","city":"Edam, Noord-Holland","id":12708,"longitude":"5.0500"},{"country":"India","latitude":"9.0000","city":"Edamon, Kerala","longitude":"76.9667","id":12709},{"latitude":"9.8167","city":"Edappalli, Kerala","country":"India","longitude":"76.3000","id":12710},{"latitude":"8.6654","longitude":"76.8459","city":"Edasseri, Kerala","country":"India","id":12711},{"latitude":"10.9833","country":"India","city":"Edassheri, Kerala","id":12712,"longitude":"75.9667"},{"id":12713,"latitude":"9.8678","city":"Edattala, Kerala","country":"India","longitude":"76.4361"},{"country":"India","longitude":"76.1333","latitude":"10.3667","id":12714,"city":"Edattirutti, Kerala"},{"city":"Edavanakad, Kerala","country":"India","longitude":"76.2200","id":12715,"latitude":"10.0150"},{"longitude":"76.3713","id":12716,"city":"Edayikunnam, Kerala","latitude":"10.1009","country":"India"},{"longitude":"41.7000","latitude":"13.9333","id":12717,"city":"Edd, Debubawi K’eyyĭḥ Baḥri","country":"Eritrea"},{"country":"Canada","longitude":"-99° 08' 59\"","latitude":" 51° 05' 25\"","id":12718,"city":"Eddystone, Manitoba"},{"longitude":"5.6667","city":"Ede, Gelderland","id":12719,"country":"Netherlands","latitude":"52.0500"},{"longitude":"4.4361","latitude":"7.7389","city":"Ede, Osun","id":12720,"country":"Nigeria"},{"latitude":"3.8000","city":"Edea, Littoral","id":12721,"country":"Cameroon","longitude":"10.1333"},{"id":12722,"city":"Edegem, Flanders","country":"Belgium","latitude":"51.1500","longitude":"4.4500"},{"latitude":"-17.3375","id":12723,"country":"Brazil","city":"Edeia, Goiás","longitude":"-49.9286"},{"country":"Hungary","longitude":"20.7442","id":12724,"latitude":"48.2967","city":"Edeleny, Borsod-Abaúj-Zemplén"},{"longitude":"10.2667","latitude":"52.3833","city":"Edemissen, Lower Saxony","country":"Germany","id":12725},{"longitude":"-89.8043","city":"Eden Isle, Louisiana","country":"United States","id":12726,"latitude":"30.2268"},{"id":12727,"country":"United States","latitude":"44.8488","city":"Eden Prairie, Minnesota","longitude":"-93.4595"},{"latitude":"36.5027","longitude":"-79.7412","id":12728,"city":"Eden, North Carolina","country":"United States"},{"longitude":"25.9369","city":"Edenburg, Free State","country":"South Africa","latitude":"-29.7347","id":12729},{"country":"South Africa","latitude":"-26.1411","city":"Edenvale, Gauteng","longitude":"28.1528","id":12730},{"longitude":"22.0500","id":12731,"country":"Greece","latitude":"40.8000","city":"Edessa, Kentrikí Makedonía"},{"latitude":"53.1258","country":"Germany","city":"Edewecht, Lower Saxony","id":12732,"longitude":"7.9825"},{"latitude":"39.2273","longitude":"-76.4590","city":"Edgemere, Maryland","country":"United States","id":12733},{"id":12734,"city":"Edgewater Park, New Jersey","longitude":"-74.9117","latitude":"40.0540","country":"United States"},{"city":"Edgewater, Florida","country":"United States","longitude":"-80.9406","latitude":"28.9594","id":12735},{"latitude":"38.9373","country":"United States","city":"Edgewater, Maryland","longitude":"-76.5572","id":12736},{"id":12737,"city":"Edgewater, New Jersey","latitude":"40.8237","longitude":"-73.9740","country":"United States"},{"id":12738,"latitude":"39.4190","longitude":"-76.2964","city":"Edgewood, Maryland","country":"United States"},{"latitude":"47.2309","city":"Edgewood, Washington","country":"United States","longitude":"-122.2832","id":12739},{"id":12740,"longitude":"-0.2729","latitude":"51.6185","city":"Edgware, Barnet","country":"United Kingdom"},{"id":12741,"latitude":" 44° 52' 59\"","country":"United States","city":"Edina, Minnesota","longitude":"-93° 20' 59\""},{"longitude":"-98.1597","id":12742,"country":"United States","city":"Edinburg, Texas","latitude":"26.3196"},{"id":12743,"latitude":"-37.0675","city":"Edinburgh of the Seven Seas, SH","country":"Saint Helena","longitude":"-12.3105"},{"city":"Edinburgh, Edinburgh","latitude":"55.9533","country":"United Kingdom","id":12744,"longitude":"-3.1892"},{"city":"Edinet, Edineţ","id":12745,"longitude":"27.3167","latitude":"48.1667","country":"Moldova"},{"latitude":"49.2833","city":"Edingen-Neckarhausen, Baden-Württemberg","country":"Germany","id":12746,"longitude":"8.6167"},{"longitude":"26.5556","country":"Turkey","id":12747,"city":"Edirne, Edirne","latitude":"41.6769"},{"latitude":"40.5360","city":"Edison, New Jersey","country":"United States","id":12748,"longitude":"-74.3697"},{"country":"India","id":12749,"longitude":"80.1339","latitude":"16.1007","city":"Edlapadu, Andhra Pradesh"},{"latitude":" 35° 39' 11\"","id":12750,"longitude":"-97° 28' 54\"","country":"United States","city":"Edmond, Oklahoma"},{"city":"Edmonds, Washington","country":"United States","longitude":"-122° 13' 11\"","latitude":" 47° 28' 47\"","id":12751},{"city":"Edmonton, Alberta","id":12752,"country":"Canada","longitude":"-113° 30' 00\"","latitude":" 53° 30' 00\""},{"city":"Edmonton, Enfield","country":"United Kingdom","latitude":"51.6154","longitude":"-0.0708","id":12753},{"city":"Edmundston, New Brunswick","latitude":" 47° 25' 47\"","longitude":"-68° 24' 35\"","id":12754,"country":"Canada"},{"longitude":"-96° 40' 59\"","country":"USA","id":12755,"city":"Edna, Texas","latitude":" 28° 59' 05\""},{"country":"Japan","longitude":"139.8833","id":12756,"latitude":"35.7000","city":"Edogawa, Chiba"},{"city":"Edremit, Balıkesir","country":"Turkey","id":12757,"longitude":"27.0200","latitude":"39.5922"},{"latitude":"38.4242","city":"Edremit, Van","country":"Turkey","longitude":"43.2561","id":12758},{"id":12759,"city":"Edson, Alberta","latitude":" 53° 35' 00\"","longitude":"-116° 26' 00\"","country":"Canada"},{"longitude":"78.8270","city":"Eduttavaynattam, Tamil Nādu","country":"India","latitude":"11.8057","id":12760},{"latitude":"39.6215","country":"United States","longitude":"-106.6184","id":12761,"city":"Edwards, Colorado"},{"longitude":"-89.9874","id":12762,"latitude":"38.7922","city":"Edwardsville, Illinois","country":"United States"},{"longitude":"3.5500","country":"Belgium","city":"Eeklo, Flanders","latitude":"51.1833","id":12763},{"id":12764,"city":"Eemnes, Utrecht","latitude":"52.2500","longitude":"5.2500","country":"Netherlands"},{"city":"Eenhana, Ohangwena","longitude":"16.3369","id":12765,"latitude":"-17.4658","country":"Namibia"},{"longitude":"6.0633","id":12766,"latitude":"52.1053","country":"Netherlands","city":"Eerbeek, Gelderland"},{"latitude":"51.3500","longitude":"5.3167","country":"Netherlands","city":"Eersel, Noord-Brabant","id":12767},{"id":12768,"country":"Madagascar","latitude":"-23.1167","city":"Efatsy-Anandroza, Fianarantsoa","longitude":"47.6000"},{"country":"Ghana","longitude":"-1.7622","id":12769,"city":"Effia-Kuma, Western","latitude":"4.9239"},{"latitude":" 39° 04' 58\"","country":"United States","longitude":"-88° 30' 00\"","id":12770,"city":"Effingham, Illinois"},{"id":12771,"latitude":"40.6833","city":"Efkarpia, Kentrikí Makedonía","country":"Greece","longitude":"22.9500"},{"id":12772,"latitude":"47.6556","country":"Germany","city":"Efringen-Kirchen, Baden-Württemberg","longitude":"7.5658"},{"latitude":"49.9667","longitude":"8.6667","id":12773,"city":"Egelsbach, Hesse","country":"Germany"},{"id":12774,"city":"Eger, Heves","latitude":"47.8990","longitude":"20.3747","country":"Hungary"},{"latitude":"58.4497","city":"Egersund, Rogaland","longitude":"6.0087","country":"Norway","id":12775},{"id":12776,"city":"Egg Buckland, Plymouth","latitude":"50.4006","country":"United Kingdom","longitude":"-4.1136"},{"country":"United States","id":12777,"latitude":"39.3787","city":"Egg Harbor, New Jersey","longitude":"-74.6102"},{"country":"Switzerland","city":"Egg, Zürich","longitude":"8.6903","latitude":"47.3000","id":12778},{"latitude":"47.3019","country":"Switzerland","id":12779,"city":"Egg, Zürich","longitude":"8.6906"},{"latitude":"48.4039","longitude":"12.7642","id":12780,"country":"Germany","city":"Eggenfelden, Bavaria"},{"city":"Eggenstein-Leopoldshafen, Baden-Württemberg","id":12781,"latitude":"49.0778","country":"Germany","longitude":"8.3925"},{"longitude":"-78.8065","latitude":"42.9665","id":12782,"city":"Eggertsville, New York","country":"United States"},{"latitude":"50.5833","city":"Eghezee, Wallonia","country":"Belgium","longitude":"4.9167","id":12783},{"latitude":"38.2572","city":"Egil, Diyarbakır","country":"Turkey","longitude":"40.0847","id":12784},{"city":"Egilsstadhir, Múlaþing","latitude":"65.2833","id":12785,"longitude":"-14.3833","country":"Iceland"},{"longitude":"30.8506","latitude":"37.8750","id":12786,"country":"Turkey","city":"Egirdir, Isparta"},{"longitude":"87.5300","country":"India","latitude":"21.9000","city":"Egra, West Bengal","id":12787},{"id":12788,"latitude":"66.3221","city":"Egvekinot, Chukotskiy Avtonomnyy Okrug","country":"Russia","longitude":"-179.1837"},{"country":"United States","city":"Egypt Lake-Leto, Florida","longitude":"-82.5062","latitude":"28.0177","id":12789},{"latitude":"34.2919","city":"Ehden, Liban-Nord","longitude":"35.9546","id":12790,"country":"Lebanon"},{"id":12791,"country":"Germany","city":"Ehingen an der Donau, Baden-Württemberg","latitude":"48.2833","longitude":"9.7236"},{"longitude":"8.9403","country":"Germany","id":12792,"latitude":"48.6589","city":"Ehningen, Baden-Württemberg"},{"latitude":"50.6000","country":"Germany","longitude":"8.3833","id":12793,"city":"Ehringshausen, Hesse"},{"id":12794,"longitude":"11.3167","city":"Eichenau, Bavaria","country":"Germany","latitude":"48.1667"},{"latitude":"50.4833","country":"Germany","longitude":"9.7000","id":12795,"city":"Eichenzell, Hesse"},{"city":"Eichstatt, Bavaria","country":"Germany","longitude":"11.1839","id":12796,"latitude":"48.8919"},{"latitude":"62.2995","city":"Eidhi, Eiði","country":"Faroe Islands","id":12797,"longitude":"-7.0924"},{"city":"Eidsberg, Viken","id":12798,"longitude":"11.3603","latitude":"59.5369","country":"Norway"},{"latitude":"28.6677","longitude":"-100.4788","city":"Eidson Road, Texas","id":12799,"country":"United States"},{"city":"Eidsvold, Queensland","country":"Australia","latitude":"-25.3719","longitude":"151.1230","id":12800},{"country":"Norway","latitude":"60.3500","city":"Eidsvoll, Viken","longitude":"11.2500","id":12801},{"city":"Eiheiji, Fukui","longitude":"136.2987","id":12802,"latitude":"36.0922","country":"Japan"},{"id":12803,"latitude":"50.7778","city":"Eijsden, Limburg","longitude":"5.7083","country":"Netherlands"},{"id":12804,"country":"Israel","city":"Eilat, Southern","latitude":"29.5569","longitude":"34.9517"},{"city":"Eilenburg, Saxony","longitude":"12.6358","latitude":"51.4608","country":"Germany","id":12805},{"city":"Eilendorf, North Rhine-Westphalia","country":"Germany","latitude":"50.7794","longitude":"6.1625","id":12806},{"latitude":"51.8167","longitude":"9.8667","id":12807,"city":"Einbeck, Lower Saxony","country":"Germany"},{"country":"Netherlands","longitude":"5.4833","latitude":"51.4333","city":"Eindhoven, Noord-Brabant","id":12808},{"latitude":"47.1167","longitude":"8.7333","city":"Einsiedeln, Schwyz","country":"Switzerland","id":12809},{"longitude":"-8.4178","latitude":"40.2350","country":"Portugal","id":12810,"city":"Eiras, Coimbra"},{"country":"Brazil","id":12811,"longitude":"-69.8739","latitude":"-6.6600","city":"Eirunepe, Amazonas"},{"longitude":"10.3206","latitude":"50.9761","country":"Germany","city":"Eisenach, Thuringia","id":12812},{"id":12813,"country":"Germany","latitude":"49.5614","longitude":"8.0725","city":"Eisenberg, Rhineland-Palatinate"},{"city":"Eisenberg, Thuringia","longitude":"11.9000","country":"Germany","latitude":"50.9667","id":12814},{"latitude":"52.1450","city":"Eisenhuttenstadt, Brandenburg","country":"Germany","longitude":"14.6728","id":12815},{"id":12816,"country":"Austria","city":"Eisenstadt, Burgenland","longitude":"16.5167","latitude":"47.8500"},{"country":"Germany","longitude":"9.7067","latitude":"48.6933","id":12817,"city":"Eislingen, Baden-Württemberg"},{"longitude":"7.4517","id":12818,"city":"Eitorf, North Rhine-Westphalia","latitude":"50.7697","country":"Germany"},{"longitude":"-1.1372","city":"Ejea de los Caballeros, Aragon","country":"Spain","id":12819,"latitude":"42.1292"},{"latitude":"-24.3500","city":"Ejeda, Toliara","country":"Madagascar","longitude":"44.5167","id":12820},{"id":12821,"city":"Ejido, Mérida","longitude":"-71.4000","country":"Venezuela","latitude":"8.3333"},{"id":12822,"city":"Ejmiatsin, Armavir","country":"Armenia","latitude":"40.1728","longitude":"44.2925"},{"id":12823,"country":"Ghana","latitude":"7.3833","longitude":"-1.3667","city":"Ejura, Ashanti"},{"id":12824,"country":"Mexico","city":"Ejutla de Crespo, Oaxaca","latitude":"16.5672","longitude":"-96.7308"},{"latitude":"21.8933","country":"India","city":"Ekalbehri, Madhya Pradesh","longitude":"78.8794","id":12825},{"longitude":"87.5741","city":"Ekamba, Bihār","latitude":"25.9689","country":"India","id":12826},{"longitude":"85.2298","id":12827,"city":"Ekangar Sarai, Bihār","country":"India","latitude":"25.2234"},{"latitude":"43.2081","id":12828,"city":"Ekazhevo, Ingushetiya","country":"Russia","longitude":"44.8186"},{"id":12829,"latitude":"25.2093","city":"Ekchari, Bihār","country":"India","longitude":"87.2159"},{"longitude":"4.4167","id":12830,"latitude":"51.2833","country":"Belgium","city":"Ekeren, Flanders"},{"country":"Sweden","longitude":"17.8000","id":12831,"city":"Ekero, Stockholm","latitude":"59.2833"},{"city":"Ekhari, Bihār","longitude":"86.3071","id":12832,"latitude":"26.5246","country":"India"},{"city":"Ekibastuz, Pavlodar","country":"Kazakhstan","latitude":"51.6667","longitude":"75.3667","id":12833},{"latitude":"38.0617","country":"Turkey","city":"Ekinozu, Kahramanmaraş","id":12834,"longitude":"37.1928"},{"country":"India","latitude":"22.2036","id":12835,"city":"Eklahra, Madhya Pradesh","longitude":"78.6893"},{"latitude":"25.9670","city":"Ekma, Bihār","longitude":"84.5383","id":12836,"country":"India"},{"latitude":"26.0541","city":"Ekma, Bihār","longitude":"86.6121","country":"India","id":12837},{"id":12838,"country":"Benin","city":"Ekpe, Ouémé","latitude":"6.4000","longitude":"2.5333"},{"latitude":"16.4200","country":"India","city":"Eksambe, Karnātaka","longitude":"74.5800","id":12839},{"city":"Eksjo, Jönköping","longitude":"14.9703","id":12840,"latitude":"57.6669","country":"Sweden"},{"latitude":"-28.4660","id":12841,"city":"Ekuvukeni, KwaZulu-Natal","country":"South Africa","longitude":"30.1570"},{"latitude":"25.2975","country":"India","longitude":"84.4994","city":"Ekwari, Bihār","id":12842},{"latitude":"36.2667","city":"El Abadia, Aïn Defla","id":12843,"country":"Algeria","longitude":"1.6833"},{"longitude":"0.5444","id":12844,"latitude":"32.8986","country":"Algeria","city":"El Abiodh Sidi Cheikh, El Bayadh"},{"latitude":"35.9500","country":"Algeria","longitude":"4.6833","city":"El Ach, Bordj Bou Arréridj","id":12845},{"country":"Algeria","id":12846,"latitude":"36.0667","city":"El Achir, Bordj Bou Arréridj","longitude":"4.6333"},{"city":"El Adjiba, Bouira","longitude":"4.1500","id":12847,"latitude":"36.3333","country":"Algeria"},{"latitude":"36.4667","longitude":"2.6333","country":"Algeria","city":"El Affroun, Tipaza","id":12848},{"id":12849,"city":"El Aguila, Valle del Cauca","latitude":"4.9167","longitude":"-76.0833","country":"Colombia"},{"country":"Morocco","city":"El Aioun, Oriental","latitude":"34.5852","longitude":"-2.5056","id":12850},{"latitude":"40.2306","city":"El Alamo, Madrid","longitude":"-3.9944","country":"Spain","id":12851},{"latitude":"37.1667","city":"El Alia, Bizerte","longitude":"10.0333","id":12852,"country":"Tunisia"},{"country":"Nicaragua","latitude":"11.6833","id":12853,"longitude":"-84.7000","city":"El Almendro, Río San Juan"},{"id":12854,"longitude":"-68.1633","country":"Bolivia","city":"El Alto, La Paz","latitude":"-16.5047"},{"country":"Morocco","id":12855,"latitude":"32.2067","city":"El Amim, Marrakech-Safi","longitude":"-7.2629"},{"latitude":"35.5333","country":"Algeria","longitude":"-1.0167","id":12856,"city":"El Amria, Aïn Temouchent"},{"id":12857,"longitude":"6.1667","city":"El Ancer, Jijel","country":"Algeria","latitude":"36.8000"},{"id":12858,"country":"Algeria","latitude":"35.6833","city":"El Ancor, Oran","longitude":"-0.8667"},{"latitude":"36.7667","city":"El Aouana, Jijel","country":"Algeria","id":12859,"longitude":"5.6000"},{"longitude":"-5.5500","city":"El Arahal, Andalusia","id":12860,"country":"Spain","latitude":"37.2667"},{"id":12861,"city":"El Arba Des Bir Lenni, Fès-Meknès","latitude":"34.3272","country":"Morocco","longitude":"-4.2039"},{"longitude":"-98.9167","country":"Mexico","city":"El Arenal, Hidalgo","id":12862,"latitude":"20.2167"},{"country":"Mexico","id":12863,"latitude":"20.7000","city":"El Arenal, Jalisco","longitude":"-103.6167"},{"country":"Algeria","latitude":"36.6531","id":12864,"longitude":"6.8364","city":"El Arrouch, Skikda"},{"id":12865,"latitude":"14.6000","country":"Guatemala","city":"El Asintal, Retalhuleu","longitude":"-91.7333"},{"city":"El Astillero, Cantabria","latitude":"43.4017","country":"Spain","longitude":"-3.8194","id":12866},{"latitude":"32.4775","city":"El Ateuf, Ghardaïa","longitude":"3.7478","id":12867,"country":"Algeria"},{"longitude":"1.6667","city":"El Attaf, Aïn Defla","country":"Algeria","id":12868,"latitude":"36.2167"},{"latitude":"12.1905","city":"El Ayote, Chontales","id":12869,"country":"Nicaragua","longitude":"-85.2874"},{"longitude":"-84.8167","city":"El Ayote, Costa Caribe Sur","id":12870,"latitude":"12.5000","country":"Nicaragua"},{"country":"Colombia","latitude":"7.5942","city":"El Bagre, Antioquia","longitude":"-74.8119","id":12871},{"city":"El Banco, Magdalena","country":"Colombia","latitude":"8.9983","id":12872,"longitude":"-73.9747"},{"city":"El Barrio de la Soledad, Oaxaca","country":"Mexico","longitude":"-95.1167","id":12873,"latitude":"16.8000"},{"latitude":"33.6803","city":"El Bayadh, El Bayadh","id":12874,"longitude":"1.0203","country":"Algeria"},{"latitude":"33.2539","city":"El Bazouriye, Liban-Sud","id":12875,"country":"Lebanon","longitude":"35.2717"},{"id":12876,"country":"Argentina","latitude":"-41.9667","city":"El Bolson, Río Negro","longitude":"-71.5333"},{"longitude":"0.3017","latitude":"35.5158","country":"Algeria","city":"El Bordj, Mascara","id":12877},{"id":12878,"country":"Colombia","city":"El Bordo, Cauca","latitude":"2.1667","longitude":"-77.0833"},{"city":"El Bosque, Región Metropolitana","id":12879,"longitude":"-70.6750","country":"Chile","latitude":"-33.5667"},{"city":"El Cacao, Valdesia","latitude":"18.5264","country":"Dominican Republic","id":12880,"longitude":"-70.2954"},{"latitude":"4.7500","id":12881,"city":"El Cairo, Valle del Cauca","longitude":"-76.2500","country":"Colombia"},{"longitude":"-116° 57' 35\"","latitude":" 32° 47' 42\"","id":12882,"city":"El Cajon, California","country":"United States"},{"latitude":"-50.3378","country":"Argentina","longitude":"-72.2600","id":12883,"city":"El Calafate, Santa Cruz"},{"country":"Venezuela","city":"El Callao, Bolívar","longitude":"-61.8271","latitude":"7.3463","id":12884},{"city":"El Campo, Texas","longitude":"-96.2723","id":12885,"latitude":"29.2000","country":"United States"},{"city":"El Carmen de Atrato, Chocó","latitude":"5.8983","country":"Colombia","longitude":"-76.1431","id":12886},{"city":"El Carmen de Bolivar, Bolívar","country":"Colombia","latitude":"9.7167","longitude":"-75.1333","id":12887},{"latitude":"6.6981","longitude":"-73.5111","id":12888,"city":"El Carmen de Chucuri, Santander","country":"Colombia"},{"longitude":"-88.9000","country":"El Salvador","city":"El Carmen, Cuscatlán","id":12889,"latitude":"13.7167"},{"id":12890,"longitude":"-88.0000","latitude":"13.3500","country":"El Salvador","city":"El Carmen, La Unión"},{"latitude":"8.5128","country":"Colombia","longitude":"-73.4508","id":12891,"city":"El Carmen, Norte de Santander"},{"city":"El Castillo de La Concepcion, Río San Juan","country":"Nicaragua","id":12892,"latitude":"11.0333","longitude":"-84.4667"},{"longitude":"-115.5595","country":"United States","id":12893,"latitude":"32.7865","city":"El Centro, California"},{"city":"El Cerrito, California","latitude":"37.9196","id":12894,"country":"United States","longitude":"-122.3025"},{"country":"Colombia","longitude":"-76.1667","id":12895,"latitude":"3.6667","city":"El Cerrito, Valle del Cauca"},{"city":"El Chal, Petén","latitude":"16.6400","id":12896,"country":"Guatemala","longitude":"-89.6500"},{"city":"El Charco, Nariño","latitude":"2.4775","country":"Colombia","longitude":"-78.1111","id":12897},{"country":"Guatemala","longitude":"-90.4833","id":12898,"latitude":"14.9667","city":"El Chol, Baja Verapaz"},{"longitude":"-79.8332","latitude":"8.8834","city":"El Coco, Panamá Oeste","id":12899,"country":"Panama"},{"city":"El Colegio, Cundinamarca","latitude":"4.5808","country":"Colombia","longitude":"-74.4425","id":12900},{"city":"El Congo, Santa Ana","country":"El Salvador","latitude":"13.9000","longitude":"-89.4833","id":12901},{"country":"Venezuela","latitude":"10.2442","id":12902,"longitude":"-67.2450","city":"El Consejo, Aragua"},{"city":"El Copey, Cesar","longitude":"-73.9667","id":12903,"country":"Colombia","latitude":"10.1500"},{"latitude":"11.9833","city":"El Crucero, Managua","longitude":"-86.3167","country":"Nicaragua","id":12904},{"city":"El Cua, Jinotega","country":"Nicaragua","longitude":"-85.6733","id":12905,"latitude":"13.3675"},{"city":"El Dificil, Magdalena","id":12906,"latitude":"9.8500","longitude":"-74.2386","country":"Colombia"},{"country":"Colombia","city":"El Doncello, Caquetá","longitude":"-75.2833","id":12907,"latitude":"1.6833"},{"city":"El Dorado Hills, California","id":12908,"country":"United States","latitude":"38.6750","longitude":"-121.0490"},{"country":"United States","longitude":"-92° 40' 00\"","latitude":" 33° 12' 24\"","id":12909,"city":"El Dorado, Arkansas"},{"id":12910,"country":"Venezuela","latitude":"6.7167","city":"El Dorado, Bolívar","longitude":"-61.6167"},{"city":"El Dorado, Kansas","country":"United States","longitude":"-96.8613","latitude":"37.8210","id":12911},{"id":12912,"city":"El Dorado, Sinaloa","country":"Mexico","latitude":"24.8080","longitude":"-107.3970"},{"longitude":"-76.2333","latitude":"4.5167","city":"El Dovio, Valle del Cauca","country":"Colombia","id":12913},{"latitude":"36.7831","country":"Spain","id":12914,"longitude":"-2.8167","city":"El Ejido, Andalusia"},{"latitude":"40.5817","country":"Spain","longitude":"-4.1258","city":"El Escorial, Madrid","id":12915},{"city":"El Espinal, Oaxaca","id":12916,"country":"Mexico","latitude":"16.4906","longitude":"-95.0444"},{"city":"El Espinar, Castille-Leon","id":12917,"latitude":"40.7186","country":"Spain","longitude":"-4.2478"},{"latitude":"15.5333","city":"El Estor, Izabal","country":"Guatemala","id":12918,"longitude":"-89.3500"},{"latitude":"36.1500","id":12919,"longitude":"5.6833","city":"El Eulma, Sétif","country":"Algeria"},{"country":"Dominican Republic","longitude":"-69.8800","latitude":"19.3200","id":12920,"city":"El Factor, Cibao Nordeste"},{"longitude":"35.5667","id":12921,"latitude":"33.8667","city":"El Fanar, Mont-Liban","country":"Lebanon"},{"city":"El Fasher, North Darfur","latitude":"13.6306","longitude":"25.3500","id":12922,"country":"Sudan"},{"longitude":"-108.6200","city":"El Fuerte, Sinaloa","country":"Mexico","id":12923,"latitude":"26.4214"},{"id":12924,"city":"El Fula, West Kordofan","latitude":"11.7175","country":"Sudan","longitude":"28.3400"},{"longitude":"-7.2319","id":12925,"city":"El Gara, Casablanca-Settat","country":"Morocco","latitude":"33.2819"},{"city":"El Geneina, West Darfur","id":12926,"country":"Sudan","longitude":"22.4500","latitude":"13.4500"},{"country":"Lebanon","city":"El Ghaziye, Liban-Sud","latitude":"33.5186","longitude":"35.3661","id":12927},{"city":"El Ghiate, Marrakech-Safi","latitude":"32.0331","country":"Morocco","longitude":"-9.1625","id":12928},{"country":"Algeria","latitude":"35.6833","city":"El Ghomri, Mostaganem","longitude":"0.2000","id":12929},{"city":"El Ghourdane, Marrakech-Safi","country":"Morocco","latitude":"32.3205","longitude":"-8.7637","id":12930},{"country":"Algeria","city":"El Golea, El Meniaa","latitude":"30.5833","longitude":"2.8833","id":12931},{"longitude":"8.9528","country":"Tunisia","city":"El Guetar, Gafsa","id":12932,"latitude":"34.3372"},{"latitude":"36.2333","id":12933,"city":"El Hachimia, Bouira","longitude":"3.8333","country":"Algeria"},{"country":"Algeria","city":"El Hadjar, Annaba","latitude":"36.8000","id":12934,"longitude":"7.7333"},{"country":"Algeria","city":"El Hadjira, Ouargla","longitude":"5.5167","latitude":"32.6167","id":12935},{"longitude":"-5.3711","city":"El Hajeb, Fès-Meknès","country":"Morocco","id":12936,"latitude":"33.6928"},{"city":"El Hamel, M’sila","country":"Algeria","latitude":"35.1333","longitude":"4.0833","id":12937},{"id":12938,"country":"Tunisia","latitude":"33.8864","longitude":"9.7951","city":"El Hamma, Gabès"},{"country":"Algeria","longitude":"4.7500","id":12939,"latitude":"35.9833","city":"El Hammadia, Bordj Bou Arréridj"},{"country":"Tunisia","id":12940,"city":"El Haouaria, Nabeul","longitude":"11.0167","latitude":"37.0500"},{"id":12941,"latitude":"34.3914","city":"El Hermel, Baalbek-Hermel","country":"Lebanon","longitude":"36.3958"},{"id":12942,"city":"El Idrissia, Djelfa","country":"Algeria","latitude":"34.4500","longitude":"2.5333"},{"id":12943,"country":"Morocco","latitude":"33.2333","city":"El Jadid, Casablanca-Settat","longitude":"-8.5000"},{"country":"Tunisia","latitude":"35.2967","city":"El Jem, Mahdia","longitude":"10.7128","id":12944},{"latitude":"12.7333","city":"El Jicaral, León","longitude":"-86.3833","country":"Nicaragua","id":12945},{"latitude":"13.7167","country":"Nicaragua","city":"El Jicaro, Nueva Segovia","id":12946,"longitude":"-86.1333"},{"longitude":"-5.9272","city":"El Kansera, Rabat-Salé-Kénitra","latitude":"34.0419","id":12947,"country":"Morocco"},{"latitude":"36.1167","city":"El Karimia, Chlef","longitude":"1.5500","id":12948,"country":"Algeria"},{"longitude":"8.7147","id":12949,"latitude":"36.1822","city":"El Kef, Kef","country":"Tunisia"},{"id":12950,"country":"Morocco","longitude":"-7.4083","latitude":"32.0481","city":"El Kelaa des Srarhna, Marrakech-Safi"},{"id":12951,"latitude":"35.6167","city":"El Kerma, Oran","country":"Algeria","longitude":"-0.5667"},{"id":12952,"longitude":"-6.9551","latitude":"32.4441","country":"Morocco","city":"El Khemis des Beni Chegdal, Béni Mellal-Khénifra"},{"longitude":"6.7000","latitude":"36.2667","id":12953,"city":"El Khroub, Constantine","country":"Algeria"},{"city":"El Kouif, Tébessa","latitude":"35.5000","id":12954,"country":"Algeria","longitude":"8.3167"},{"id":12955,"longitude":"8.8000","latitude":"34.3900","country":"Tunisia","city":"El Ksar, Gafsa"},{"longitude":"4.8522","latitude":"36.6844","country":"Algeria","id":12956,"city":"El Kseur, Bejaïa"},{"id":12957,"country":"Morocco","city":"El Ksiba, Béni Mellal-Khénifra","latitude":"32.5681","longitude":"-6.0308"},{"longitude":"-67.6336","latitude":"10.3003","country":"Venezuela","id":12958,"city":"El Limon, Aragua"},{"city":"El Maiten, Chubut","latitude":"-42.0500","longitude":"-71.1667","country":"Argentina","id":12959},{"latitude":"34.6042","longitude":"9.6056","id":12960,"city":"El Maknassi, Sidi Bouzid","country":"Tunisia"},{"longitude":"-1.0944","latitude":"35.3883","city":"El Malah, Aïn Temouchent","country":"Algeria","id":12961},{"city":"El Mansouria, Casablanca-Settat","country":"Morocco","id":12962,"latitude":"33.7500","longitude":"-7.3000"},{"country":"Venezuela","city":"El Manteco, Bolívar","id":12963,"latitude":"7.3483","longitude":"-62.5395"},{"country":"Algeria","longitude":"3.2556","city":"El Marsa, Alger","id":12964,"latitude":"36.8111"},{"latitude":"33.9506","city":"El Meghaier, El Meghaier","country":"Algeria","longitude":"5.9242","id":12965},{"longitude":"-4.5458","country":"Morocco","latitude":"33.8389","city":"El Menzel, Fès-Meknès","id":12966},{"city":"El Milagro, La Libertad","latitude":"-8.0284","country":"Peru","longitude":"-79.0672","id":12967},{"id":12968,"longitude":"6.2667","country":"Algeria","city":"El Milia, Jijel","latitude":"36.7500"},{"id":12969,"longitude":"35.8178","country":"Lebanon","latitude":"34.4470","city":"El Minie, Liban-Nord"},{"country":"United States","city":"El Mirage, Arizona","id":12970,"longitude":"-112° 20' 09\"","latitude":" 33° 35' 14\""},{"latitude":"40.7336","city":"El Molar, Madrid","country":"Spain","longitude":"-3.5814","id":12971},{"longitude":"-118° 01' 30\"","id":12972,"latitude":" 34° 04' 00\"","city":"El Monte, California","country":"United States"},{"longitude":"-71.0167","country":"Chile","latitude":"-33.6833","city":"El Monte, Región Metropolitana","id":12973},{"longitude":"119.4075","city":"El Nido, Palawan","country":"Philippines","latitude":"11.1956","id":12974},{"longitude":"30.2167","latitude":"13.1833","city":"El Obeid, North Kordofan","id":12975,"country":"Sudan"},{"longitude":"3.0333","latitude":"36.2667","country":"Algeria","id":12976,"city":"El Omaria, Médéa"},{"id":12977,"longitude":"-100.1314","latitude":"19.8008","city":"El Oro de Hidalgo, México","country":"Mexico"},{"latitude":"33.3611","country":"Algeria","longitude":"6.8606","city":"El Oued, El Oued","id":12978},{"city":"El Outaya, Biskra","country":"Algeria","longitude":"5.6000","latitude":"35.0333","id":12979},{"city":"El Paisnal, San Salvador","country":"El Salvador","id":12980,"latitude":"13.9667","longitude":"-89.2167"},{"country":"Venezuela","latitude":"8.0244","city":"El Palmar, Bolívar","longitude":"-61.8819","id":12981},{"city":"El Palmar, Murcia","latitude":"37.9422","id":12982,"country":"Spain","longitude":"-1.1614"},{"city":"El Palmar, Quetzaltenango","country":"Guatemala","longitude":"-91.5833","id":12983,"latitude":"14.6500"},{"latitude":"-34.6167","country":"Argentina","city":"El Palomar, Buenos Aires","longitude":"-58.5833","id":12984},{"city":"El Paraiso, Chalatenango","latitude":"14.0833","country":"El Salvador","id":12985,"longitude":"-89.0833"},{"longitude":"-88.9833","latitude":"15.0167","city":"El Paraiso, Copán","country":"Honduras","id":12986},{"country":"Mexico","longitude":"-93.0067","id":12987,"latitude":"16.3662","city":"El Parral, Chiapas"},{"latitude":"35.6394","longitude":"-120.6560","id":12988,"country":"United States","city":"El Paso de Robles, California"},{"city":"El Paso, Cesar","id":12989,"latitude":"9.6622","country":"Colombia","longitude":"-73.7519"},{"longitude":"-106° 29' 09\"","latitude":" 31° 45' 36\"","city":"El Paso, Texas","country":"United States","id":12990},{"latitude":"1.5644","country":"Colombia","longitude":"-75.3319","id":12991,"city":"El Paujil, Caquetá"},{"id":12992,"city":"El Penol, Nariño","country":"Colombia","longitude":"-75.2433","latitude":"6.2186"},{"country":"Uruguay","longitude":"-55.9097","latitude":"-34.7972","city":"El Pinar, Canelones","id":12993},{"longitude":"-74.6667","id":12994,"latitude":"10.3333","city":"El Pinon, Magdalena","country":"Colombia"},{"id":12995,"city":"El Plan, Murcia","country":"Spain","longitude":"-1.0085","latitude":"37.6405"},{"country":"Colombia","longitude":"-73.2081","id":12996,"latitude":"7.4767","city":"El Playon, Santander"},{"id":12997,"latitude":"41.3333","country":"Spain","longitude":"2.1000","city":"El Prat de Llobregat, Catalonia"},{"latitude":"14.3500","city":"El Progreso, Jutiapa","country":"Guatemala","longitude":"-89.8500","id":12998},{"country":"Honduras","city":"El Progreso, Yoro","latitude":"15.4000","longitude":"-87.8000","id":12999},{"city":"El Pueblito, Querétaro","country":"Mexico","longitude":"-100.4414","latitude":"20.5397","id":13000},{"country":"Spain","city":"El Puerto de Santa Maria, Andalusia","latitude":"36.6015","longitude":"-6.2381","id":13001},{"city":"El Qaa, Baalbek-Hermel","id":13002,"latitude":"34.3436","country":"Lebanon","longitude":"36.4756"},{"country":"Guatemala","latitude":"14.7667","city":"El Quetzal, San Marcos","longitude":"-91.8167","id":13003},{"latitude":"-33.3913","id":13004,"longitude":"-71.6929","city":"El Quisco, Valparaíso","country":"Chile"},{"country":"Nicaragua","city":"El Rama, Costa Caribe Sur","longitude":"-84.2203","id":13005,"latitude":"12.1615"},{"city":"El Realejo, Chinandega","longitude":"-87.1667","id":13006,"country":"Nicaragua","latitude":"12.5333"},{"latitude":"13.9750","id":13007,"country":"El Salvador","city":"El Refugio, Ahuachapán","longitude":"-89.7072"},{"city":"El Reno, Oklahoma","longitude":"-97.9660","country":"United States","latitude":"35.5429","id":13008},{"latitude":"10.6167","country":"Colombia","longitude":"-74.2667","id":13009,"city":"El Reten, Magdalena"},{"longitude":"-72.6278","id":13010,"country":"Colombia","city":"El Retorno, Guaviare","latitude":"2.3306"},{"city":"El Roble, Sucre","country":"Colombia","longitude":"-75.2000","id":13011,"latitude":"9.1000"},{"longitude":"-90.8314","city":"El Rodeo, Escuintla","latitude":"14.3906","country":"Guatemala","id":13012},{"country":"Colombia","latitude":"4.8519","id":13013,"longitude":"-74.2628","city":"El Rosal, Cundinamarca"},{"id":13014,"longitude":"-89.0333","latitude":"13.5000","country":"El Salvador","city":"El Rosario, La Paz"},{"country":"Mexico","city":"El Rosario, Sinaloa","latitude":"22.9922","longitude":"-105.8572","id":13015},{"latitude":"23.7823","city":"El Salto, Durango","country":"Mexico","longitude":"-105.3585","id":13016},{"city":"El Salvador, Misamis Oriental","id":13017,"latitude":"8.5700","country":"Philippines","longitude":"124.5200"},{"country":"Nicaragua","longitude":"-86.5333","id":13018,"city":"El Sauce, León","latitude":"12.8833"},{"country":"United States","longitude":"-118.4018","latitude":"33.9170","city":"El Segundo, California","id":13019},{"city":"El Seibo, Yuma","id":13020,"country":"Dominican Republic","longitude":"-69.0420","latitude":"18.7630"},{"latitude":"33.8724","id":13021,"city":"El Sobrante, California","longitude":"-117.4624","country":"United States"},{"latitude":"8.9936","longitude":"-65.7456","id":13022,"city":"El Socorro, Guárico","country":"Venezuela"},{"city":"El Tablon, Nariño","longitude":"-77.0969","id":13023,"latitude":"1.4269","country":"Colombia"},{"latitude":"-33.4586","city":"El Tabo, Valparaíso","longitude":"-71.6619","id":13024,"country":"Chile"},{"latitude":"-34.4719","city":"El Talar de Pacheco, Buenos Aires","country":"Argentina","longitude":"-58.6550","id":13025},{"country":"Colombia","city":"El Tambo, Nariño","longitude":"-77.3981","id":13026,"latitude":"1.4131"},{"city":"El Tarf, El Tarf","id":13027,"latitude":"36.7670","country":"Algeria","longitude":"8.3170"},{"longitude":"-73.0944","latitude":"8.5756","city":"El Tarra, Norte de Santander","id":13028,"country":"Colombia"},{"id":13029,"latitude":"14.6500","country":"Guatemala","longitude":"-90.8000","city":"El Tejar, Chimaltenango"},{"latitude":"8.8861","country":"Venezuela","city":"El Tigre, Anzoátegui","longitude":"-64.2611","id":13030},{"longitude":"-69.7931","latitude":"9.7822","country":"Venezuela","city":"El Tocuyo, Lara","id":13031},{"city":"El Tortuguero, Costa Caribe Sur","longitude":"-84.2000","latitude":"12.8167","country":"Nicaragua","id":13032},{"longitude":"-88.3500","id":13033,"country":"El Salvador","latitude":"13.3500","city":"El Transito, San Miguel"},{"id":13034,"longitude":"-61.7167","latitude":"-32.1833","city":"El Trebol, Santa Fe","country":"Argentina"},{"city":"El Tumbador, San Marcos","country":"Guatemala","longitude":"-91.9333","id":13035,"latitude":"14.8667"},{"id":13036,"city":"El Valle del Espiritu Santo, Nueva Esparta","longitude":"-63.8833","latitude":"10.9833","country":"Venezuela"},{"city":"El Valle, Higuamo","latitude":"18.9764","country":"Dominican Republic","longitude":"-69.3792","id":13037},{"latitude":"12.6667","id":13038,"country":"Nicaragua","longitude":"-87.1667","city":"El Viejo, Chinandega"},{"city":"El Viso del Alcor, Andalusia","country":"Spain","longitude":"-5.7167","latitude":"37.3833","id":13039},{"id":13040,"latitude":"2.8028","country":"Kenya","longitude":"40.9275","city":"El Wak, Mandera"},{"id":13041,"latitude":"7.9333","city":"El Zulia, Norte de Santander","country":"Colombia","longitude":"-72.6000"},{"city":"El`ad, Central","latitude":"32.0522","country":"Israel","longitude":"34.9511","id":13042},{"country":"India","longitude":"76.8357","latitude":"8.9009","city":"Elakadu, Kerala","id":13043},{"longitude":"76.7000","id":13044,"country":"India","latitude":"9.4167","city":"Elamattur, Kerala"},{"latitude":"11.2669","country":"India","longitude":"78.8816","city":"Elambalur, Tamil Nādu","id":13045},{"city":"Elanad, Kerala","country":"India","longitude":"76.3833","id":13046,"latitude":"10.6167"},{"latitude":"48.7847","country":"France","longitude":"1.9589","id":13047,"city":"Elancourt, Île-de-France"},{"id":13048,"latitude":"11.3992","city":"Elandakuttai, Tamil Nādu","country":"India","longitude":"77.7782"},{"longitude":"29.1960","id":13049,"country":"South Africa","latitude":"-25.2880","city":"Elandsdoorn, Mpumalanga"},{"id":13050,"country":"India","latitude":"10.0167","city":"Elangunnapuzha, Kerala","longitude":"76.2167"},{"id":13051,"longitude":"76.6667","latitude":"8.9500","city":"Elanjivaliseri, Kerala","country":"India"},{"country":"India","id":13052,"longitude":"76.1667","city":"Elankur, Kerala","latitude":"11.1333"},{"longitude":"77.3080","id":13053,"city":"Elattur, Tamil Nādu","country":"India","latitude":"11.3866"},{"id":13054,"city":"Elavalli, Kerala","latitude":"10.5667","country":"India","longitude":"76.0833"},{"country":"India","latitude":"11.7154","longitude":"79.1796","id":13055,"city":"Elavanasur, Tamil Nādu"},{"latitude":"38.6744","city":"Elazig, Elazığ","country":"Turkey","longitude":"39.2228","id":13056},{"longitude":"20.0806","latitude":"41.1111","city":"Elbasan, Elbasan","id":13057,"country":"Albania"},{"country":"France","city":"Elbeuf, Normandie","latitude":"49.2900","longitude":"1.0100","id":13058},{"latitude":"38.2014","city":"Elbistan, Kahramanmaraş","country":"Turkey","id":13059,"longitude":"37.1883"},{"city":"Elblag, Warmińsko-Mazurskie","latitude":"54.1667","country":"Poland","id":13060,"longitude":"19.4000"},{"country":"Canada","city":"Elbow, Saskatchewan","latitude":" 51° 07' 00\"","longitude":"-106° 35' 00\"","id":13061},{"latitude":"52.4500","country":"Netherlands","longitude":"5.8500","city":"Elburg, Gelderland","id":13062},{"city":"Elche, Valencia","id":13063,"latitude":"38.2669","country":"Spain","longitude":"-0.6983"},{"longitude":"79.9269","id":13064,"country":"India","latitude":"16.0813","city":"Elchuru, Andhra Pradesh"},{"id":13065,"longitude":"-0.7967","city":"Elda, Valencia","latitude":"38.4789","country":"Spain"},{"latitude":"0.0500","country":"Kenya","longitude":"35.7167","city":"Eldama Ravine, Baringo","id":13066},{"latitude":"39.4041","country":"United States","longitude":"-76.9528","city":"Eldersburg, Maryland","id":13067},{"country":"Russia","longitude":"135.1833","id":13068,"city":"Eldikan, Sakha (Yakutiya)","latitude":"60.8000"},{"longitude":"-88° 30' 00\"","latitude":" 37° 49' 58\"","city":"Eldorado, Illinois","country":"USA","id":13069},{"longitude":"-54.2839","latitude":"-23.7869","country":"Brazil","city":"Eldorado, Mato Grosso do Sul","id":13070},{"id":13071,"country":"Argentina","latitude":"-26.4000","city":"Eldorado, Misiones","longitude":"-54.6333"},{"longitude":"-48.1081","country":"Brazil","latitude":"-24.5200","id":13072,"city":"Eldorado, São Paulo"},{"country":"Kenya","id":13073,"longitude":"35.2833","latitude":"0.5167","city":"Eldoret, Uasin Gishu"},{"city":"Eldridge, Iowa","longitude":"-90° 35' 24\"","id":13074,"latitude":" 41° 36' 43\"","country":"USA"},{"city":"Elefsina, Attikí","latitude":"38.0333","longitude":"23.5333","id":13075,"country":"Greece"},{"longitude":"24.6711","country":"Lithuania","latitude":"54.7878","city":"Elektrenai, Elektrénai","id":13076},{"id":13077,"latitude":"55.8833","city":"Elektrogorsk, Moskovskaya Oblast’","country":"Russia","longitude":"38.8000"},{"longitude":"38.4667","id":13078,"country":"Russia","city":"Elektrostal, Moskovskaya Oblast’","latitude":"55.7833"},{"city":"Elektrougli, Moskovskaya Oblast’","id":13079,"longitude":"38.2000","country":"Russia","latitude":"55.7167"},{"country":"Bangladesh","city":"Elenga, Dhaka","id":13080,"longitude":"89.9219","latitude":"24.3386"},{"longitude":"-42.1333","id":13081,"country":"Brazil","latitude":"-6.2167","city":"Elesbao Veloso, Piauí"},{"city":"Eleskirt, Ağrı","longitude":"42.6744","id":13082,"country":"Turkey","latitude":"39.7981"},{"country":"India","id":13083,"city":"Elesvaram, Andhra Pradesh","latitude":"17.2833","longitude":"82.1000"},{"id":13084,"city":"Elfers, Florida","country":"United States","latitude":"28.2140","longitude":"-82.7230"},{"latitude":" 42° 02' 17\"","city":"Elgin, Illinois","country":"United States","id":13085,"longitude":"-88° 17' 24\""},{"longitude":"-3.3153","latitude":"57.6486","id":13086,"country":"United Kingdom","city":"Elgin, Moray"},{"city":"Elgin, Texas","longitude":"-97.3883","latitude":"30.3526","country":"United States","id":13087},{"longitude":"-2.4169","id":13088,"latitude":"43.2142","city":"Elgoibar, Basque Country","country":"Spain"},{"id":13089,"longitude":"26.5667","country":"Bulgaria","city":"Elhovo, Yambol","latitude":"42.1667"},{"id":13090,"latitude":"-23.0428","country":"Brazil","city":"Elias Fausto, São Paulo","longitude":"-47.3739"},{"city":"Elista, Kalmykiya","latitude":"46.3167","country":"Russia","longitude":"44.2667","id":13091},{"id":13092,"country":"China","longitude":"77.3106","latitude":"38.6803","city":"Elixku, Xinjiang"},{"country":"United States","longitude":"-76° 15' 00\"","latitude":" 36° 15' 00\"","id":13093,"city":"Elizabeth City, North Carolina"},{"longitude":"-74° 12' 59\"","id":13094,"country":"United States","latitude":" 40° 39' 42\"","city":"Elizabeth, New Jersey"},{"country":"United States","longitude":"-82.2370","latitude":"36.3367","id":13095,"city":"Elizabethton, Tennessee"},{"latitude":" 37° 41' 23\"","city":"Elizabethtown, Kentucky","longitude":"-85° 52' 12\"","country":"United States","id":13096},{"longitude":"-76.5990","country":"United States","id":13097,"city":"Elizabethtown, Pennsylvania","latitude":"40.1533"},{"longitude":"-75.8833","id":13098,"latitude":"44.7000","country":"Canada","city":"Elizabethtown-Kitley, Ontario"},{"country":"United States","latitude":" 35° 22' 58\"","city":"Elk City, Oklahoma","id":13099,"longitude":"-99° 22' 58\""},{"country":"United States","longitude":"-87.9921","id":13100,"latitude":"42.0064","city":"Elk Grove Village, Illinois"},{"latitude":"38.4161","country":"United States","city":"Elk Grove, California","longitude":"-121.3842","id":13101},{"country":"United States","longitude":"-122.3663","city":"Elk Plain, Washington","id":13102,"latitude":"47.0425"},{"city":"Elk Point, South Dakota","country":"USA","latitude":" 42° 40' 58\"","id":13103,"longitude":"-96° 43' 58\""},{"city":"Elk River, Minnesota","country":"United States","latitude":"45.3314","longitude":"-93.5670","id":13104},{"latitude":"53.8214","city":"Elk, Warmińsko-Mazurskie","country":"Poland","longitude":"22.3622","id":13105},{"longitude":"-86° 00' 00\"","country":"United States","city":"Elkhart, Indiana","id":13106,"latitude":" 41° 40' 01\""},{"longitude":"-88.5377","id":13107,"latitude":"42.6713","city":"Elkhorn, Wisconsin","country":"United States"},{"city":"Elkhotovo, North Ossetia","id":13108,"country":"Russia","latitude":"43.3458","longitude":"44.2028"},{"latitude":" 38° 55' 01\"","id":13109,"country":"USA","city":"Elkins, West Virginia","longitude":"-79° 49' 58\""},{"country":"United States","id":13110,"city":"Elko, Nevada","latitude":" 40° 49' 47\"","longitude":"-115° 45' 36\""},{"city":"Elkridge, Maryland","latitude":"39.1941","longitude":"-76.7428","id":13111,"country":"United States"},{"country":"United States","latitude":"39.6066","city":"Elkton, Maryland","longitude":"-75.8209","id":13112},{"longitude":"80.0546","id":13113,"latitude":"16.1847","city":"Ellamanda, Andhra Pradesh","country":"India"},{"country":"United Kingdom","longitude":"-1.8400","id":13114,"city":"Elland, Calderdale","latitude":"53.6830"},{"longitude":"74.6500","latitude":"29.4500","country":"India","id":13115,"city":"Ellenabad, Haryāna"},{"longitude":"-120.5475","city":"Ellensburg, Washington","country":"United States","latitude":"46.9999","id":13116},{"country":"United Kingdom","longitude":"-2.8970","id":13117,"latitude":"53.2790","city":"Ellesmere Port, Cheshire West and Chester"},{"id":13118,"country":"United States","latitude":"39.2774","city":"Ellicott City, Maryland","longitude":"-76.8345"},{"country":"United States","latitude":"42.1330","longitude":"-79.2360","id":13119,"city":"Ellicott, New York"},{"city":"Elliniko, Attikí","id":13120,"longitude":"23.7333","latitude":"37.8667","country":"Greece"},{"longitude":"-82° 38' 00\"","city":"Elliot Lake, Ontario","id":13121,"latitude":" 46° 23' 00\"","country":"Canada"},{"id":13122,"city":"Ellisville, Missouri","latitude":"38.5897","country":"United States","longitude":"-90.5884"},{"longitude":"-2.0860","latitude":"57.3660","country":"United Kingdom","id":13123,"city":"Ellon, Aberdeenshire"},{"longitude":"81.1031","id":13124,"city":"Ellore, Andhra Pradesh","country":"India","latitude":"16.7117"},{"longitude":"10.1306","id":13125,"country":"Germany","latitude":"48.9611","city":"Ellwangen, Baden-Württemberg"},{"longitude":"-78.6371","latitude":"42.8231","country":"United States","city":"Elma, New York","id":13126},{"longitude":"33.2308","id":13127,"country":"Turkey","latitude":"39.9208","city":"Elmadag, Ankara"},{"longitude":"29.9000","latitude":"36.7333","id":13128,"country":"Turkey","city":"Elmali, Antalya"},{"longitude":"9.0500","country":"Italy","id":13129,"city":"Elmas, Sardegna","latitude":"39.2667"},{"latitude":"41.8973","country":"United States","id":13130,"city":"Elmhurst, Illinois","longitude":"-87.9432"},{"city":"Elmina, Central","longitude":"-1.3500","country":"Ghana","latitude":"5.0833","id":13131},{"city":"Elmira, New York","longitude":"-76° 49' 58\"","country":"United States","latitude":" 42° 04' 58\"","id":13132},{"country":"Canada","id":13133,"latitude":"43.5996","city":"Elmira, Ontario","longitude":"-80.5604"},{"longitude":"-73.7078","country":"United States","id":13134,"latitude":"40.7033","city":"Elmont, New York"},{"longitude":"9.6511","country":"Germany","city":"Elmshorn, Schleswig-Holstein","latitude":"53.7519","id":13135},{"latitude":"41.9225","country":"United States","id":13136,"longitude":"-87.8163","city":"Elmwood Park, Illinois"},{"id":13137,"latitude":"40.9049","city":"Elmwood Park, New Jersey","country":"United States","longitude":"-74.1201"},{"country":"France","id":13138,"latitude":"42.5997","city":"Elne, Occitanie","longitude":"2.9710"},{"city":"Eloi Mendes, Minas Gerais","latitude":"-21.6103","country":"Brazil","id":13139,"longitude":"-45.5689"},{"city":"Elon, North Carolina","country":"United States","id":13140,"latitude":"36.1016","longitude":"-79.5086"},{"id":13141,"longitude":"-96.9227","city":"Eloxochitlan, Puebla","latitude":"18.5088","country":"Mexico"},{"city":"Eloy Alfaro, Guayas","country":"Ecuador","longitude":"-79.8311","id":13142,"latitude":"-2.1733"},{"city":"Eloy, Arizona","latitude":"32.7470","country":"United States","longitude":"-111.5992","id":13143},{"latitude":"50.9333","country":"Germany","id":13144,"city":"Elsdorf, North Rhine-Westphalia","longitude":"6.5667"},{"longitude":"8.6833","id":13145,"country":"Germany","latitude":"51.7333","city":"Elsen, North Rhine-Westphalia"},{"latitude":"49.8500","longitude":"9.1667","id":13146,"country":"Germany","city":"Elsenfeld, Bavaria"},{"longitude":"8.4667","id":13147,"country":"Germany","latitude":"53.2333","city":"Elsfleth, Lower Saxony"},{"city":"Elsmere, Delaware","longitude":"-75° 35' 24\"","latitude":" 39° 44' 24\"","country":"USA","id":13148},{"longitude":"-84.6017","id":13149,"city":"Elsmere, Kentucky","country":"United States","latitude":"38.9948"},{"latitude":"51.4510","country":"United Kingdom","id":13150,"longitude":"0.0520","city":"Eltham, Greenwich"},{"id":13151,"latitude":"8.9667","city":"Elukone, Kerala","country":"India","longitude":"76.7167"},{"country":"India","city":"Elumalai, Tamil Nādu","id":13152,"latitude":"9.8650","longitude":"77.6992"},{"id":13153,"latitude":"10.0667","country":"India","city":"Elur, Kerala","longitude":"76.3000"},{"country":"India","city":"Elurpatti, Tamil Nādu","longitude":"78.2844","id":13154,"latitude":"11.0234"},{"id":13155,"latitude":"16.5167","longitude":"81.3500","city":"Elurupadu, Andhra Pradesh","country":"India"},{"id":13156,"latitude":"38.8667","city":"Elvas, Portalegre","country":"Portugal","longitude":"-7.1500"},{"city":"Elverson, Pennsylvania","country":"USA","id":13157,"longitude":"-75° 51' 46\"","latitude":" 40° 09' 11\""},{"city":"Elverum, Innlandet","longitude":"11.5623","country":"Norway","latitude":"60.8819","id":13158},{"latitude":"40.8462","country":"United States","id":13159,"city":"Elwood, New York","longitude":"-73.3389"},{"city":"Ely, Cambridgeshire","latitude":"52.3981","country":"United Kingdom","longitude":"0.2622","id":13160},{"longitude":"-82° 06' 35\"","city":"Elyria, Ohio","country":"United States","id":13161,"latitude":" 41° 21' 54\""},{"latitude":"52.1167","longitude":"9.7333","country":"Germany","city":"Elze, Lower Saxony","id":13162},{"country":"Kazakhstan","longitude":"58.1442","city":"Emba, Aqtöbe","id":13163,"latitude":"48.8267"},{"latitude":"-32.1833","city":"Embalse, Córdoba","country":"Argentina","id":13164,"longitude":"-64.4167"},{"id":13165,"latitude":"-23.2167","city":"Embarcacion, Salta","country":"Argentina","longitude":"-64.1000"},{"latitude":"-25.1233","longitude":"-57.3553","id":13166,"city":"Emboscada, Cordillera","country":"Paraguay"},{"city":"Embrach, Zürich","country":"Switzerland","id":13167,"latitude":"47.5104","longitude":"8.5938"},{"city":"Embrun, Ontario","country":"Canada","longitude":"-75.2920","id":13168,"latitude":"45.2735"},{"longitude":"37.4583","id":13169,"latitude":"-0.5389","city":"Embu, Embu","country":"Kenya"},{"longitude":"-46.8117","latitude":"-23.8319","city":"Embu-Guacu, São Paulo","country":"Brazil","id":13170},{"city":"Emden, Lower Saxony","latitude":"53.3669","country":"Germany","id":13171,"longitude":"7.2061"},{"longitude":"148.1619","latitude":"-23.5208","city":"Emerald, Queensland","id":13172,"country":"Australia"},{"country":"Canada","city":"Emerson, Manitoba","latitude":" 49° 00' 25\"","longitude":"-97° 12' 53\"","id":13173},{"city":"Emeryville, California","country":"United States","id":13174,"longitude":"-122.2932","latitude":"37.8382"},{"city":"Emet, Kütahya","longitude":"29.2667","id":13175,"latitude":"39.3333","country":"Turkey"},{"country":"Mexico","longitude":"-92.8967","id":13176,"city":"Emiliano Zapata, Chiapas","latitude":"16.5392"},{"country":"Mexico","latitude":"19.6500","city":"Emiliano Zapata, Hidalgo","longitude":"-98.5500","id":13177},{"city":"Emiliano Zapata, Tabasco","latitude":"17.7446","longitude":"-91.7651","id":13178,"country":"Mexico"},{"longitude":"74.2600","latitude":"32.0414","city":"Eminabad, Punjab","id":13179,"country":"Pakistan"},{"country":"Algeria","city":"Emir Abdelkader, Jijel","latitude":"36.7500","id":13180,"longitude":"5.8333"},{"longitude":"31.1500","id":13181,"city":"Emirdag, Afyonkarahisar","country":"Turkey","latitude":"39.0167"},{"id":13182,"latitude":"37.9022","city":"Emirgazi, Konya","country":"Turkey","longitude":"33.8372"},{"latitude":"40.5352","country":"United States","longitude":"-75.4978","city":"Emmaus, Pennsylvania","id":13183},{"city":"Emmeloord, Flevoland","latitude":"52.7097","country":"Netherlands","longitude":"5.7508","id":13184},{"country":"Netherlands","id":13185,"latitude":"52.7833","longitude":"6.9000","city":"Emmen, Drenthe"},{"latitude":"47.0833","country":"Switzerland","city":"Emmen, Luzern","longitude":"8.3000","id":13186},{"country":"Germany","longitude":"7.8492","latitude":"48.1214","city":"Emmendingen, Baden-Württemberg","id":13187},{"country":"India","city":"Emmiganur, Andhra Pradesh","id":13188,"longitude":"77.4833","latitude":"15.7333"},{"longitude":"76.9200","latitude":"15.1500","city":"Emmiganuru, Karnātaka","country":"India","id":13189},{"country":"Mexico","longitude":"-110.8125","id":13190,"latitude":"27.9617","city":"Empalme, Sonora"},{"city":"Empangeni, KwaZulu-Natal","country":"South Africa","id":13191,"latitude":"-28.7500","longitude":"31.9000"},{"longitude":"-58.7833","id":13192,"city":"Empedrado, Corrientes","country":"Argentina","latitude":"-27.9333"},{"city":"Empoli, Tuscany","id":13193,"longitude":"10.9500","country":"Italy","latitude":"43.7167"},{"latitude":"38.4028","country":"United States","city":"Emporia, Kansas","longitude":"-96.1932","id":13194},{"latitude":"52.3925","city":"Emsburen, Lower Saxony","longitude":"7.2914","id":13195,"country":"Germany"},{"city":"Emsdetten, North Rhine-Westphalia","longitude":"7.5344","country":"Germany","id":13196,"latitude":"52.1728"},{"id":13197,"country":"Germany","longitude":"8.1500","latitude":"52.8167","city":"Emstek, Lower Saxony"},{"id":13198,"latitude":"50.8490","longitude":"-0.9380","country":"United Kingdom","city":"Emsworth, Hampshire"},{"id":13199,"latitude":"35.4492","longitude":"137.4128","city":"Ena, Gifu","country":"Japan"},{"city":"Enamadala, Andhra Pradesh","country":"India","longitude":"80.3306","latitude":"16.2281","id":13200},{"latitude":"42.5361","city":"Encamp, Encamp","longitude":"1.5828","country":"Andorra","id":13201},{"city":"Encantado, Rio Grande do Sul","longitude":"-51.8700","latitude":"-29.2358","id":13202,"country":"Brazil"},{"country":"Mexico","longitude":"-102.2333","city":"Encarnacion de Diaz, Jalisco","id":13203,"latitude":"21.5167"},{"country":"Paraguay","id":13204,"longitude":"-55.8800","latitude":"-27.3300","city":"Encarnacion, Itapúa"},{"id":13205,"city":"Encheng, Guangdong","country":"China","longitude":"112.3000","latitude":"22.1833"},{"latitude":"33.0492","id":13206,"longitude":"-117.2610","city":"Encinitas, California","country":"United States"},{"id":13207,"longitude":"-79.8661","latitude":"22.6169","country":"Cuba","city":"Encrucijada, Villa Clara"},{"latitude":"-30.5333","country":"Brazil","city":"Encruzilhada do Sul, Rio Grande do Sul","longitude":"-52.5167","id":13208},{"country":"Brazil","latitude":"-15.5308","longitude":"-40.9089","id":13209,"city":"Encruzilhada, Bahia"},{"id":13210,"latitude":"-8.8333","country":"Indonesia","city":"Ende, Nusa Tenggara Timur","longitude":"121.6500"},{"longitude":"-76.0639","id":13211,"city":"Endicott, New York","country":"United States","latitude":"42.0980"},{"country":"United States","longitude":"-76.0219","city":"Endwell, New York","id":13212,"latitude":"42.1184"},{"longitude":"11.1019","country":"Norway","city":"Enebakk, Viken","id":13213,"latitude":"59.7742"},{"city":"Enerhodar, Zaporizka Oblast","latitude":"47.4989","country":"Ukraine","longitude":"34.6558","id":13214},{"latitude":"36.1353","longitude":"10.3808","country":"Tunisia","id":13215,"city":"Enfida, Sousse"},{"country":"United Kingdom","id":13216,"latitude":"51.6686","city":"Enfield Lock, Enfield","longitude":"-0.0260"},{"latitude":" 41° 55' 01\"","city":"Enfield, Connecticut","longitude":"-72° 34' 58\"","country":"USA","id":13217},{"city":"Enfield, Enfield","id":13218,"latitude":"51.6522","country":"United Kingdom","longitude":"-0.0808"},{"longitude":"76.0400","city":"Engandiyur, Kerala","country":"India","id":13219,"latitude":"10.5000"},{"longitude":"46.1222","country":"Russia","city":"Engels, Saratovskaya Oblast’","latitude":"51.5017","id":13220},{"id":13221,"latitude":"50.9833","city":"Engelskirchen, North Rhine-Westphalia","country":"Germany","longitude":"7.4167"},{"longitude":"8.7714","latitude":"47.8528","id":13222,"city":"Engen, Baden-Württemberg","country":"Germany"},{"country":"Brazil","longitude":"-52.2692","latitude":"-23.7972","city":"Engenheiro Beltrao, Paraná","id":13223},{"id":13224,"country":"Brazil","city":"Engenheiro Caldas, Minas Gerais","longitude":"-42.0458","latitude":"-19.2189"},{"longitude":"-47.2150","id":13225,"latitude":"-22.4883","country":"Brazil","city":"Engenheiro Coelho, São Paulo"},{"longitude":"-43.6778","id":13226,"city":"Engenheiro Paulo de Frontin, Rio de Janeiro","latitude":"-22.5500","country":"Brazil"},{"id":13227,"country":"Germany","latitude":"52.1333","city":"Enger, North Rhine-Westphalia","longitude":"8.5667"},{"city":"Engerwitzdorf, Oberösterreich","id":13228,"longitude":"14.4256","country":"Austria","latitude":"48.3397"},{"longitude":"4.0411","country":"Belgium","city":"Enghien, Wallonia","latitude":"50.6956","id":13229},{"city":"Enghien-les-Bains, Île-de-France","latitude":"48.9697","longitude":"2.3081","country":"France","id":13230},{"country":"Canada","city":"Englee, Newfoundland","latitude":" 50° 44' 00\"","longitude":"-56° 06' 00\"","id":13231},{"country":"United Kingdom","latitude":"51.4301","city":"Englefield Green, Surrey","longitude":"-0.5699","id":13232},{"city":"Englewood, Colorado","country":"United States","latitude":" 39° 39' 11\"","longitude":"-104° 59' 05\"","id":13233},{"id":13234,"city":"Englewood, Florida","country":"United States","longitude":"-82.3524","latitude":"26.9717"},{"longitude":"-73.9736","country":"United States","latitude":"40.8917","id":13235,"city":"Englewood, New Jersey"},{"id":13236,"latitude":"39.8643","city":"Englewood, Ohio","country":"United States","longitude":"-84.3070"},{"latitude":" 36° 23' 42\"","id":13237,"longitude":"-97° 52' 30\"","city":"Enid, Oklahoma","country":"United States"},{"latitude":"48.4831","city":"Eningen unter Achalm, Baden-Württemberg","country":"Germany","longitude":"9.2522","id":13238},{"city":"Eniwa, Hokkaidō","id":13239,"country":"Japan","latitude":"42.8833","longitude":"141.5833"},{"longitude":"76.2500","country":"India","id":13240,"latitude":"10.6500","city":"Enkakad, Kerala"},{"country":"Germany","latitude":"51.4667","id":13241,"city":"Enkesen, North Rhine-Westphalia","longitude":"7.9667"},{"latitude":"52.7000","city":"Enkhuizen, Noord-Holland","id":13242,"longitude":"5.3000","country":"Netherlands"},{"longitude":"17.0764","country":"Sweden","city":"Enkoping, Uppsala","latitude":"59.6356","id":13243},{"longitude":"14.2761","latitude":"37.5633","id":13244,"city":"Enna, Sicilia","country":"Italy"},{"city":"Ennamangalam, Tamil Nādu","latitude":"11.6449","id":13245,"longitude":"77.5930","country":"India"},{"latitude":"51.2833","city":"Ennepetal, North Rhine-Westphalia","country":"Germany","longitude":"7.3333","id":13246},{"id":13247,"latitude":"19.4833","city":"Ennery, Artibonite","country":"Haiti","longitude":"-72.4833"},{"longitude":"8.0256","latitude":"51.8367","city":"Ennigerloh, North Rhine-Westphalia","country":"Germany","id":13248},{"id":13249,"city":"Ennis, Clare","longitude":"-8.9807","latitude":"52.8463","country":"Ireland"},{"longitude":"-96.6347","country":"United States","city":"Ennis, Texas","latitude":"32.3254","id":13250},{"latitude":"52.5021","city":"Enniscorthy, Wexford","country":"Ireland","id":13251,"longitude":"-6.5659"},{"city":"Enniskillen, Fermanagh and Omagh","longitude":"-7.6389","latitude":"54.3447","id":13252,"country":"United Kingdom"},{"city":"Enns, Oberösterreich","latitude":"48.2167","country":"Austria","id":13253,"longitude":"14.4750"},{"country":"Philippines","id":13254,"city":"Enrile, Cagayan","longitude":"121.7011","latitude":"17.5622"},{"country":"Dominican Republic","city":"Enriquillo, Enriquillo","latitude":"17.9000","id":13255,"longitude":"-71.2333"},{"longitude":"6.8925","id":13256,"latitude":"52.2225","country":"Netherlands","city":"Enschede, Overijssel"},{"id":13257,"longitude":"-57.9000","city":"Ensenada Berisso, Buenos Aires","latitude":"-34.8667","country":"Argentina"},{"country":"Mexico","id":13258,"city":"Ensenada, Baja California","longitude":"-116.6058","latitude":"31.8578"},{"latitude":"-34.8644","longitude":"-57.9103","country":"Argentina","city":"Ensenada, Buenos Aires","id":13259},{"country":"United States","id":13260,"latitude":"30.5259","longitude":"-87.2733","city":"Ensley, Florida"},{"longitude":"32.4600","country":"Uganda","id":13261,"city":"Entebbe, Wakiso","latitude":"0.0500"},{"id":13262,"latitude":"31.3275","city":"Enterprise, Alabama","country":"United States","longitude":"-85.8463"},{"country":"United States","id":13263,"latitude":"36.0091","city":"Enterprise, Nevada","longitude":"-115.2278"},{"city":"Entraigues-sur-la-Sorgue, Provence-Alpes-Côte d’Azur","id":13264,"country":"France","longitude":"4.9272","latitude":"44.0036"},{"latitude":"-28.3600","country":"Brazil","city":"Entre Ijuis, Rio Grande do Sul","longitude":"-54.2678","id":13265},{"country":"Brazil","city":"Entre Rios de Minas, Minas Gerais","latitude":"-20.6708","longitude":"-44.0658","id":13266},{"city":"Entre Rios, Bahia","longitude":"-38.0839","latitude":"-11.9419","id":13267,"country":"Brazil"},{"city":"Entre Rios, Tarija","id":13268,"longitude":"-64.1733","country":"Bolivia","latitude":"-21.5264"},{"id":13269,"latitude":"6.5667","country":"Colombia","city":"Entrerrios, Antioquia","longitude":"-75.5167"},{"id":13270,"latitude":"39.4653","city":"Entroncamento, Santarém","country":"Portugal","longitude":"-8.4681"},{"longitude":"7.5111","country":"Nigeria","latitude":"6.4528","id":13271,"city":"Enugu, Enugu"},{"city":"Enumclaw, Washington","country":"United States","longitude":"-121.9897","id":13272,"latitude":"47.2018"},{"city":"Enumulapalle, Andhra Pradesh","latitude":"14.1446","id":13273,"longitude":"77.8166","country":"India"},{"latitude":"66.9500","country":"Russia","longitude":"-171.8167","id":13274,"city":"Enurmino, Chukotskiy Avtonomnyy Okrug"},{"id":13275,"country":"Colombia","longitude":"-75.5667","city":"Envigado, Antioquia","latitude":"6.1667"},{"city":"Eonyang, KOR","longitude":"129.1167","id":13276,"country":"Korea","latitude":"35.5667"},{"id":13277,"latitude":"46.5500","country":"Switzerland","longitude":"6.6667","city":"Epalinges, Vaud"},{"latitude":"40.4333","city":"Epanomi, Kentrikí Makedonía","longitude":"22.9333","id":13278,"country":"Greece"},{"country":"Mexico","latitude":"20.0177","city":"Epazoyucan, Hidalgo","longitude":"-98.6361","id":13279},{"country":"Netherlands","latitude":"52.3500","city":"Epe, Gelderland","longitude":"5.9833","id":13280},{"city":"Epe, Lagos","longitude":"3.9833","latitude":"6.5833","country":"Nigeria","id":13281},{"country":"Germany","id":13282,"longitude":"7.0333","city":"Epe, North Rhine-Westphalia","latitude":"52.1833"},{"longitude":"3.9600","city":"Epernay, Grand Est","latitude":"49.0403","id":13283,"country":"France"},{"latitude":" 40° 06' 35\"","longitude":"-76° 05' 59\"","id":13284,"city":"Ephrata, Pennsylvania","country":"United States"},{"country":"France","longitude":"6.4512","latitude":"48.1744","city":"Epinal, Grand Est","id":13285},{"id":13286,"city":"Epinay-sous-Senart, Île-de-France","longitude":"2.5147","latitude":"48.6948","country":"France"},{"country":"France","longitude":"2.3239","latitude":"48.6726","id":13287,"city":"Epinay-sur-Orge, Île-de-France"},{"latitude":"48.9553","city":"Epinay-sur-Seine, Île-de-France","id":13288,"longitude":"2.3092","country":"France"},{"city":"Epitacio Huerta, Michoacán","latitude":"20.1348","country":"Mexico","longitude":"-100.2934","id":13289},{"longitude":"6.9667","country":"Germany","city":"Eppelborn, Saarland","latitude":"49.3833","id":13290},{"id":13291,"latitude":"49.4000","city":"Eppelheim, Baden-Württemberg","country":"Germany","longitude":"8.6333"},{"country":"United Kingdom","city":"Epping, Essex","latitude":"51.7004","longitude":"0.1087","id":13292},{"id":13293,"longitude":"8.9167","city":"Eppingen, Baden-Württemberg","country":"Germany","latitude":"49.1333"},{"longitude":"8.4000","latitude":"50.1333","country":"Germany","id":13294,"city":"Eppstein, Hesse"},{"city":"Epsom, Surrey","country":"United Kingdom","id":13295,"latitude":"51.3331","longitude":"-0.2686"},{"id":13296,"country":"Iran","longitude":"49.9225","latitude":"36.2306","city":"Eqbaliyeh, Qazvīn"},{"latitude":"30.8928","city":"Eqlid, Fārs","longitude":"52.6889","id":13297,"country":"Iran"},{"country":"Tunisia","longitude":"9.7833","id":13298,"latitude":"34.8667","city":"Er Regueb, Sidi Bouzid"},{"city":"Eraclea, Veneto","latitude":"45.5833","longitude":"12.6833","id":13299,"country":"Italy"},{"latitude":"-25.2833","city":"Erada, Toliara","country":"Madagascar","longitude":"45.9333","id":13300},{"id":13301,"longitude":"2.0922","country":"France","latitude":"49.0181","city":"Eragny, Île-de-France"},{"longitude":"78.0228","city":"Eral, Tamil Nādu","latitude":"8.6258","country":"India","id":13302},{"city":"Eramala, Kerala","longitude":"75.5931","country":"India","latitude":"11.6789","id":13303},{"country":"India","id":13304,"city":"Eranapuram, Tamil Nādu","latitude":"11.5581","longitude":"77.9893"},{"longitude":"-2.9731","latitude":"43.3047","city":"Erandio, Basque Country","country":"Spain","id":13305},{"id":13306,"city":"Eraniel, Tamil Nādu","longitude":"77.3173","latitude":"8.2059","country":"India"},{"longitude":"76.8833","country":"India","id":13307,"city":"Erattukulakkada, Kerala","latitude":"8.9000"},{"country":"India","longitude":"84.4555","city":"Eraura, Bihār","id":13308,"latitude":"24.6130"},{"latitude":"11.5833","country":"India","id":13309,"city":"Eravattur, Kerala","longitude":"75.7333"},{"longitude":"9.2167","id":13310,"country":"Italy","city":"Erba, Lombardy","latitude":"45.8167"},{"country":"Turkey","id":13311,"longitude":"36.5681","latitude":"40.6744","city":"Erbaa, Tokat"},{"country":"Germany","id":13312,"city":"Erbach, Baden-Württemberg","latitude":"48.3281","longitude":"9.8878"},{"city":"Erbach, Hesse","id":13313,"longitude":"8.9958","latitude":"49.6583","country":"Germany"},{"longitude":"93.1153","id":13314,"latitude":"42.9581","city":"Erbaocun, Xinjiang","country":"China"},{"city":"Erbil, Arbīl","longitude":"44.0092","country":"Iraq","latitude":"36.1912","id":13315},{"latitude":"39.0311","city":"Ercis, Van","country":"Turkey","id":13316,"longitude":"43.3597"},{"city":"Ercolano, Campania","id":13317,"latitude":"40.8000","country":"Italy","longitude":"14.3500"},{"city":"Erd, Pest","country":"Hungary","longitude":"18.9220","id":13318,"latitude":"47.3784"},{"country":"Turkey","longitude":"27.7931","id":13319,"latitude":"40.3986","city":"Erdek, Balıkesir"},{"latitude":"36.6056","country":"Turkey","longitude":"34.3111","city":"Erdemli, Mersin","id":13320},{"country":"Mongolia","longitude":"104.0444","id":13321,"latitude":"49.0278","city":"Erdenet, Orhon"},{"id":13322,"country":"Germany","longitude":"11.9000","city":"Erding, Bavaria","latitude":"48.2833"},{"longitude":"-1.8378","latitude":"52.5236","country":"United Kingdom","id":13323,"city":"Erdington, Birmingham"},{"city":"Erdokertes, Pest","latitude":"47.6667","country":"Hungary","longitude":"19.3167","id":13324},{"country":"Brazil","id":13325,"longitude":"-52.2739","latitude":"-27.6339","city":"Erechim, Rio Grande do Sul"},{"longitude":"34.0483","id":13326,"latitude":"37.5128","country":"Turkey","city":"Eregli, Konya"},{"latitude":"41.2792","country":"Turkey","longitude":"31.4208","city":"Eregli, Zonguldak","id":13327},{"longitude":"30.5406","city":"Erenler, Afyonkarahisar","country":"Turkey","id":13328,"latitude":"38.8197"},{"longitude":"41.3833","id":13329,"latitude":"9.5667","city":"Erer Sata, Sumalē","country":"Ethiopia"},{"longitude":"73.1000","city":"Ereymentau, Aqmola","country":"Kazakhstan","latitude":"51.6167","id":13330},{"city":"Erfelek, Sinop","longitude":"34.9167","country":"Turkey","latitude":"41.8833","id":13331},{"city":"Erftstadt, North Rhine-Westphalia","country":"Germany","latitude":"50.8167","longitude":"6.7667","id":13332},{"city":"Erfurt, Thuringia","longitude":"11.0289","id":13333,"country":"Germany","latitude":"50.9781"},{"id":13334,"latitude":"38.2692","longitude":"39.7617","city":"Ergani, Diyarbakır","country":"Turkey"},{"latitude":"48.5833","city":"Ergolding, Bavaria","country":"Germany","longitude":"12.1667","id":13335},{"latitude":"48.6833","country":"Germany","city":"Ergoldsbach, Bavaria","longitude":"12.2000","id":13336},{"id":13337,"longitude":"-4.0208","city":"Ergue-Gaberic, Bretagne","latitude":"47.9969","country":"France"},{"country":"Italy","longitude":"12.5864","id":13338,"city":"Erice, Sicilia","latitude":"38.0369"},{"id":13339,"latitude":"38.9620","country":"Portugal","city":"Ericeira, Lisboa","longitude":"-9.4180"},{"id":13340,"longitude":"-99° 54' 41\"","latitude":" 50° 29' 53\"","country":"Canada","city":"Erickson, Manitoba"},{"latitude":"40.0404","city":"Erie, Colorado","id":13341,"country":"United States","longitude":"-105.0399"},{"longitude":"-80° 04' 56\"","latitude":" 42° 07' 14\"","city":"Erie, Pennsylvania","country":"United States","id":13342},{"latitude":"12.1333","city":"Erikolam, Kerala","country":"India","longitude":"75.2833","id":13343},{"city":"Eriksdale, Manitoba","latitude":" 50° 50' 00\"","longitude":"-98° 10' 00\"","id":13344,"country":"Canada"},{"latitude":"43.7667","longitude":"-80.0667","id":13345,"country":"Canada","city":"Erin, Ontario"},{"id":13346,"country":"United Kingdom","longitude":"0.1778","latitude":"51.4800","city":"Erith, Bexley"},{"country":"India","longitude":"78.0627","id":13347,"latitude":"10.5172","city":"Eriyodu, Tamil Nādu"},{"city":"Erjie, Yunnan","id":13348,"latitude":"24.6997","country":"China","longitude":"102.4872"},{"id":13349,"country":"Germany","latitude":"51.0833","city":"Erkelenz, North Rhine-Westphalia","longitude":"6.3167"},{"latitude":"52.4167","city":"Erkner, Brandenburg","country":"Germany","id":13350,"longitude":"13.7500"},{"longitude":"41.1320","latitude":"37.8870","city":"Erkoklu, Batman","id":13351,"country":"Turkey"},{"longitude":"6.9147","latitude":"51.2239","id":13352,"city":"Erkrath, North Rhine-Westphalia","country":"Germany"},{"city":"Erlangen, Bavaria","country":"Germany","longitude":"11.0167","latitude":"49.5833","id":13353},{"country":"United States","latitude":"39.0109","city":"Erlanger, Kentucky","longitude":"-84.5864","id":13354},{"country":"Germany","longitude":"9.1639","city":"Erlenbach am Main, Bavaria","id":13355,"latitude":"49.8039"},{"longitude":"8.9333","country":"Germany","id":13356,"latitude":"50.1333","city":"Erlensee, Hesse"},{"country":"Taiwan","id":13357,"city":"Erlin, Changhua","longitude":"120.4091","latitude":"23.9229"},{"city":"Erlun, Yunlin","latitude":"23.7910","country":"Taiwan","id":13358,"longitude":"120.3954"},{"country":"Netherlands","latitude":"52.3000","longitude":"5.6167","id":13359,"city":"Ermelo, Gelderland"},{"country":"South Africa","latitude":"-26.5333","longitude":"29.9833","city":"Ermelo, Mpumalanga","id":13360},{"id":13361,"latitude":"36.6389","city":"Ermenek, Karaman","country":"Turkey","longitude":"32.8925"},{"country":"Portugal","city":"Ermezinde, Porto","latitude":"41.2170","longitude":"-8.5500","id":13362},{"country":"Philippines","latitude":"14.5830","longitude":"120.9830","id":13363,"city":"Ermita, Manila"},{"latitude":"48.9922","city":"Ermont, Île-de-France","country":"France","longitude":"2.2603","id":13364},{"id":13365,"latitude":"37.4333","country":"Greece","city":"Ermoupoli, Nótio Aigaío","longitude":"24.9167"},{"longitude":"-2.5008","id":13366,"latitude":"43.1875","country":"Spain","city":"Ermua, Basque Country"},{"id":13367,"city":"Ernagudem, Andhra Pradesh","country":"India","longitude":"81.5061","latitude":"16.9989"},{"id":13368,"country":"India","city":"Erode, Tamil Nādu","latitude":"11.3409","longitude":"77.7171"},{"city":"Erongaricuaro, Michoacán","country":"Mexico","longitude":"-101.7167","id":13369,"latitude":"19.5833"},{"country":"Belgium","latitude":"50.3000","longitude":"4.1167","city":"Erquelinnes, Wallonia","id":13370},{"longitude":"78.1744","latitude":"14.3971","city":"Erraballa, Andhra Pradesh","id":13371,"country":"India"},{"id":13372,"city":"Errachidia, Drâa-Tafilalet","country":"Morocco","latitude":"31.9319","longitude":"-4.4244"},{"city":"Erragondapalem, Andhra Pradesh","country":"India","longitude":"79.3043","id":13373,"latitude":"16.0397"},{"longitude":"78.5333","id":13374,"city":"Erraguntla, Andhra Pradesh","country":"India","latitude":"14.6333"},{"id":13375,"city":"Erraguntla, Andhra Pradesh","longitude":"78.5106","latitude":"15.2821","country":"India"},{"country":"India","latitude":"13.9622","id":13376,"city":"Erraguntlakota, Andhra Pradesh","longitude":"79.2768"},{"country":"India","city":"Errahalli, Tamil Nādu","longitude":"78.2232","id":13377,"latitude":"12.3911"},{"longitude":"80.3861","city":"Erramvaripalem, Andhra Pradesh","latitude":"15.8495","country":"India","id":13378},{"id":13379,"city":"Erravaram, Andhra Pradesh","longitude":"82.8433","latitude":"17.5458","country":"India"},{"city":"Erseke, Korçë","country":"Albania","id":13380,"longitude":"20.6833","latitude":"40.3333"},{"latitude":"23.8167","city":"Ershui, Changhua","country":"Taiwan","longitude":"120.6167","id":13381},{"id":13382,"city":"Erstein, Grand Est","longitude":"7.6600","latitude":"48.4200","country":"France"},{"city":"Ertil, Voronezhskaya Oblast’","country":"Russia","latitude":"51.8500","id":13383,"longitude":"40.8000"},{"country":"Kazakhstan","id":13384,"city":"Ertis, Pavlodar","longitude":"75.4572","latitude":"53.3333"},{"country":"Belgium","id":13385,"latitude":"51.1783","city":"Ertvelde, Flanders","longitude":"3.7447"},{"longitude":"42.1797","id":13386,"latitude":"37.7497","city":"Eruh, Siirt","country":"Turkey"},{"country":"India","longitude":"76.2608","city":"Erumad, Tamil Nādu","id":13387,"latitude":"11.5681"},{"longitude":"77.8500","id":13388,"city":"Erumaippatti, Tamil Nādu","latitude":"11.5800","country":"India"},{"longitude":"78.2900","id":13389,"city":"Erumaippatti, Tamil Nādu","country":"India","latitude":"11.1467"},{"id":13390,"latitude":"9.2833","country":"India","longitude":"76.5500","city":"Erumakkuzhi, Kerala"},{"id":13391,"city":"Erumapalaiyam, Tamil Nādu","latitude":"11.6324","country":"India","longitude":"78.1695"},{"country":"India","city":"Erutukada, Tamil Nādu","id":13392,"latitude":"8.2658","longitude":"77.1358"},{"city":"Eruvatti, Kerala","country":"India","id":13393,"latitude":"12.0500","longitude":"75.5500"},{"country":"India","city":"Ervadi, Tamil Nādu","latitude":"9.2082","id":13394,"longitude":"78.7101"},{"latitude":"-27.1939","country":"Brazil","longitude":"-51.4950","city":"Erval d'Oeste, Santa Catarina","id":13395},{"id":13396,"latitude":"-20.9067","country":"Brazil","city":"Ervalia, Minas Gerais","longitude":"-42.6569"},{"id":13397,"latitude":"51.6167","city":"Erwitte, North Rhine-Westphalia","longitude":"8.3500","country":"Germany"},{"longitude":"36.2033","latitude":"36.9533","id":13398,"country":"Turkey","city":"Erzin, Hatay"},{"country":"Turkey","latitude":"39.7464","longitude":"39.4914","id":13399,"city":"Erzincan, Erzincan"},{"city":"Erzurum, Erzurum","id":13400,"latitude":"39.9086","country":"Turkey","longitude":"41.2769"},{"country":"Algeria","city":"Es Sebt, Skikda","latitude":"36.6624","longitude":"7.0774","id":13401},{"latitude":"35.6500","city":"Es Senia, Oran","country":"Algeria","id":13402,"longitude":"-0.6333"},{"longitude":"78.8314","latitude":"11.3004","city":"Esanai, Tamil Nādu","country":"India","id":13403},{"id":13404,"latitude":"38.0833","city":"Esanboy, Nohiyahoi Tobei Jumhurí","longitude":"68.3833","country":"Tajikistan"},{"country":"Morocco","id":13405,"longitude":"-8.5608","latitude":"32.2044","city":"Esbiaat, Marrakech-Safi"},{"longitude":"8.4500","latitude":"55.4833","country":"Denmark","id":13406,"city":"Esbjerg, Syddanmark"},{"latitude":"-8.3592","longitude":"-35.2236","city":"Escada, Pernambuco","country":"Brazil","id":13407},{"longitude":"123.5000","latitude":"10.8300","city":"Escalante, Negros Occidental","country":"Philippines","id":13408},{"city":"Escaldes-Engordany, Escaldes-Engordany","country":"Andorra","latitude":"42.5089","id":13409,"longitude":"1.5408"},{"country":"United States","longitude":"-87.0900","city":"Escanaba, Michigan","id":13410,"latitude":"45.7477"},{"id":13411,"longitude":"-90.7344","latitude":"18.6067","city":"Escarcega, Campeche","country":"Mexico"},{"latitude":"50.3350","city":"Escaudain, Hauts-de-France","country":"France","id":13412,"longitude":"3.3430"},{"country":"Costa Rica","longitude":"-84.1459","city":"Escazu, San José","id":13413,"latitude":"9.9160"},{"country":"Luxembourg","id":13414,"latitude":"49.4969","city":"Esch-sur-Alzette, Esch-sur-Alzette","longitude":"5.9806"},{"latitude":"50.1436","longitude":"8.5700","city":"Eschborn, Hesse","country":"Germany","id":13415},{"longitude":"9.5167","latitude":"47.2167","city":"Eschen, Eschen","id":13416,"country":"Liechtenstein"},{"latitude":"47.2333","country":"Switzerland","city":"Eschenbach, Sankt Gallen","longitude":"8.9167","id":13417},{"latitude":"51.1881","city":"Eschwege, Hesse","longitude":"10.0528","country":"Germany","id":13418},{"longitude":"6.2833","city":"Eschweiler, North Rhine-Westphalia","id":13419,"latitude":"50.8167","country":"Germany"},{"latitude":" 33° 07' 00\"","id":13420,"country":"United States","city":"Escondido, California","longitude":"-117° 05' 05\""},{"longitude":"-2.3908","city":"Escoublac, Pays de la Loire","latitude":"47.2867","country":"France","id":13421},{"longitude":"-105.7780","city":"Escuinapa, Sinaloa","latitude":"22.8350","id":13422,"country":"Mexico"},{"id":13423,"latitude":"15.3333","city":"Escuintla, Chiapas","country":"Mexico","longitude":"-92.6333"},{"id":13424,"city":"Escuintla, Escuintla","longitude":"-90.7869","country":"Guatemala","latitude":"14.2978"},{"longitude":"-70.7500","country":"Venezuela","id":13425,"city":"Escuque, Trujillo","latitude":"9.2500"},{"longitude":"10.7667","id":13426,"latitude":"3.6500","city":"Eseka, Centre","country":"Cameroon"},{"longitude":"28.8903","id":13427,"country":"Turkey","latitude":"41.0339","city":"Esenler, İstanbul"},{"country":"Turkey","id":13428,"city":"Esenyurt, İstanbul","longitude":"28.6800","latitude":"41.0342"},{"country":"Iran","id":13429,"latitude":"32.6447","city":"Esfahan, Eşfahān","longitude":"51.6675"},{"id":13430,"country":"Iran","latitude":"37.0703","longitude":"57.5089","city":"Esfarayen, Khorāsān-e Shomālī"},{"city":"Esher, Surrey","longitude":"-0.3650","country":"United Kingdom","id":13431,"latitude":"51.3691"},{"longitude":"53.6072","id":13432,"country":"Iran","city":"Eshkanan, Fārs","latitude":"27.2278"},{"country":"South Africa","id":13433,"latitude":"-28.8883","city":"Eshowe, KwaZulu-Natal","longitude":"31.4483"},{"country":"Iran","id":13434,"latitude":"35.7247","city":"Eshtehard, Alborz","longitude":"50.3717"},{"longitude":"77.4667","latitude":"43.3500","city":"Esik, Almaty","country":"Kazakhstan","id":13435},{"id":13436,"country":"Kazakhstan","longitude":"66.4042","latitude":"51.9556","city":"Esil, Aqmola"},{"longitude":"46.7000","id":13437,"latitude":"-24.3333","city":"Esira, Toliara","country":"Madagascar"},{"country":"Uzbekistan","city":"Eski Arab, Farg‘ona","longitude":"71.4231","id":13438,"latitude":"40.3686"},{"longitude":"68.5333","id":13439,"country":"Kazakhstan","latitude":"43.1833","city":"Eski Ikan, Türkistan"},{"country":"Uzbekistan","latitude":"38.9314","city":"Eski Yakkabog`, Qashqadaryo","id":13440,"longitude":"66.8389"},{"city":"Eski-Nookat, Osh","country":"Kyrgyzstan","id":13441,"longitude":"72.6181","latitude":"40.2658"},{"latitude":"59.3708","country":"Sweden","longitude":"16.5097","id":13442,"city":"Eskilstuna, Södermanland"},{"city":"Eskisehir, Eskişehir","latitude":"39.7767","country":"Turkey","id":13443,"longitude":"30.5206"},{"latitude":"34.1103","id":13444,"city":"Eslamabad-e Gharb, Kermānshāh","country":"Iran","longitude":"46.5275"},{"id":13445,"latitude":"35.5317","city":"Eslamshahr, Tehrān","longitude":"51.2247","country":"Iran"},{"latitude":"51.2500","country":"Germany","longitude":"8.1667","id":13446,"city":"Eslohe, North Rhine-Westphalia"},{"longitude":"13.3039","latitude":"55.8392","id":13447,"country":"Sweden","city":"Eslov, Skåne"},{"latitude":"38.4000","id":13448,"longitude":"28.9667","city":"Esme, Uşak","country":"Turkey"},{"city":"Esmeralda, Camagüey","longitude":"-78.1114","latitude":"21.8561","country":"Cuba","id":13449},{"city":"Esmeraldas, Esmeraldas","country":"Ecuador","longitude":"-79.6528","latitude":"0.9667","id":13450},{"longitude":"-44.3139","country":"Brazil","id":13451,"latitude":"-19.7628","city":"Esmeraldas, Minas Gerais"},{"city":"Esmoriz, Aveiro","id":13452,"latitude":"40.9550","country":"Portugal","longitude":"-8.6270"},{"country":"Belgium","longitude":"5.5667","id":13453,"city":"Esneux, Wallonia","latitude":"50.5333"},{"latitude":"41.8425","country":"United States","id":13454,"longitude":"-73.9936","city":"Esopus, New York"},{"country":"United States","longitude":"-106.0686","city":"Espanola, New Mexico","latitude":"36.0044","id":13455},{"latitude":" 46° 15' 30\"","city":"Espanola, Ontario","country":"Canada","longitude":"-81° 46' 00\"","id":13456},{"longitude":"-22.9460","latitude":"16.7560","country":"Cabo Verde","city":"Espargos, Sal","id":13457},{"id":13458,"latitude":"41.5381","city":"Esparraguera, Catalonia","longitude":"1.8692","country":"Spain"},{"longitude":"-6.1167","country":"Spain","city":"Espartinas, Andalusia","latitude":"37.3833","id":13459},{"longitude":"-84.6467","latitude":"9.9959","city":"Esparza, Puntarenas","id":13460,"country":"Costa Rica"},{"id":13461,"city":"Espejo, Región Metropolitana","country":"Chile","longitude":"-70.6917","latitude":"-33.5167"},{"latitude":"52.3772","country":"Germany","longitude":"8.6328","city":"Espelkamp, North Rhine-Westphalia","id":13462},