{"cities":[{"latitude":"32.4467","id":47660,"city":"Ya`bad, ","longitude":"35.1703","country":"West Bank"},{"id":47661,"longitude":"-6.6000","city":"Yabayo, Bas-Sassandra","country":"Côte d’Ivoire","latitude":"5.9500"},{"city":"Yabelo, Oromīya","latitude":"4.8833","country":"Ethiopia","longitude":"38.0833","id":47662},{"longitude":"36.6667","id":47663,"city":"Yabrud, Rīf Dimashq","latitude":"33.9667","country":"Syria"},{"city":"Yabu, Hyōgo","latitude":"35.4000","id":47664,"country":"Japan","longitude":"134.7667"},{"latitude":"37.2013","id":47665,"longitude":"140.3386","city":"Yabuki, Fukushima","country":"Japan"},{"longitude":"140.3167","city":"Yachimata, Chiba","latitude":"35.6667","country":"Japan","id":47666},{"id":47667,"city":"Yachiyo, Chiba","latitude":"35.7224","country":"Japan","longitude":"140.0999"},{"latitude":"36.1816","longitude":"139.8911","city":"Yachiyo, Ibaraki","id":47668,"country":"Japan"},{"country":"Argentina","city":"Yacimiento Rio Turbio, Santa Cruz","latitude":"-51.5333","longitude":"-72.3000","id":47669},{"city":"Yacopi, Cundinamarca","id":47670,"country":"Colombia","latitude":"5.4667","longitude":"-74.3333"},{"country":"Colombia","id":47671,"longitude":"-77.4000","city":"Yacuanquer, Nariño","latitude":"1.1167"},{"latitude":"-22.0153","longitude":"-63.6772","city":"Yacuiba, Tarija","country":"Bolivia","id":47672},{"longitude":"81.4729","latitude":"17.0619","id":47673,"city":"Yadavolu, Andhra Pradesh","country":"India"},{"id":47674,"country":"India","longitude":"77.8800","latitude":"15.0500","city":"Yadiki, Andhra Pradesh"},{"city":"Yadwad, Karnātaka","id":47675,"longitude":"75.1800","latitude":"16.2400","country":"India"},{"longitude":"127.7186","country":"Japan","latitude":"26.1581","id":47676,"city":"Yaese, Okinawa"},{"id":47677,"country":"Libya","city":"Yafran, Al Jabal al Gharbī","latitude":"32.0629","longitude":"12.5267"},{"longitude":"38.6325","latitude":"40.8572","city":"Yaglidere, Giresun","country":"Turkey","id":47678},{"latitude":"10.3428","city":"Yagoua, Extrême-Nord","longitude":"15.2406","id":47679,"country":"Cameroon"},{"latitude":"-2.1200","country":"Ecuador","city":"Yaguachi Nuevo, Guayas","id":47680,"longitude":"-79.6900"},{"city":"Yaguajay, Sancti Spíritus","latitude":"22.3303","longitude":"-79.2369","country":"Cuba","id":47681},{"id":47682,"city":"Yaguara, Huila","latitude":"2.6661","country":"Colombia","longitude":"-75.5186"},{"country":"Paraguay","latitude":"-25.5667","id":47683,"longitude":"-57.2833","city":"Yaguaron, Paraguarí"},{"latitude":"18.3300","country":"Dominican Republic","longitude":"-70.1800","id":47684,"city":"Yaguate, Valdesia"},{"latitude":"39.6060","country":"Japan","longitude":"141.1429","id":47685,"city":"Yahaba, Iwate"},{"city":"Yahotyn, Kyivska Oblast","id":47686,"latitude":"50.2569","longitude":"31.7817","country":"Ukraine"},{"city":"Yahsihan, Kırıkkale","latitude":"39.8503","country":"Turkey","longitude":"33.4536","id":47687},{"longitude":"-102.8860","city":"Yahualica de Gonzalez Gallo, Jalisco","latitude":"21.1781","id":47688,"country":"Mexico"},{"country":"Mexico","latitude":"20.9531","longitude":"-98.3800","id":47689,"city":"Yahualica, Hidalgo"},{"city":"Yahyali, Kayseri","latitude":"38.1000","country":"Turkey","longitude":"35.3608","id":47690},{"city":"Yairipok, Manipur","latitude":"24.6779","longitude":"94.0477","country":"India","id":47691},{"country":"Japan","id":47692,"city":"Yaita, Tochigi","latitude":"36.8067","longitude":"139.9241"},{"latitude":"34.8669","longitude":"138.3247","country":"Japan","id":47693,"city":"Yaizu, Shizuoka"},{"latitude":"17.1833","country":"Mexico","id":47694,"longitude":"-92.3167","city":"Yajalon, Chiapas"},{"longitude":"36.2167","latitude":"36.7500","country":"Turkey","id":47695,"city":"Yakacik, Hatay"},{"id":47696,"longitude":"29.2222","country":"Turkey","city":"Yakacik, İstanbul","latitude":"40.9164"},{"longitude":"133.5872","id":47697,"country":"Japan","city":"Yakage, Okayama","latitude":"34.6275"},{"country":"Turkey","id":47698,"city":"Yakakent, Samsun","latitude":"41.6222","longitude":"35.5314"},{"longitude":"120.7120","country":"China","latitude":"49.2860","city":"Yakeshi, Inner Mongolia","id":47699},{"longitude":"37.4667","city":"Yakhroma, Moskovskaya Oblast’","country":"Russia","latitude":"56.2833","id":47700},{"id":47701,"longitude":"-120° 30' 46\"","latitude":" 46° 35' 41\"","city":"Yakima, Washington","country":"United States"},{"city":"Yakinca, Malatya","latitude":"38.3000","longitude":"38.2500","id":47702,"country":"Turkey"},{"country":"Uzbekistan","city":"Yakkabog`, Qashqadaryo","latitude":"38.9800","id":47703,"longitude":"66.6800"},{"latitude":"12.9667","country":"Burkina Faso","city":"Yako, Nord","longitude":"-2.2667","id":47704},{"country":"Congo (Kinshasa)","latitude":"4.0982","longitude":"22.4432","id":47705,"city":"Yakoma, Nord-Ubangi"},{"country":"Central African Republic","longitude":"23.3167","city":"Yakossi, Mbomou","id":47706,"latitude":"5.6170"},{"city":"Yakou, Henan","latitude":"33.2950","id":47707,"longitude":"113.5269","country":"China"},{"country":"Algeria","id":47708,"city":"Yakouren, Tizi Ouzou","latitude":"36.7333","longitude":"4.4500"},{"longitude":"140.2667","country":"Japan","latitude":"42.2500","city":"Yakumo, Hokkaidō","id":47709},{"country":"Japan","id":47710,"latitude":"30.3900","city":"Yakushima, Kagoshima","longitude":"130.6511"},{"longitude":"-139° 34' 58\"","country":"USA","city":"Yakutat, Alaska","id":47711,"latitude":" 59° 31' 58\""},{"city":"Yakutsk, Sakha (Yakutiya)","longitude":"129.7300","country":"Russia","id":47712,"latitude":"62.0300"},{"latitude":"46.7000","country":"Ukraine","id":47713,"city":"Yakymivka, Zaporizka Oblast","longitude":"35.1667"},{"id":47714,"latitude":"6.5425","longitude":"101.2831","country":"Thailand","city":"Yala, Yala"},{"longitude":"-86.4833","city":"Yalaguina, Madriz","latitude":"13.4833","country":"Nicaragua","id":47715},{"id":47716,"latitude":"15.5103","country":"India","city":"Yalamakuru, Andhra Pradesh","longitude":"77.5249"},{"longitude":"36.3217","country":"Syria","latitude":"33.4628","id":47717,"city":"Yalda, Rīf Dimashq"},{"longitude":"-72° 48' 45\"","city":"Yale Obs., Connecticut","latitude":" 41° 19' 00\"","country":"USA","id":47718},{"id":47719,"latitude":"6.6767","city":"Yali, Antioquia","longitude":"-74.8411","country":"Colombia"},{"city":"Yalluru, Andhra Pradesh","latitude":"15.3063","country":"India","longitude":"78.4559","id":47720},{"city":"Yalova, Yalova","latitude":"40.6556","id":47721,"country":"Turkey","longitude":"29.2750"},{"longitude":"34.1700","id":47722,"city":"Yalta, Krym","country":"Ukraine","latitude":"44.4994"},{"country":"Russia","id":47723,"city":"Yalutorovsk, Tyumenskaya Oblast’","latitude":"56.6500","longitude":"66.2833"},{"latitude":"38.2956","country":"Turkey","city":"Yalvac, Isparta","longitude":"31.1800","id":47724},{"city":"Yamada, Iwate","longitude":"141.9489","id":47725,"latitude":"39.4676","country":"Japan"},{"latitude":"33.0169","country":"Japan","city":"Yamaga, Kumamoto","longitude":"130.6828","id":47726},{"latitude":"35.5061","id":47727,"longitude":"136.7811","city":"Yamagata, Gifu","country":"Japan"},{"longitude":"140.3396","country":"Japan","id":47728,"city":"Yamagata, Yamagata","latitude":"38.2554"},{"latitude":"33.1833","longitude":"129.9500","id":47729,"country":"Japan","city":"Yamaguchi, Saga"},{"country":"Japan","id":47730,"city":"Yamaguchi, Yamaguchi","latitude":"34.1781","longitude":"131.4739"},{"latitude":"35.3500","country":"Japan","id":47731,"city":"Yamakita, Kanagawa","longitude":"139.0667"},{"longitude":"140.8775","city":"Yamamoto, Miyagi","latitude":"37.9624","id":47732,"country":"Japan"},{"id":47733,"country":"Japan","latitude":"35.6934","longitude":"138.6869","city":"Yamanashi, Yamanashi"},{"city":"Yamanobe, Yamagata","latitude":"38.2833","longitude":"140.2667","id":47734,"country":"Japan"},{"country":"Japan","id":47735,"city":"Yamanouchi, Nagano","latitude":"36.7446","longitude":"138.4127"},{"id":47736,"city":"Yamasa, Higuamo","country":"Dominican Republic","latitude":"18.7667","longitude":"-70.0167"},{"city":"Yamato, Kumamoto","longitude":"131.0333","id":47737,"country":"Japan","latitude":"32.6833"},{"city":"Yamatotakada, Nara","country":"Japan","longitude":"135.7333","latitude":"34.5167","id":47738},{"latitude":"-29.4333","city":"Yamba, New South Wales","id":47739,"country":"Australia","longitude":"153.3500"},{"latitude":"4.5650","id":47740,"city":"Yambio, Western Equatoria","country":"South Sudan","longitude":"28.3750"},{"latitude":"42.4833","longitude":"26.5000","city":"Yambol, Yambol","country":"Bulgaria","id":47741},{"city":"Yame, Fukuoka","longitude":"130.5578","id":47742,"latitude":"33.2119","country":"Japan"},{"longitude":"113.0585","city":"Yamen, Guangdong","country":"China","latitude":"22.2999","id":47743},{"id":47744,"country":"India","latitude":"16.1280","longitude":"74.5270","city":"Yamkanmardi, Karnātaka"},{"latitude":"6.8161","country":"Côte d’Ivoire","id":47745,"longitude":"-5.2742","city":"Yamoussoukro, Yamoussoukro"},{"country":"Ukraine","latitude":"48.2400","city":"Yampil, Vinnytska Oblast","longitude":"28.2783","id":47746},{"id":47747,"country":"India","city":"Yamunanagar, Haryāna","latitude":"30.1330","longitude":"77.2880"},{"city":"Yan'an Beilu, Xinjiang","latitude":"44.0144","longitude":"87.2674","id":47748,"country":"China"},{"longitude":"109.4940","country":"China","id":47749,"latitude":"36.6500","city":"Yan'an, Shaanxi"},{"id":47750,"longitude":"130.4058","country":"Japan","city":"Yanagawa, Fukuoka","latitude":"33.1631"},{"longitude":"140.6000","latitude":"37.8500","country":"Japan","city":"Yanagawamachi-saiwaicho, Fukushima","id":47751},{"city":"Yanahuanca, Pasco","country":"Peru","longitude":"-76.5136","latitude":"-10.4914","id":47752},{"country":"Japan","latitude":"33.9639","city":"Yanai, Yamaguchi","id":47753,"longitude":"132.1186"},{"country":"India","id":47754,"city":"Yanam, Andhra Pradesh","longitude":"82.2167","latitude":"16.7333"},{"city":"Yanaul, Bashkortostan","latitude":"56.2833","longitude":"54.9333","country":"Russia","id":47755},{"latitude":"24.0883","longitude":"38.0582","country":"Saudi Arabia","id":47756,"city":"Yanbu, Al Madīnah al Munawwarah"},{"latitude":"22.7544","city":"Yanbu, Pingtung","country":"Taiwan","longitude":"120.5724","id":47757},{"latitude":"33.3482","longitude":"120.1626","country":"China","city":"Yancheng, Jiangsu","id":47758},{"id":47759,"country":"Australia","longitude":"115.6340","city":"Yanchep, Western Australia","latitude":"-31.5500"},{"id":47760,"city":"Yandian, Hubei","latitude":"31.3271","longitude":"113.5800","country":"China"},{"city":"Yandrapalle, Andhra Pradesh","country":"India","longitude":"79.3073","latitude":"16.0472","id":47761},{"id":47762,"latitude":"16.3997","longitude":"103.3678","city":"Yang Talat, Kalasin","country":"Thailand"},{"city":"Yangambi, Tshopo","latitude":"0.7675","country":"Congo (Kinshasa)","id":47763,"longitude":"24.4414"},{"city":"Yangasso, Ségou","id":47764,"latitude":"13.0667","country":"Mali","longitude":"-5.3167"},{"latitude":"22.1704","longitude":"111.7916","id":47765,"city":"Yangchun, Guangdong","country":"China"},{"country":"China","latitude":"23.4338","longitude":"114.4664","id":47766,"city":"Yangcunzai, Guangdong"},{"city":"Yangfang, Hebei","longitude":"115.0301","country":"China","latitude":"40.5723","id":47767},{"longitude":"109.9177","id":47768,"country":"China","latitude":"21.3298","city":"Yanggao, Guangdong"},{"city":"Yanggezhuang, Hebei","latitude":"39.3831","longitude":"118.7119","id":47769,"country":"China"},{"longitude":"127.2167","city":"Yanggok, KOR","country":"Korea","id":47770,"latitude":"37.6333"},{"longitude":"106.2496","id":47771,"city":"Yanghe, Ningxia","latitude":"38.2727","country":"China"},{"longitude":"71.7183","city":"Yangi Marg`ilon, Farg‘ona","latitude":"40.4311","country":"Uzbekistan","id":47772},{"latitude":"38.8514","country":"Uzbekistan","id":47773,"city":"Yangi Mirishkor, Qashqadaryo","longitude":"65.2778"},{"city":"Yangiariq, Xorazm","country":"Uzbekistan","id":47774,"longitude":"60.6075","latitude":"41.3628"},{"latitude":"41.1192","longitude":"70.0942","city":"Yangiobod, Toshkent","country":"Uzbekistan","id":47775},{"id":47776,"country":"Uzbekistan","latitude":"41.1872","longitude":"71.7333","city":"Yangiqo`rg`on, Namangan"},{"latitude":"40.0253","country":"Uzbekistan","longitude":"65.9608","city":"Yangirabot, Navoiy","id":47777},{"longitude":"68.8167","id":47778,"city":"Yangiyer, Sirdaryo","latitude":"40.2667","country":"Uzbekistan"},{"id":47779,"longitude":"69.0467","city":"Yangiyul, Toshkent","latitude":"41.1125","country":"Uzbekistan"},{"country":"China","longitude":"111.9830","city":"Yangjiang, Guangdong","latitude":"21.8570","id":47780},{"latitude":"39.1300","id":47781,"country":"China","city":"Yangliuqing, Tianjin","longitude":"117.0142"},{"id":47782,"latitude":"22.8728","country":"China","longitude":"112.7802","city":"Yangmei, Guangdong"},{"latitude":"24.9167","longitude":"121.1500","id":47783,"country":"Taiwan","city":"Yangmei, Taoyuan"},{"longitude":"100.6614","id":47784,"city":"Yangping, Yunnan","country":"China","latitude":"27.7607"},{"country":"China","longitude":"110.1164","city":"Yangqingcun, Guangdong","latitude":"21.3594","id":47785},{"id":47786,"city":"Yangquan, Shanxi","latitude":"37.8571","country":"China","longitude":"113.5804"},{"country":"China","latitude":"37.0749","city":"Yangquan, Shanxi","longitude":"111.5541","id":47787},{"latitude":"35.3333","country":"Korea","longitude":"129.0333","city":"Yangsan, KOR","id":47788},{"country":"China","latitude":"31.8767","city":"Yangshe, Jiangsu","longitude":"120.5560","id":47789},{"longitude":"118.8791","id":47790,"city":"Yangshuling, Hebei","country":"China","latitude":"40.9942"},{"country":"China","id":47791,"latitude":"34.7647","city":"Yangshuwa, Henan","longitude":"111.7603"},{"country":"China","longitude":"110.0044","latitude":"21.5375","id":47792,"city":"Yangtangxu, Guangdong"},{"city":"Yanguancun, Zhejiang","longitude":"120.5545","latitude":"30.4541","country":"China","id":47793},{"latitude":"33.8614","longitude":"109.8740","country":"China","city":"Yangyuhe, Shaanxi","id":47794},{"latitude":"32.3912","country":"China","longitude":"119.4363","city":"Yangzhou, Jiangsu","id":47795},{"latitude":"36.7522","id":47796,"city":"Yanhewan, Shaanxi","country":"China","longitude":"109.3678"},{"longitude":"129.5000","id":47797,"latitude":"42.9000","city":"Yanji, Jilin","country":"China"},{"city":"Yanjiang, Sichuan","id":47798,"longitude":"104.6270","latitude":"30.1290","country":"China"},{"country":"China","city":"Yankou, Guizhou","longitude":"105.4174","latitude":"27.5950","id":47799},{"country":"United States","longitude":"-97° 23' 24\"","id":47800,"city":"Yankton, South Dakota","latitude":" 42° 52' 30\""},{"latitude":"42.0586","id":47801,"country":"China","city":"Yanqi, Xinjiang","longitude":"86.5683"},{"longitude":"107.1071","latitude":"26.3326","country":"China","id":47802,"city":"Yanshanbu, Guizhou"},{"country":"China","latitude":"36.8252","id":47803,"longitude":"110.2345","city":"Yanshuiguan, Shaanxi"},{"longitude":"121.4478","id":47804,"city":"Yantai, Shandong","latitude":"37.4646","country":"China"},{"country":"Ecuador","longitude":"-78.7500","latitude":"-3.8500","city":"Yantzaza, Zamora-Chinchipe","id":47805},{"id":47806,"country":"Ukraine","longitude":"33.8003","latitude":"45.9675","city":"Yany Kapu, Krym"},{"longitude":"116.3271","country":"China","id":47807,"city":"Yanyan, Guangdong","latitude":"24.4166"},{"latitude":"12.8508","country":"Chad","city":"Yao, Batha","id":47808,"longitude":"17.5608"},{"id":47809,"country":"Japan","latitude":"34.6269","longitude":"135.6010","city":"Yao, Nara"},{"city":"Yaofeng, Shanxi","id":47810,"country":"China","latitude":"35.1395","longitude":"111.2174"},{"city":"Yaojia, Chongqing","longitude":"109.1831","country":"China","id":47811,"latitude":"28.4547"},{"city":"Yaojiafen, Hebei","country":"China","id":47812,"longitude":"115.0586","latitude":"40.6669"},{"country":"China","id":47813,"city":"Yaojiazhuangcun, Hebei","latitude":"40.7158","longitude":"114.8733"},{"city":"Yaopu, Guizhou","country":"China","latitude":"26.1700","longitude":"105.8489","id":47814},{"city":"Yaoquan, Gansu","country":"China","longitude":"105.7262","id":47815,"latitude":"34.5851"},{"latitude":"35.4760","city":"Yaotsu, Gifu","country":"Japan","longitude":"137.1416","id":47816},{"city":"Yaounde, Centre","country":"Cameroon","latitude":"3.8667","id":47817,"longitude":"11.5167"},{"city":"Yaozhuangcun, Zhejiang","id":47818,"latitude":"30.9113","country":"China","longitude":"120.9573"},{"country":"Bolivia","city":"Yapacani, Santa Cruz","longitude":"-63.8850","id":47819,"latitude":"-17.4028"},{"longitude":"76.1749","country":"China","id":47820,"city":"Yapqan, Xinjiang","latitude":"39.2029"},{"city":"Yaprakli, Çankırı","country":"Turkey","id":47821,"longitude":"33.7789","latitude":"40.7572"},{"id":47822,"city":"Yara, Granma","longitude":"-76.9469","country":"Cuba","latitude":"20.2767"},{"city":"Yaragol, Karnātaka","id":47823,"longitude":"77.0661","latitude":"16.9047","country":"India"},{"longitude":"144.0780","id":47824,"latitude":"-24.8819","city":"Yaraka, Queensland","country":"Australia"},{"longitude":"47.9000","latitude":"57.3167","id":47825,"city":"Yaransk, Kirovskaya Oblast’","country":"Russia"},{"id":47826,"longitude":"48.2372","city":"Yardimli, Yardımlı","latitude":"38.9206","country":"Azerbaijan"},{"latitude":" 40° 12' 39\"","country":"USA","longitude":"-74° 46' 33\"","city":"Yardley, Pennsylvania","id":47827},{"city":"Yaren, Yaren","country":"Nauru","latitude":"-0.5477","longitude":"166.9209","id":47828},{"latitude":"15.9667","city":"Yargatti, Karnātaka","longitude":"75.0167","id":47829,"country":"India"},{"country":"Yemen","latitude":"14.2972","longitude":"44.3803","city":"Yarim, Ibb","id":47830},{"latitude":"10.0753","city":"Yaritagua, Yaracuy","longitude":"-69.1283","id":47831,"country":"Venezuela"},{"country":"United Kingdom","city":"Yarm, Stockton-on-Tees","longitude":"-1.3500","id":47832,"latitude":"54.5000"},{"latitude":"43.7978","country":"United States","longitude":"-70.1719","city":"Yarmouth, Maine","id":47833},{"country":"United States","city":"Yarmouth, Massachusetts","longitude":"-70.2242","id":47834,"latitude":"41.6756"},{"latitude":" 43° 50' 00\"","country":"Canada","longitude":"-66° 07' 00\"","id":47835,"city":"Yarmouth, Nova Scotia"},{"longitude":"39.8500","id":47836,"country":"Russia","city":"Yaroslavl, Yaroslavskaya Oblast’","latitude":"57.6167"},{"city":"Yartsevo, Smolenskaya Oblast’","longitude":"32.7000","id":47837,"latitude":"55.0667","country":"Russia"},{"country":"Colombia","longitude":"-75.5000","latitude":"7.0000","id":47838,"city":"Yarumal, Antioquia"},{"latitude":"7.0306","longitude":"-75.5905","id":47839,"city":"Yarumal, Antioquia","country":"Colombia"},{"country":"Ukraine","longitude":"39.2175","id":47840,"latitude":"48.1606","city":"Yasenivskyi, Luhanska Oblast"},{"id":47841,"city":"Yashan, Guangdong","latitude":"22.4776","country":"China","longitude":"112.7289"},{"city":"Yashio, Saitama","longitude":"139.8392","latitude":"35.8225","id":47842,"country":"Japan"},{"id":47843,"latitude":"19.6333","country":"Dominican Republic","longitude":"-70.6000","city":"Yasica Arriba, Cibao Norte"},{"city":"Yasinia, Zakarpatska Oblast","latitude":"48.2728","id":47844,"country":"Ukraine","longitude":"24.3747"},{"city":"Yasnogorsk, Tul’skaya Oblast’","country":"Russia","latitude":"54.5000","id":47845,"longitude":"37.6667"},{"longitude":"59.9667","city":"Yasnyy, Orenburgskaya Oblast’","id":47846,"latitude":"51.0500","country":"Russia"},{"country":"Thailand","longitude":"104.1431","id":47847,"latitude":"15.7972","city":"Yasothon, Yasothon"},{"longitude":"136.0333","city":"Yasu, Shiga","latitude":"35.0667","country":"Japan","id":47848},{"longitude":"133.2508","country":"Japan","id":47849,"latitude":"35.4314","city":"Yasugicho, Shimane"},{"city":"Yasuj, Kohgīlūyeh va Bowyer Aḩmad","country":"Iran","latitude":"30.6672","longitude":"51.5797","id":47850},{"latitude":"48.1278","longitude":"37.8625","city":"Yasynuvata, Donetska Oblast","country":"Ukraine","id":47851},{"longitude":"28.1394","latitude":"37.3425","city":"Yatagan, Muğla","country":"Turkey","id":47852},{"country":"China","id":47853,"longitude":"110.0319","latitude":"21.6172","city":"Yatangcun, Guangdong"},{"city":"Yate, South Gloucestershire","longitude":"-2.4110","latitude":"51.5402","country":"United Kingdom","id":47854},{"longitude":"139.4500","id":47855,"latitude":"35.4833","city":"Yato, Kanagawa","country":"Japan"},{"country":"Japan","city":"Yatomi, Aichi","latitude":"35.1167","id":47856,"longitude":"136.7167"},{"city":"Yatou, Shandong","latitude":"37.1653","id":47857,"longitude":"122.4867","country":"China"},{"city":"Yattir, ","country":"West Bank","longitude":"35.0900","id":47858,"latitude":"31.4478"},{"longitude":"-2.8256","id":47859,"latitude":"51.3855","city":"Yatton, North Somerset","country":"United Kingdom"},{"latitude":"18.0344","city":"Yauco, Puerto Rico","country":"Puerto Rico","longitude":"-66.8615","id":47860},{"id":47861,"latitude":"-2.8379","city":"Yaupi, Morona-Santiago","country":"Ecuador","longitude":"-77.9357"},{"city":"Yavatmal, Mahārāshtra","country":"India","id":47862,"longitude":"78.0600","latitude":"20.2400"},{"id":47863,"city":"Yavoriv, Lvivska Oblast","country":"Ukraine","latitude":"49.9469","longitude":"23.3931"},{"country":"Turkey","city":"Yavuzeli, Gaziantep","latitude":"37.3192","id":47864,"longitude":"37.5686"},{"city":"Yawata-shimizui, Kyōto","id":47865,"country":"Japan","longitude":"135.7075","latitude":"34.8756"},{"city":"Yawatahama-shi, Ehime","country":"Japan","latitude":"33.4667","longitude":"132.4167","id":47866},{"id":47867,"longitude":"-0.2600","country":"United Kingdom","latitude":"52.5200","city":"Yaxley, Cambridgeshire"},{"city":"Yayas de Viajama, Valdesia","latitude":"18.6000","country":"Dominican Republic","longitude":"-70.9200","id":47868},{"longitude":"36.0606","country":"Turkey","latitude":"35.9025","city":"Yayladagi, Hatay","id":47869},{"id":47870,"city":"Yaypan, Farg‘ona","country":"Uzbekistan","longitude":"70.8156","latitude":"40.3758"},{"city":"Yazd, Yazd","latitude":"31.8822","longitude":"54.3397","id":47871,"country":"Iran"},{"id":47872,"country":"Turkey","city":"Yazihan, Malatya","latitude":"38.5969","longitude":"38.1878"},{"country":"Turkey","longitude":"39.3000","latitude":"38.6167","city":"Yazikonak, Elazığ","id":47873},{"city":"Yazoo City, Mississippi","country":"United States","id":47874,"latitude":"32.8619","longitude":"-90.4075"},{"longitude":"134.2500","latitude":"35.4000","id":47875,"city":"Yazu, Tottori","country":"Japan"},{"city":"Yby Yau, Concepción","latitude":"-22.9631","longitude":"-56.5358","id":47876,"country":"Paraguay"},{"id":47877,"latitude":"15.2467","country":"Burma","longitude":"97.8556","city":"Ye, Mon State"},{"id":47878,"longitude":"-1.6880","country":"United Kingdom","city":"Yeadon, Leeds","latitude":"53.8690"},{"longitude":"-75.2527","city":"Yeadon, Pennsylvania","latitude":"39.9325","country":"United States","id":47879},{"longitude":"-98.8650","id":47880,"city":"Yecapixtla, Morelos","latitude":"18.8833","country":"Mexico"},{"city":"Yecla, Murcia","latitude":"38.6136","longitude":"-1.1147","id":47881,"country":"Spain"},{"id":47882,"latitude":"19.8667","city":"Yecuatla, Veracruz","longitude":"-96.7833","country":"Mexico"},{"city":"Yecun, Shaanxi","longitude":"110.1305","id":47883,"country":"China","latitude":"33.7663"},{"city":"Yedapalli, Telangāna","longitude":"77.9505","latitude":"18.6789","id":47884,"country":"India"},{"longitude":"76.8108","latitude":"11.3792","country":"India","id":47885,"city":"Yedappalli, Tamil Nādu"},{"country":"India","id":47886,"longitude":"78.1242","city":"Yeddumailaram, Telangāna","latitude":"17.5011"},{"city":"Yedtare, Karnātaka","latitude":"13.9246","country":"India","longitude":"74.6171","id":47887},{"city":"Yefremov, Tul’skaya Oblast’","longitude":"38.1167","latitude":"53.1500","id":47888,"country":"Russia"},{"city":"Yegainnyin, Qinghai","country":"China","latitude":"34.7356","longitude":"101.5978","id":47889},{"id":47890,"latitude":"39.7611","country":"Armenia","city":"Yeghegnadzor, Vayots’ Dzor","longitude":"45.3333"},{"longitude":"44.4814","id":47891,"country":"Armenia","latitude":"40.3217","city":"Yeghvard, Kotayk’"},{"longitude":"39.0500","id":47892,"country":"Russia","latitude":"55.3833","city":"Yegoryevsk, Moskovskaya Oblast’"},{"longitude":"34.8833","id":47893,"latitude":"32.0333","city":"Yehud, Central","country":"Israel"},{"city":"Yei, Central Equatoria","id":47894,"latitude":"4.0904","longitude":"30.6800","country":"South Sudan"},{"id":47895,"country":"China","city":"Yejituo, Hebei","longitude":"118.6645","latitude":"39.8634"},{"id":47896,"city":"Yekambarakuppam, Andhra Pradesh","latitude":"13.3168","longitude":"79.5678","country":"India"},{"city":"Yekaterinburg, Sverdlovskaya Oblast’","latitude":"56.8356","id":47897,"country":"Russia","longitude":"60.6128"},{"latitude":"55.7667","id":47898,"city":"Yelabuga, Tatarstan","longitude":"52.0833","country":"Russia"},{"country":"India","longitude":"77.5963","city":"Yelahanka, Karnātaka","id":47899,"latitude":"13.1007"},{"id":47900,"city":"Yelandur, Karnātaka","latitude":"12.0700","longitude":"77.0300","country":"India"},{"id":47901,"city":"Yeldurti, Telangāna","latitude":"17.9074","country":"India","longitude":"78.3721"},{"latitude":"52.6167","longitude":"38.4667","id":47902,"country":"Russia","city":"Yelets, Lipetskaya Oblast’"},{"country":"Mali","city":"Yelimane, Kayes","latitude":"15.1180","longitude":"-10.5720","id":47903},{"longitude":"158.3833","id":47904,"city":"Yelizovo, Kamchatskiy Kray","latitude":"53.1833","country":"Russia"},{"latitude":"17.7929","longitude":"79.5912","id":47905,"city":"Yellanda, Telangāna","country":"India"},{"country":"India","longitude":"80.3300","city":"Yellandu, Telangāna","id":47906,"latitude":"17.6000"},{"id":47907,"latitude":"14.9637","longitude":"74.7093","city":"Yellapur, Karnātaka","country":"India"},{"city":"Yellareddi, Telangāna","longitude":"78.0212","country":"India","id":47908,"latitude":"18.1859"},{"latitude":"18.3746","longitude":"78.6543","id":47909,"city":"Yellareddi, Telangāna","country":"India"},{"longitude":"79.9515","latitude":"14.5378","country":"India","city":"Yellayapalem, Andhra Pradesh","id":47910},{"longitude":"-114° 25' 12\"","country":"Canada","id":47911,"latitude":" 62° 28' 47\"","city":"Yellowknife, Northwest Territories"},{"city":"Yelm, Washington","longitude":"-122.6262","latitude":"46.9398","country":"United States","id":47912},{"id":47913,"country":"India","longitude":"78.1609","latitude":"18.8241","city":"Yelmalla, Telangāna"},{"latitude":"54.5833","country":"Russia","city":"Yelnya, Smolenskaya Oblast’","longitude":"33.1833","id":47914},{"latitude":"18.7651","country":"India","id":47915,"longitude":"78.3953","city":"Yelpur, Telangāna"},{"longitude":"29.1500","latitude":"51.8167","city":"Yelsk, Homyel’skaya Voblasts’","country":"Belarus","id":47916},{"latitude":"15.7817","country":"India","city":"Yelur, Karnātaka","longitude":"74.5178","id":47917},{"longitude":"61.3333","country":"Russia","city":"Yemanzhelinsk, Chelyabinskaya Oblast’","latitude":"54.7667","id":47918},{"latitude":"62.6000","longitude":"50.8667","id":47919,"country":"Russia","city":"Yemva, Komi"},{"country":"Vietnam","id":47920,"city":"Yen Bai, Yên Bái","latitude":"21.7000","longitude":"104.8667"},{"latitude":"4.9267","city":"Yenagoa, Bayelsa","country":"Nigeria","longitude":"6.2676","id":47921},{"id":47922,"latitude":"48.2167","country":"Ukraine","longitude":"38.2000","city":"Yenakiieve, Donetska Oblast"},{"country":"Burma","longitude":"94.8742","latitude":"20.4597","id":47923,"city":"Yenangyaung, Magway"},{"city":"Yendi, Northern","country":"Ghana","longitude":"-0.0043","id":47924,"latitude":"9.4324"},{"country":"Sierra Leone","longitude":"-11.1667","id":47925,"latitude":"8.6167","city":"Yengema, Eastern"},{"country":"Azerbaijan","latitude":"40.4311","longitude":"50.0361","city":"Yeni Suraxani, Bakı","id":47926},{"country":"Turkey","city":"Yenice, Bursa","latitude":"40.0883","longitude":"29.4211","id":47927},{"city":"Yenice, Karabük","latitude":"41.2000","country":"Turkey","id":47928,"longitude":"32.3292"},{"city":"Yenice, Çanakkale","id":47929,"longitude":"27.2581","latitude":"39.9308","country":"Turkey"},{"longitude":"27.8500","country":"Turkey","city":"Yeniciftlik, Tekirdağ","id":47930,"latitude":"41.0167"},{"id":47931,"city":"Yenimahalle, Ankara","country":"Turkey","latitude":"39.9719","longitude":"32.8119"},{"country":"Turkey","latitude":"37.8269","city":"Yenipazar, Aydın","id":47932,"longitude":"28.1975"},{"latitude":"40.2644","longitude":"29.6531","country":"Turkey","id":47933,"city":"Yenisehir, Bursa"},{"city":"Yenisehir, Diyarbakır","latitude":"37.9333","longitude":"40.2333","country":"Turkey","id":47934},{"latitude":"58.4667","id":47935,"city":"Yeniseysk, Krasnoyarskiy Kray","country":"Russia","longitude":"92.1333"},{"longitude":"81.1598","country":"India","city":"Yenkuvarigudem, Andhra Pradesh","latitude":"17.2055","id":47936},{"city":"Yenmangandla, Telangāna","latitude":"16.8839","longitude":"78.0332","country":"India","id":47937},{"city":"Yeola, Mahārāshtra","country":"India","latitude":"20.0420","longitude":"74.4890","id":47938},{"city":"Yeonil, KOR","country":"Korea","latitude":"36.0000","longitude":"129.3500","id":47939},{"country":"Korea","id":47940,"city":"Yeosu, KOR","latitude":"34.7333","longitude":"127.7333"},{"city":"Yeosu, KOR","country":"Korea","longitude":"127.6622","id":47941,"latitude":"34.7607"},{"latitude":"50.9452","country":"United Kingdom","longitude":"-2.6370","id":47942,"city":"Yeovil, Somerset"},{"country":"Guatemala","latitude":"14.5000","id":47943,"city":"Yepocapa, Chimaltenango","longitude":"-90.9500"},{"country":"Australia","latitude":"-23.1288","longitude":"150.7444","id":47944,"city":"Yeppoon, Queensland"},{"city":"Yerba Buena, Tucumán","latitude":"-26.8167","country":"Argentina","longitude":"-65.3167","id":47945},{"country":"Chile","longitude":"-71.5667","id":47946,"city":"Yerbas Buenas, Maule","latitude":"-35.7500"},{"country":"India","latitude":"11.7794","city":"Yercaud, Tamil Nādu","id":47947,"longitude":"78.2034"},{"id":47948,"country":"Russia","city":"Yerema, Irkutskaya Oblast’","latitude":"60.3808","longitude":"107.7794"},{"id":47949,"city":"Yerere, Kayes","longitude":"-9.4270","latitude":"15.2590","country":"Mali"},{"city":"Yerevan, Yerevan","country":"Armenia","longitude":"44.5144","id":47950,"latitude":"40.1814"},{"country":"USA","city":"Yerkes Obs., Wisconsin","latitude":" 42° 34' 02\"","longitude":"-88° 33' 29\"","id":47951},{"city":"Yerkoy, Yozgat","latitude":"39.6381","longitude":"34.4672","id":47952,"country":"Turkey"},{"latitude":"13.1675","longitude":"74.7619","country":"India","id":47953,"city":"Yermal, Karnātaka"},{"id":47954,"country":"Russia","longitude":"36.6000","latitude":"55.2000","city":"Yermolino, Kaluzhskaya Oblast’"},{"id":47955,"latitude":"16.1500","longitude":"80.0300","country":"India","city":"Yerrapalem, Andhra Pradesh"},{"city":"Yerres, Île-de-France","longitude":"2.4881","latitude":"48.7171","id":47956,"country":"France"},{"city":"Yershov, Saratovskaya Oblast’","latitude":"51.3500","longitude":"48.2667","id":47957,"country":"Russia"},{"longitude":"95.2414","city":"Yesagyo, Magway","country":"Burma","id":47958,"latitude":"21.6333"},{"city":"Yesilhisar, Kayseri","id":47959,"longitude":"35.0867","latitude":"38.3500","country":"Turkey"},{"latitude":"36.8667","country":"Turkey","longitude":"36.2000","city":"Yesilkoy, Hatay","id":47960},{"country":"Turkey","city":"Yesilli, Mardin","latitude":"37.3406","longitude":"40.8258","id":47961},{"latitude":"37.5069","longitude":"29.7533","city":"Yesilova, Burdur","id":47962,"country":"Turkey"},{"country":"Turkey","city":"Yesilyurt, Malatya","latitude":"38.2961","id":47963,"longitude":"38.2489"},{"id":47964,"country":"Turkey","longitude":"36.2200","city":"Yesilyurt, Tokat","latitude":"40.0000"},{"country":"Russia","latitude":"44.0333","city":"Yessentuki, Stavropol’skiy Kray","longitude":"42.8500","id":47965},{"latitude":"68.4652","id":47966,"country":"Russia","longitude":"102.1887","city":"Yessey, Krasnoyarskiy Kray"},{"latitude":"40.6172","longitude":"47.1500","id":47967,"city":"Yevlax, Yevlax","country":"Azerbaijan"},{"latitude":"45.1939","country":"Ukraine","longitude":"33.3681","id":47968,"city":"Yevpatoriia, Krym"},{"country":"Russia","id":47969,"city":"Yeysk, Krasnodarskiy Kray","longitude":"38.2733","latitude":"46.7111"},{"city":"Yezhi, Yunnan","country":"China","id":47970,"latitude":"27.7035","longitude":"99.0458"},{"country":"Paraguay","id":47971,"city":"Yhu, Caaguazú","longitude":"-55.9300","latitude":"-25.0600"},{"longitude":"115.4954","city":"Yi Xian, Hebei","country":"China","id":47972,"latitude":"39.3444"},{"city":"Yian, Heilongjiang","latitude":"47.8804","country":"China","id":47973,"longitude":"125.3000"},{"country":"China","id":47974,"city":"Yibin, Sichuan","longitude":"104.6430","latitude":"28.7520"},{"city":"Yicheng, Hubei","latitude":"31.7210","id":47975,"country":"China","longitude":"112.2570"},{"city":"Yicheng, Jiangsu","latitude":"31.3600","longitude":"119.8150","id":47976,"country":"China"},{"id":47977,"country":"China","longitude":"128.8410","latitude":"47.7280","city":"Yichun, Heilongjiang"},{"country":"China","latitude":"27.8160","id":47978,"longitude":"114.4170","city":"Yichun, Jiangxi"},{"id":47979,"country":"China","longitude":"111.4500","city":"Yidu, Hubei","latitude":"30.3780"},{"longitude":"-0.4710","city":"Yiewsley, Hillingdon","latitude":"51.5130","country":"United Kingdom","id":47980},{"country":"Turkey","latitude":"40.9667","longitude":"31.4500","id":47981,"city":"Yigilca, Düzce"},{"city":"Yihezhuang, Hebei","longitude":"116.0744","id":47982,"latitude":"39.1373","country":"China"},{"longitude":"121.7500","city":"Yilan, Yilan","latitude":"24.7500","id":47983,"country":"Taiwan"},{"id":47984,"city":"Yildirim, Bursa","latitude":"40.1100","longitude":"29.0821","country":"Turkey"},{"city":"Yildiz, Bartın","country":"Turkey","longitude":"32.3375","id":47985,"latitude":"41.6344"},{"latitude":"39.8642","country":"Turkey","longitude":"36.5983","city":"Yildizeli, Sivas","id":47986},{"country":"China","latitude":"23.7081","city":"Yilong, Yunnan","longitude":"102.4960","id":47987},{"country":"China","longitude":"111.8750","latitude":"34.7469","city":"Yima, Henan","id":47988},{"latitude":"26.8239","country":"China","city":"Yinajia, Guizhou","id":47989,"longitude":"105.6950"},{"country":"China","city":"Yinchengpu, Hebei","longitude":"118.1880","id":47990,"latitude":"39.8189"},{"city":"Yinchuan, Ningxia","longitude":"106.2250","latitude":"38.4850","id":47991,"country":"China"},{"latitude":"24.2100","city":"Yingcheng, Guangdong","country":"China","longitude":"113.4010","id":47992},{"longitude":"113.4733","city":"Yingchuan, Henan","latitude":"34.1511","country":"China","id":47993},{"city":"Yinggen, Hainan","longitude":"109.8283","latitude":"19.0372","country":"China","id":47994},{"city":"Yingkou, Liaoning","country":"China","longitude":"122.2190","latitude":"40.6250","id":47995},{"longitude":"97.4395","city":"Yingmen, Gansu","country":"China","latitude":"39.9487","id":47996},{"latitude":"40.5451","country":"China","city":"Yingshouyingzi, Hebei","longitude":"117.6560","id":47997},{"city":"Yingtan, Jiangxi","latitude":"28.2721","country":"China","longitude":"117.0395","id":47998},{"country":"China","id":47999,"city":"Yingyangcun, Guangxi","longitude":"106.7567","latitude":"22.0974"},{"id":48000,"latitude":"32.2370","city":"Yingzhong, Jiangsu","country":"China","longitude":"119.8150"},{"latitude":"18.4199","longitude":"109.8553","id":48001,"city":"Yingzhou Linchang, Hainan","country":"China"},{"city":"Yinhua, Shaanxi","longitude":"110.2601","country":"China","latitude":"33.4530","id":48002},{"latitude":"37.9410","country":"China","city":"Yinying, Shanxi","id":48003,"longitude":"113.5602"},{"country":"Ethiopia","longitude":"38.4167","id":48004,"city":"Yirga `Alem, YeDebub Bihēroch Bihēreseboch na Hizboch","latitude":"6.7500"},{"longitude":"30.5100","city":"Yirol, Lakes","country":"South Sudan","latitude":"6.5600","id":48005},{"country":"China","city":"Yishi, Shanxi","latitude":"35.1379","longitude":"110.7640","id":48006},{"longitude":"118.6200","id":48007,"city":"Yishui, Shandong","latitude":"35.7904","country":"China"},{"country":"China","latitude":"27.7736","longitude":"112.9558","id":48008,"city":"Yisuhe, Hunan"},{"city":"Yitiaoshan, Gansu","latitude":"37.1889","country":"China","longitude":"104.0571","id":48009},{"country":"China","longitude":"120.0753","city":"Yiwu, Zhejiang","id":48010,"latitude":"29.3069"},{"longitude":"112.3560","latitude":"28.5549","city":"Yiyang, Hunan","country":"China","id":48011},{"latitude":"26.4221","longitude":"112.3999","id":48012,"city":"Yiyang, Hunan","country":"China"},{"city":"Yizhu, Chiayi","longitude":"120.2235","id":48013,"country":"Taiwan","latitude":"23.3565"},{"id":48014,"longitude":"24.5333","city":"Ylivieska, Pohjois-Pohjanmaa","country":"Finland","latitude":"64.0750"},{"city":"Ylojarvi, Pirkanmaa","id":48015,"latitude":"61.5500","country":"Finland","longitude":"23.5833"},{"city":"Ymittos, Attikí","id":48016,"longitude":"23.7333","latitude":"37.9500","country":"Greece"},{"latitude":"11.5167","longitude":"42.1000","id":48017,"city":"Yoboki, Dikhil","country":"Djibouti"},{"latitude":"-7.8014","id":48018,"country":"Indonesia","city":"Yogyakarta, Yogyakarta","longitude":"110.3644"},{"id":48019,"country":"Japan","longitude":"140.7833","latitude":"43.2000","city":"Yoichi, Hokkaidō"},{"longitude":"127.6333","city":"Yoju, KOR","latitude":"37.3000","id":48020,"country":"Korea"},{"id":48021,"longitude":"15.0500","city":"Yokadouma, Est","country":"Cameroon","latitude":"3.5167"},{"city":"Yokaichiba, Chiba","longitude":"140.5604","id":48022,"latitude":"35.7000","country":"Japan"},{"country":"Japan","city":"Yokkaichi, Mie","latitude":"34.9650","longitude":"136.6244","id":48023},{"country":"Cameroon","longitude":"12.3158","latitude":"5.5924","id":48024,"city":"Yoko, Centre"},{"latitude":"6.7000","country":"Benin","city":"Yoko, Plateau","longitude":"2.6167","id":48025},{"longitude":"139.6381","id":48026,"latitude":"35.4442","country":"Japan","city":"Yokohama, Kanagawa"},{"city":"Yokoshiba, Chiba","country":"Japan","id":48027,"longitude":"140.4833","latitude":"35.6500"},{"id":48028,"latitude":"35.6667","country":"Japan","city":"Yokoshibahikari, Chiba","longitude":"140.5000"},{"city":"Yokosuka, Kanagawa","latitude":"35.2813","id":48029,"longitude":"139.6721","country":"Japan"},{"longitude":"140.5533","city":"Yokotemachi, Akita","country":"Japan","id":48030,"latitude":"39.3113"},{"country":"Nigeria","latitude":"9.2300","id":48031,"city":"Yola, Adamawa","longitude":"12.4600"},{"longitude":"-75.0122","city":"Yolombo, Antioquia","id":48032,"latitude":"6.5978","country":"Colombia"},{"id":48033,"longitude":"62.3500","country":"Turkmenistan","city":"Yoloten, Mary","latitude":"37.3000"},{"id":48034,"city":"Yomitan, Okinawa","latitude":"26.3961","country":"Japan","longitude":"127.7444"},{"latitude":"7.5660","id":48035,"country":"Guinea","city":"Yomou, N’Zérékoré","longitude":"-9.2533"},{"id":48036,"latitude":"40.9589","city":"Yomra, Trabzon","country":"Turkey","longitude":"39.8469"},{"id":48037,"country":"Japan","latitude":"26.1994","city":"Yonabaru, Okinawa","longitude":"127.7547"},{"id":48038,"country":"Japan","city":"Yonago, Tottori","latitude":"35.4333","longitude":"133.3333"},{"country":"Colombia","longitude":"-73.9167","latitude":"7.0000","city":"Yondo, Antioquia","id":48039},{"latitude":"37.9222","id":48040,"city":"Yonezawa, Yamagata","country":"Japan","longitude":"140.1168"},{"city":"Yong'an, Chongqing","latitude":"31.0206","country":"China","longitude":"109.4587","id":48041},{"country":"China","city":"Yong'an, Fujian","longitude":"117.3650","latitude":"25.9420","id":48042},{"country":"China","city":"Yong'ancun, Guangdong","longitude":"112.6904","latitude":"23.1788","id":48043},{"country":"China","longitude":"100.7463","latitude":"26.6897","city":"Yongbei, Yunnan","id":48044},{"id":48045,"latitude":"33.9299","longitude":"116.4500","city":"Yongcheng, Henan","country":"China"},{"latitude":"26.0451","country":"China","city":"Yongcong, Guizhou","id":48046,"longitude":"109.1327"},{"id":48047,"latitude":"39.9131","city":"Yonghetun, Beijing","country":"China","longitude":"116.6458"},{"longitude":"110.4480","city":"Yongji, Shanxi","latitude":"34.8670","id":48048,"country":"China"},{"city":"Yongjing, Changhua","latitude":"23.9223","country":"Taiwan","longitude":"120.5356","id":48049},{"country":"Korea","city":"Yongju, KOR","latitude":"36.8058","longitude":"128.6239","id":48050},{"latitude":"37.0103","longitude":"109.8243","id":48051,"country":"China","city":"Yongping, Shaanxi"},{"id":48052,"longitude":"106.1312","city":"Yongqing, Gansu","country":"China","latitude":"34.7522"},{"longitude":"116.4897","country":"China","id":48053,"latitude":"39.2958","city":"Yongqing, Hebei"},{"country":"China","longitude":"106.7332","latitude":"27.1017","id":48054,"city":"Yongyang, Guizhou"},{"city":"Yongzhou, Hunan","country":"China","longitude":"111.6130","id":48055,"latitude":"26.4200"},{"longitude":"-73° 53' 53\"","country":"United States","city":"Yonkers, New York","latitude":" 40° 55' 54\"","id":48056},{"city":"Yopal, Casanare","country":"Colombia","id":48057,"longitude":"-72.4100","latitude":"5.3500"},{"country":"Côte d’Ivoire","id":48058,"longitude":"-4.0667","city":"Yopougon, Abidjan","latitude":"5.3167"},{"id":48059,"longitude":"35.1100","city":"Yoqne`am `Illit, Northern","country":"Israel","latitude":"32.6594"},{"longitude":"-117.7714","id":48060,"city":"Yorba Linda, California","latitude":"33.8890","country":"United States"},{"latitude":"36.1183","longitude":"139.1930","id":48061,"country":"Japan","city":"Yorii, Saitama"},{"city":"Yorito, Yoro","latitude":"15.0600","longitude":"-87.2900","id":48062,"country":"Honduras"},{"latitude":"43.1860","country":"United States","longitude":"-70.6660","id":48063,"city":"York, Maine"},{"longitude":"-76° 43' 36\"","city":"York, Pennsylvania","latitude":" 39° 57' 34\"","country":"United States","id":48064},{"country":"United States","latitude":"34.9967","longitude":"-81.2341","city":"York, South Carolina","id":48065},{"country":"United Kingdom","longitude":"-1.0800","city":"York, York","id":48066,"latitude":"53.9600"},{"city":"Yorkshire, Virginia","latitude":"38.7882","longitude":"-77.4496","id":48067,"country":"United States"},{"longitude":"-102° 28' 00\"","latitude":" 51° 13' 00\"","city":"Yorkton, Saskatchewan","id":48068,"country":"Canada"},{"country":"USA","id":48069,"city":"Yorktown Heights, New York","latitude":" 41° 19' 59\"","longitude":"-73° 46' 00\""},{"longitude":"-85.5123","city":"Yorktown, Indiana","latitude":"40.1830","country":"United States","id":48070},{"latitude":"41.2727","longitude":"-73.8092","country":"United States","id":48071,"city":"Yorktown, New York"},{"longitude":"-88.4507","id":48072,"country":"United States","latitude":"41.6563","city":"Yorkville, Illinois"},{"latitude":"35.3084","id":48073,"city":"Yoro, Gifu","longitude":"136.5614","country":"Japan"},{"latitude":"15.1333","country":"Honduras","longitude":"-87.1333","city":"Yoro, Yoro","id":48074},{"country":"Mali","longitude":"-4.7778","id":48075,"latitude":"12.3556","city":"Yorosso, Sikasso"},{"city":"Yosano, Kyōto","latitude":"35.5667","country":"Japan","longitude":"135.1500","id":48076},{"longitude":"138.2500","id":48077,"city":"Yoshida, Shizuoka","country":"Japan","latitude":"34.7667"},{"city":"Yoshiicho-shimobaru, Nagasaki","latitude":"33.1800","longitude":"129.7150","country":"Japan","id":48078},{"country":"Japan","longitude":"139.8414","latitude":"35.8939","city":"Yoshikawa, Saitama","id":48079},{"longitude":"139.4538","id":48080,"city":"Yoshimi, Saitama","country":"Japan","latitude":"36.0399"},{"longitude":"130.4000","latitude":"33.3167","city":"Yoshinogari, Saga","country":"Japan","id":48081},{"city":"Yoshinogawa, Tokushima","country":"Japan","id":48082,"longitude":"134.3614","latitude":"34.0631"},{"city":"Yoshioka, Gunma","country":"Japan","latitude":"36.4474","id":48083,"longitude":"139.0097"},{"id":48084,"city":"Yoshiwara, Shizuoka","latitude":"35.1633","country":"Japan","longitude":"138.6866"},{"latitude":"56.6500","longitude":"47.8833","country":"Russia","city":"Yoshkar-Ola, Mariy-El","id":48085},{"city":"Yotoco, Valle del Cauca","country":"Colombia","longitude":"-76.3833","id":48086,"latitude":"3.8667"},{"latitude":"35.6698","id":48087,"longitude":"140.1679","city":"Yotsukaido, Chiba","country":"Japan"},{"latitude":"14.2833","country":"Mali","id":48088,"longitude":"-3.1667","city":"Youdiou, Mopti"},{"country":"China","latitude":"37.0042","id":48089,"city":"Youfangcun, Hebei","longitude":"115.7755"},{"country":"China","city":"Youganning, Qinghai","longitude":"101.6114","id":48090,"latitude":"34.7356"},{"country":"Ireland","longitude":"-7.8456","latitude":"51.9517","id":48091,"city":"Youghal, Cork"},{"latitude":"-34.3000","country":"Australia","id":48092,"longitude":"148.3000","city":"Young, New South Wales"},{"city":"Young, Río Negro","country":"Uruguay","longitude":"-57.6333","id":48093,"latitude":"-32.7000"},{"id":48094,"latitude":" 41° 05' 57\"","country":"United States","city":"Youngstown, Ohio","longitude":"-80° 39' 01\""},{"city":"Youngsville, Louisiana","longitude":"-91.9968","latitude":"30.0963","country":"United States","id":48095},{"latitude":"32.2500","country":"Morocco","city":"Youssoufia, Marrakech-Safi","longitude":"-8.5333","id":48096},{"latitude":"24.8695","country":"China","city":"Youwangjie, Yunnan","longitude":"99.1067","id":48097},{"city":"Youwarou, Mopti","latitude":"15.3750","longitude":"-4.2625","country":"Mali","id":48098},{"country":"Tajikistan","longitude":"69.0500","id":48099,"latitude":"38.3167","city":"Yovon, Khatlon"},{"latitude":"39.8208","id":48100,"longitude":"34.8083","country":"Turkey","city":"Yozgat, Yozgat"},{"city":"Yozyovon, Farg‘ona","latitude":"40.6619","longitude":"71.7431","id":48101,"country":"Uzbekistan"},{"id":48102,"city":"Ypacarai, Central","latitude":"-25.3833","country":"Paraguay","longitude":"-57.2667"},{"longitude":"-57.5300","id":48103,"city":"Ypane, Central","country":"Paraguay","latitude":"-25.4500"},{"country":"Paraguay","city":"Ypejhu, Canindeyú","latitude":"-23.9100","longitude":"-55.4600","id":48104},{"id":48105,"latitude":"42.2440","country":"United States","longitude":"-83.6208","city":"Ypsilanti, Michigan"},{"latitude":"55.4167","id":48106,"country":"Sweden","city":"Ystad, Skåne","longitude":"13.8333"},{"id":48107,"latitude":"51.6419","country":"United Kingdom","longitude":"-3.2405","city":"Ystrad Mynach, Caerphilly"},{"country":"Taiwan","id":48108,"city":"Yuanchang, Yunlin","longitude":"120.3229","latitude":"23.6420"},{"city":"Yuancun, Guizhou","latitude":"27.4540","id":48109,"country":"China","longitude":"106.6649"},{"latitude":"44.1977","city":"Yuanhucun, Xinjiang","longitude":"86.8928","id":48110,"country":"China"},{"city":"Yuanli, Miaoli","latitude":"24.4168","country":"Taiwan","longitude":"120.6830","id":48111},{"country":"Taiwan","latitude":"23.9611","longitude":"120.5736","city":"Yuanlin, Changhua","id":48112},{"country":"China","city":"Yuanping, Shanxi","latitude":"38.7310","longitude":"112.7110","id":48113},{"city":"Yuanquan, Gansu","latitude":"40.5004","id":48114,"country":"China","longitude":"95.8000"},{"latitude":"34.7847","country":"China","longitude":"104.7762","id":48115,"city":"Yuanyangzhen, Gansu"},{"latitude":"34.0333","country":"Japan","longitude":"135.1833","city":"Yuasa, Wakayama","id":48116},{"latitude":" 39° 07' 58\"","longitude":"-121° 37' 58\"","city":"Yuba City, California","id":48117,"country":"United States"},{"longitude":"-117.0429","country":"United States","id":48118,"city":"Yucaipa, California","latitude":"34.0336"},{"id":48119,"city":"Yucca Valley, California","country":"United States","longitude":"-116.4216","latitude":"34.1234"},{"city":"Yucheng, Shandong","id":48120,"latitude":"36.9340","country":"China","longitude":"116.6380"},{"latitude":"30.0100","country":"China","city":"Yucheng, Sichuan","longitude":"103.0415","id":48121},{"longitude":"116.2691","id":48122,"city":"Yuchengcun, Guangdong","country":"China","latitude":"23.5633"},{"longitude":"120.9333","id":48123,"latitude":"23.9000","country":"Taiwan","city":"Yuchi, Nantou"},{"city":"Yuci, Shanxi","latitude":"37.6823","longitude":"112.7281","id":48124,"country":"China"},{"city":"Yueqing, Zhejiang","country":"China","longitude":"120.9600","id":48125,"latitude":"28.1200"},{"city":"Yueshanwan, Hunan","country":"China","longitude":"112.2911","latitude":"27.8614","id":48126},{"longitude":"94.6632","latitude":"40.1256","id":48127,"country":"China","city":"Yueyaquan, Gansu"},{"longitude":"47.1964","city":"Yufle, Sanaag","id":48128,"latitude":"10.3758","country":"Somalia"},{"city":"Yufu, Ōita","latitude":"33.1800","country":"Japan","longitude":"131.4267","id":48129},{"longitude":"139.0667","id":48130,"city":"Yugawara, Kanagawa","latitude":"35.1500","country":"Japan"},{"id":48131,"longitude":"63.3333","latitude":"61.3167","country":"Russia","city":"Yugorsk, Khanty-Mansiyskiy Avtonomnyy Okrug-Yugra"},{"longitude":"121.2288","latitude":"28.1277","city":"Yuhuan, Zhejiang","country":"China","id":48132},{"city":"Yui, Shizuoka","longitude":"138.5667","id":48133,"latitude":"35.1000","country":"Japan"},{"longitude":"30.6833","id":48134,"city":"Yukarikaraman, Antalya","latitude":"36.9167","country":"Turkey"},{"latitude":"36.3055","longitude":"139.8766","city":"Yuki, Ibaraki","country":"Japan","id":48135},{"id":48136,"city":"Yukon, Oklahoma","latitude":"35.5201","country":"United States","longitude":"-97.7639"},{"id":48137,"country":"Turkey","longitude":"44.2830","latitude":"37.5690","city":"Yuksekova, Hakkâri"},{"longitude":"130.9831","id":48138,"city":"Yukuhashi, Fukuoka","country":"Japan","latitude":"33.7289"},{"longitude":"130.9710","id":48139,"latitude":"-25.2069","city":"Yulara, Northern Territory","country":"Australia"},{"id":48140,"country":"United States","city":"Yulee, Florida","latitude":"30.6350","longitude":"-81.5678"},{"latitude":"23.3875","city":"Yuli, Hualien","id":48141,"country":"Taiwan","longitude":"121.3764"},{"longitude":"86.2614","city":"Yuli, Xinjiang","country":"China","id":48142,"latitude":"41.3351"},{"latitude":"22.6540","city":"Yulin, Guangxi","country":"China","longitude":"110.1810","id":48143},{"latitude":"38.2858","longitude":"109.7341","country":"China","id":48144,"city":"Yulinshi, Shaanxi"},{"latitude":"23.5193","longitude":"116.4055","country":"China","city":"Yulu, Guangdong","id":48145},{"city":"Yuma, Arizona","latitude":" 32° 42' 54\"","country":"United States","longitude":"-114° 37' 22\"","id":48146},{"longitude":"-102° 49' 58\"","city":"Yuma, Colorado","id":48147,"latitude":" 40° 07' 58\"","country":"USA"},{"latitude":"3.4650","longitude":"31.2450","city":"Yumbe, Yumbe","country":"Uganda","id":48148},{"latitude":"-37.1333","longitude":"-72.5333","country":"Chile","city":"Yumbel, Biobío","id":48149},{"city":"Yumbo, Valle del Cauca","id":48150,"country":"Colombia","latitude":"3.5850","longitude":"-76.4958"},{"id":48151,"latitude":"36.7678","city":"Yumurtalik, Adana","longitude":"35.7922","country":"Turkey"},{"country":"Turkey","id":48152,"longitude":"31.7356","city":"Yunak, Konya","latitude":"38.8172"},{"city":"Yuncheng, Shanxi","country":"China","latitude":"35.0267","id":48153,"longitude":"111.0070"},{"id":48154,"latitude":"40.0833","longitude":"-3.8667","city":"Yuncos, Castille-La Mancha","country":"Spain"},{"latitude":"22.9152","city":"Yunfu, Guangdong","country":"China","id":48155,"longitude":"112.0445"},{"country":"China","longitude":"104.4181","id":48156,"city":"Yunfu, Yunnan","latitude":"28.6331"},{"longitude":"-72.0189","latitude":"-37.1194","city":"Yungay, Ñuble","country":"Chile","id":48157},{"id":48158,"city":"Yunnanyi, Yunnan","latitude":"25.3916","country":"China","longitude":"100.6846"},{"country":"Japan","longitude":"137.2441","id":48159,"latitude":"35.8059","city":"Yunoshima, Gifu"},{"country":"China","latitude":"34.7610","city":"Yunshan, Gansu","id":48160,"longitude":"105.7915"},{"latitude":"32.8082","city":"Yunxian Chengguanzhen, Hubei","country":"China","longitude":"110.8136","id":48161},{"longitude":"113.1000","city":"Yunzhong, Shanxi","country":"China","id":48162,"latitude":"39.8279"},{"country":"Guatemala","id":48163,"latitude":"14.2000","longitude":"-89.7833","city":"Yupiltepeque, Jutiapa"},{"longitude":"114.0864","latitude":"40.4203","city":"Yuquan, Shanxi","country":"China","id":48164},{"latitude":"56.5000","longitude":"39.6833","city":"Yur'yev-Pol'skiy, Vladimirskaya Oblast’","country":"Russia","id":48165},{"longitude":"35.3439","id":48166,"latitude":"36.9981","city":"Yuregir, Adana","country":"Turkey"},{"country":"Russia","id":48167,"longitude":"84.8861","city":"Yurga, Kemerovskaya Oblast’","latitude":"55.7231"},{"latitude":"35.4833","city":"Yurihama, Tottori","longitude":"133.8667","country":"Japan","id":48168},{"city":"Yurihonjo, Akita","longitude":"140.0488","id":48169,"country":"Japan","latitude":"39.3859"},{"id":48170,"city":"Yurimaguas, Loreto","longitude":"-76.0833","latitude":"-5.9000","country":"Peru"},{"longitude":"-101.1500","country":"Mexico","city":"Yuriria, Guanajuato","id":48171,"latitude":"20.2000"},{"longitude":"58.4333","country":"Russia","city":"Yuryuzan, Chelyabinskaya Oblast’","latitude":"54.8667","id":48172},{"country":"Honduras","id":48173,"latitude":"13.9330","city":"Yuscaran, El Paraíso","longitude":"-86.8500"},{"city":"Yushan, Jiangsu","id":48174,"latitude":"31.3220","country":"China","longitude":"120.9850"},{"country":"China","latitude":"44.8260","longitude":"126.5500","city":"Yushu, Jilin","id":48175},{"latitude":"40.8106","longitude":"41.5269","country":"Turkey","id":48176,"city":"Yusufeli, Artvin"},{"longitude":"112.5520","id":48177,"latitude":"28.2780","country":"China","city":"Yutan, Hunan"},{"id":48178,"city":"Yutiancun, Fujian","latitude":"25.8747","country":"China","longitude":"119.4578"},{"id":48179,"latitude":"43.9625","longitude":"42.9875","city":"Yutsa, Stavropol’skiy Kray","country":"Russia"},{"country":"France","city":"Yutz, Grand Est","latitude":"49.3594","id":48180,"longitude":"6.1892"},{"city":"Yuvileine, Luhanska Oblast","latitude":"48.5531","longitude":"39.1742","country":"Ukraine","id":48181},{"latitude":"24.3470","city":"Yuxi, Yunnan","id":48182,"country":"China","longitude":"102.5270"},{"id":48183,"latitude":"36.0311","city":"Yuxiaguan, Shanxi","country":"China","longitude":"113.5580"},{"latitude":"30.0500","city":"Yuyao, Zhejiang","longitude":"121.1500","id":48184,"country":"China"},{"id":48185,"city":"Yuza, Yamagata","latitude":"39.0147","country":"Japan","longitude":"139.9089"},{"longitude":"140.4948","city":"Yuzawa, Akita","country":"Japan","id":48186,"latitude":"39.1641"},{"country":"Russia","id":48187,"longitude":"42.0333","city":"Yuzha, Ivanovskaya Oblast’","latitude":"56.5833"},{"latitude":"25.3561","longitude":"105.1020","city":"Yuzhang, Guizhou","country":"China","id":48188},{"longitude":"31.1000","id":48189,"city":"Yuzhne, Odeska Oblast","latitude":"46.6300","country":"Ukraine"},{"country":"Russia","id":48190,"longitude":"142.7333","city":"Yuzhno-Sakhalinsk, Sakhalinskaya Oblast’","latitude":"46.9667"},{"city":"Yuzhno-Sukhokumsk, Dagestan","latitude":"44.6667","id":48191,"country":"Russia","longitude":"45.6500"},{"latitude":"47.8217","country":"Ukraine","city":"Yuzhnoukrainsk, Mykolaivska Oblast","id":48192,"longitude":"31.1750"},{"longitude":"61.2500","city":"Yuzhnouralsk, Chelyabinskaya Oblast’","latitude":"54.4500","id":48193,"country":"Russia"},{"city":"Yverdon-les-Bains, Vaud","latitude":"46.7785","country":"Switzerland","id":48194,"longitude":"6.6408"},{"country":"France","city":"Yvetot, Normandie","latitude":"49.6200","longitude":"0.7500","id":48195},{"city":"Yvoir, Wallonia","latitude":"50.3333","country":"Belgium","id":48196,"longitude":"4.8833"},{"city":"Yzeure, Auvergne-Rhône-Alpes","longitude":"3.3553","id":48197,"latitude":"46.5669","country":"France"},{"city":"Za'roura, Tanger-Tétouan-Al Hoceïma","latitude":"35.2167","longitude":"-5.6667","country":"Morocco","id":48198},{"city":"Zaandam, Noord-Holland","country":"Netherlands","longitude":"4.8333","latitude":"52.4333","id":48199},{"id":48200,"country":"Netherlands","latitude":"52.4667","longitude":"4.8000","city":"Zaandijk, Noord-Holland"},{"latitude":"52.4333","id":48201,"country":"Netherlands","longitude":"4.8167","city":"Zaanstad, Noord-Holland"},{"latitude":"45.3667","country":"Serbia","longitude":"20.0667","id":48202,"city":"Zabalj, Žabalj"},{"country":"Serbia","longitude":"21.2143","city":"Zabari, Žabari","latitude":"44.3562","id":48203},{"id":48204,"city":"Zabaykalsk, Zabaykal’skiy Kray","latitude":"49.6514","country":"Russia","longitude":"117.3269"},{"latitude":"35.8772","longitude":"14.5381","id":48205,"city":"Zabbar, Żabbar","country":"Malta"},{"city":"Zabid, Al Ḩudaydah","longitude":"43.3167","latitude":"14.2000","country":"Yemen","id":48206},{"country":"Poland","longitude":"21.1161","id":48207,"city":"Zabki, Mazowieckie","latitude":"52.2928"},{"city":"Zabkowice Slaskie, Dolnośląskie","latitude":"50.5833","longitude":"16.8167","country":"Poland","id":48208},{"city":"Zabljak, Žabljak","country":"Montenegro","id":48209,"latitude":"43.1550","longitude":"19.1208"},{"longitude":"15.9167","latitude":"46.0333","city":"Zabok, Krapinsko-Zagorska Županija","id":48210,"country":"Croatia"},{"city":"Zabol, Sīstān va Balūchestān","latitude":"31.0339","longitude":"61.4878","id":48211,"country":"Iran"},{"country":"Iran","city":"Zaboli, Sīstān va Balūchestān","id":48212,"latitude":"27.1283","longitude":"61.6722"},{"id":48213,"latitude":"40.4872","longitude":"49.9525","city":"Zabrat, Bakı","country":"Azerbaijan"},{"city":"Zabre, Centre-Est","id":48214,"country":"Burkina Faso","latitude":"11.1833","longitude":"-0.6333"},{"latitude":"49.8825","id":48215,"longitude":"16.8722","city":"Zabreh, Olomoucký Kraj","country":"Czechia"},{"city":"Zabrze, Śląskie","country":"Poland","latitude":"50.3025","id":48216,"longitude":"18.7781"},{"latitude":"14.9667","city":"Zacapa, Zacapa","id":48217,"country":"Guatemala","longitude":"-89.5333"},{"country":"Mexico","longitude":"-102.5736","city":"Zacatecas, Zacatecas","latitude":"22.7736","id":48218},{"latitude":"13.5000","longitude":"-88.8667","city":"Zacatecoluca, La Paz","id":48219,"country":"El Salvador"},{"country":"Mexico","id":48220,"city":"Zacatelco, Tlaxcala","latitude":"19.2167","longitude":"-98.2333"},{"longitude":"-99.1833","city":"Zacatepec, Morelos","id":48221,"latitude":"18.6833","country":"Mexico"},{"longitude":"-97.9600","latitude":"19.9319","country":"Mexico","id":48222,"city":"Zacatlan, Puebla"},{"id":48223,"latitude":"37.4833","longitude":"21.6500","country":"Greece","city":"Zacharo, Dytikí Elláda"},{"id":48224,"latitude":"30.6643","country":"United States","longitude":"-91.1634","city":"Zachary, Louisiana"},{"longitude":"-103.5833","country":"Mexico","city":"Zacoalco de Torres, Jalisco","latitude":"20.2333","id":48225},{"latitude":"15.0272","city":"Zacualpa, Quiché","id":48226,"country":"Guatemala","longitude":"-90.8778"},{"id":48227,"latitude":"18.7836","longitude":"-98.7594","city":"Zacualpan de Amilpas, Morelos","country":"Mexico"},{"city":"Zacualpan, México","latitude":"18.7197","id":48228,"longitude":"-99.7800","country":"Mexico"},{"city":"Zacualtipan, Hidalgo","latitude":"20.6500","longitude":"-98.6500","id":48229,"country":"Mexico"},{"country":"Croatia","latitude":"44.1194","longitude":"15.2319","city":"Zadar, Zadarska Županija","id":48230},{"id":48231,"latitude":"52.4000","longitude":"38.9333","city":"Zadonsk, Lipetskaya Oblast’","country":"Russia"},{"city":"Zafarabad, Uttar Pradesh","id":48232,"longitude":"82.7000","latitude":"25.7000","country":"India"},{"city":"Zafargarh, Telangāna","latitude":"17.7686","longitude":"79.4859","id":48233,"country":"India"},{"latitude":"32.3500","city":"Zafarwal, Punjab","country":"Pakistan","longitude":"74.9000","id":48234},{"id":48235,"longitude":"15.1000","latitude":"37.6833","country":"Italy","city":"Zafferana Etnea, Sicilia"},{"country":"Spain","longitude":"-6.4167","latitude":"38.4167","id":48236,"city":"Zafra, Extremadura"},{"country":"Morocco","longitude":"-9.3333","id":48237,"latitude":"28.0167","city":"Zag, Guelmim-Oued Noun"},{"id":48238,"city":"Zagan, Lubuskie","longitude":"15.3167","latitude":"51.6167","country":"Poland"},{"latitude":"41.8333","id":48239,"country":"Italy","city":"Zagarolo, Lazio","longitude":"12.8333"},{"city":"Zaggota, Rabat-Salé-Kénitra","longitude":"-5.5333","country":"Morocco","id":48240,"latitude":"34.1667"},{"longitude":"10.1500","latitude":"36.4000","city":"Zaghouan, Zaghouan","id":48241,"country":"Tunisia"},{"country":"Benin","longitude":"2.3500","id":48242,"city":"Zagnanado, Zou","latitude":"7.2667"},{"longitude":"-5.8381","country":"Morocco","latitude":"30.3306","id":48243,"city":"Zagora, Drâa-Tafilalet"},{"latitude":"46.1342","city":"Zagorje, Zagorje ob Savi","country":"Slovenia","longitude":"14.9942","id":48244},{"longitude":"15.9775","country":"Croatia","latitude":"45.8131","id":48245,"city":"Zagreb, Zagreb"},{"country":"Serbia","city":"Zagubica, Žagubica","longitude":"21.7902","id":48246,"latitude":"44.1979"},{"id":48247,"country":"Algeria","latitude":"35.5167","city":"Zahana, Oran","longitude":"-0.4167"},{"longitude":"53.8039","latitude":"28.7461","country":"Iran","city":"Zahed Shahr, Fārs","id":48248},{"city":"Zahedan, Sīstān va Balūchestān","latitude":"29.5025","longitude":"60.8558","id":48249,"country":"Iran"},{"longitude":"77.6074","country":"India","city":"Zahirabad, Telangāna","latitude":"17.6814","id":48250},{"city":"Zahle, Béqaa","latitude":"33.8333","country":"Lebanon","longitude":"35.9167","id":48251},{"id":48252,"latitude":"26.8300","longitude":"81.3300","country":"India","city":"Zaidpur, Uttar Pradesh"},{"latitude":"55.3000","city":"Zainsk, Tatarstan","country":"Russia","id":48253,"longitude":"52.0167"},{"longitude":"-2.7333","city":"Zaio, Oriental","id":48254,"country":"Morocco","latitude":"34.9333"},{"city":"Zajecar, Zaječar","latitude":"43.9167","country":"Serbia","longitude":"22.3000","id":48255},{"city":"Zakamensk, Buryatiya","latitude":"50.3833","country":"Russia","longitude":"103.3000","id":48256},{"latitude":"37.1500","country":"Iraq","longitude":"42.6833","id":48257,"city":"Zakhu, Dahūk"},{"longitude":"36.1567","id":48258,"country":"Syria","latitude":"33.3344","city":"Zakiyah, Rīf Dimashq"},{"longitude":"19.9500","country":"Poland","id":48259,"city":"Zakopane, Małopolskie","latitude":"49.3000"},{"id":48260,"country":"Greece","city":"Zakynthos, Ionía Nísia","latitude":"37.8000","longitude":"20.7500"},{"id":48261,"latitude":"14.8843","longitude":"79.9125","city":"Zaladanki, Andhra Pradesh","country":"India"},{"longitude":"16.8511","id":48262,"city":"Zalaegerszeg, Zala","country":"Hungary","latitude":"46.8392"},{"city":"Zalantun, Inner Mongolia","longitude":"122.7080","id":48263,"country":"China","latitude":"48.0270"},{"city":"Zalau, Sălaj","latitude":"47.1911","longitude":"23.0572","id":48264,"country":"Romania"},{"city":"Zalec, Žalec","latitude":"46.2510","country":"Slovenia","longitude":"15.1639","id":48265},{"country":"Poland","longitude":"18.9892","id":48266,"city":"Zaleze, Śląskie","latitude":"50.2672"},{"id":48267,"city":"Zalingei, Central Darfur","longitude":"23.4833","latitude":"12.9000","country":"Sudan"},{"country":"Côte d’Ivoire","longitude":"-6.2333","id":48268,"city":"Zaliohouan, Sassandra-Marahoué","latitude":"6.7833"},{"longitude":"25.7333","id":48269,"latitude":"48.6500","city":"Zalishchyky, Ternopilska Oblast","country":"Ukraine"},{"city":"Zaltan, An Nuqāţ al Khams","latitude":"32.9500","id":48270,"country":"Libya","longitude":"11.8658"},{"latitude":"51.8000","country":"Netherlands","city":"Zaltbommel, Gelderland","longitude":"5.2500","id":48271},{"longitude":"139.4000","country":"Japan","city":"Zama, Kanagawa","id":48272,"latitude":"35.4833"},{"longitude":"36.3528","city":"Zamalka, Rīf Dimashq","country":"Syria","latitude":"33.5253","id":48273},{"latitude":"25.4194","country":"India","id":48274,"longitude":"83.5569","city":"Zamania, Uttar Pradesh"},{"city":"Zambezi, North-Western","latitude":"-13.5500","country":"Zambia","longitude":"23.1167","id":48275},{"city":"Zamboanga City, Zamboanga","country":"Philippines","latitude":"6.9042","longitude":"122.0761","id":48276},{"country":"Philippines","latitude":"9.1000","city":"Zamboanguita, Negros Oriental","longitude":"123.1990","id":48277},{"country":"Colombia","city":"Zambrano, Bolívar","latitude":"9.7500","longitude":"-74.8333","id":48278},{"city":"Zambrow, Podlaskie","country":"Poland","longitude":"22.2500","id":48279,"latitude":"52.9833"},{"latitude":"41.4989","id":48280,"country":"Spain","longitude":"-5.7556","city":"Zamora, Castille-Leon"},{"country":"Mexico","city":"Zamora, Michoacán","latitude":"19.9833","longitude":"-102.2833","id":48281},{"city":"Zamora, Zamora-Chinchipe","country":"Ecuador","id":48282,"latitude":"-4.0692","longitude":"-78.9567"},{"longitude":"23.2528","id":48283,"country":"Poland","city":"Zamosc, Lubelskie","latitude":"50.7167"},{"city":"Zanandore, Karuzi","latitude":"-3.2500","id":48284,"country":"Burundi","longitude":"30.1167"},{"longitude":"4.6500","id":48285,"city":"Zandhoven, Flanders","country":"Belgium","latitude":"51.2167"},{"city":"Zandvoort, Noord-Holland","latitude":"52.3667","longitude":"4.5333","id":48286,"country":"Netherlands"},{"latitude":" 39° 56' 17\"","longitude":"-82° 00' 29\"","id":48287,"city":"Zanesville, Ohio","country":"United States"},{"latitude":"17.1229","longitude":"81.2953","country":"India","city":"Zangareddigudem, Andhra Pradesh","id":48288},{"city":"Zango, Katsina","country":"Nigeria","latitude":"12.9333","longitude":"8.5333","id":48289},{"latitude":"37.6656","country":"China","city":"Zanhuang, Hebei","longitude":"114.3861","id":48290},{"longitude":"9.6833","id":48291,"city":"Zanica, Lombardy","latitude":"45.6333","country":"Italy"},{"latitude":"11.2708","id":48292,"city":"Zaniena, Sikasso","country":"Mali","longitude":"-6.4236"},{"latitude":"36.6789","country":"Iran","id":48293,"city":"Zanjan, Zanjān","longitude":"48.5056"},{"id":48294,"city":"Zantiebougou, Sikasso","longitude":"-7.2500","latitude":"11.4000","country":"Mali"},{"country":"Tanzania","latitude":"-6.1650","city":"Zanzibar, Zanzibar Urban\/West","longitude":"39.1990","id":48295},{"city":"Zao, Miyagi","longitude":"140.6587","latitude":"39.0981","country":"Japan","id":48296},{"country":"China","id":48297,"longitude":"105.7062","latitude":"34.4727","city":"Zaojiao, Gansu"},{"country":"Taiwan","longitude":"120.8667","city":"Zaoqiao, Miaoli","latitude":"24.6500","id":48298},{"id":48299,"city":"Zaouia Ait Ishak, Béni Mellal-Khénifra","country":"Morocco","latitude":"32.7600","longitude":"-5.7233"},{"city":"Zaouiat Moulay Bouchta El Khammar, Fès-Meknès","id":48300,"longitude":"-5.1167","latitude":"34.4833","country":"Morocco"},{"id":48301,"city":"Zaouiet Says, Casablanca-Settat","country":"Morocco","longitude":"-8.6506","latitude":"32.7931"},{"longitude":"10.6333","id":48302,"latitude":"35.7833","city":"Zaouiet Sousse, Sousse","country":"Tunisia"},{"longitude":"112.7720","id":48303,"city":"Zaoyang, Hubei","latitude":"32.1290","country":"China"},{"latitude":"55.9667","longitude":"94.7000","id":48304,"city":"Zaozernyy, Krasnoyarskiy Kray","country":"Russia"},{"longitude":"117.3238","latitude":"34.8109","id":48305,"city":"Zaozhuang, Shandong","country":"China"},{"country":"Argentina","longitude":"-70.0667","city":"Zapala, Neuquén","id":48306,"latitude":"-38.9000"},{"latitude":"6.8167","country":"Colombia","longitude":"-73.2667","id":48307,"city":"Zapatoca, Santander"},{"city":"Zapolyarnyy, Murmanskaya Oblast’","latitude":"69.4167","country":"Russia","longitude":"30.8000","id":48308},{"latitude":"20.7167","longitude":"-103.4000","city":"Zapopan, Jalisco","country":"Mexico","id":48309},{"city":"Zaporizhzhia, Zaporizka Oblast","country":"Ukraine","longitude":"35.1175","id":48310,"latitude":"47.8500"},{"id":48311,"country":"Costa Rica","city":"Zapote, San José","latitude":"9.9203","longitude":"-84.0592"},{"latitude":"19.6270","country":"Mexico","id":48312,"city":"Zapotiltic, Jalisco","longitude":"-103.4170"},{"latitude":"14.1333","city":"Zapotitlan, Jutiapa","country":"Guatemala","longitude":"-89.8333","id":48313},{"latitude":"19.9667","country":"Mexico","longitude":"-98.8500","city":"Zapotlan de Juarez, Hidalgo","id":48314},{"id":48315,"city":"Zapotlan del Rey, Jalisco","latitude":"20.4674","country":"Mexico","longitude":"-102.9248"},{"latitude":"20.6228","country":"Mexico","city":"Zapotlanejo, Jalisco","longitude":"-103.0689","id":48316},{"latitude":"45.8572","longitude":"15.8050","id":48317,"city":"Zapresic, Zagrebačka Županija","country":"Croatia"},{"country":"Azerbaijan","longitude":"46.6433","id":48318,"city":"Zaqatala, Zaqatala","latitude":"41.6336"},{"id":48319,"city":"Zara, Sivas","latitude":"39.8950","country":"Turkey","longitude":"37.7531"},{"country":"Iran","longitude":"54.2322","latitude":"31.9911","id":48320,"city":"Zarach, Yazd"},{"longitude":"64.2264","country":"Uzbekistan","id":48321,"city":"Zarafshon Shahri, Navoiy","latitude":"41.6081"},{"country":"Colombia","longitude":"-74.8710","id":48322,"city":"Zaragoza, Antioquia","latitude":"7.4940"},{"city":"Zaragoza, Aragon","latitude":"41.6500","country":"Spain","id":48323,"longitude":"-0.8833"},{"country":"Guatemala","city":"Zaragoza, Chimaltenango","latitude":"14.6500","longitude":"-90.8833","id":48324},{"country":"Mexico","id":48325,"longitude":"-100.9175","city":"Zaragoza, Coahuila","latitude":"28.4869"},{"country":"El Salvador","id":48326,"latitude":"13.5833","longitude":"-89.2833","city":"Zaragoza, La Libertad"},{"id":48327,"city":"Zaragoza, Nueva Ecija","country":"Philippines","longitude":"120.7933","latitude":"15.4492"},{"id":48328,"longitude":"-94.6414","city":"Zaragoza, Veracruz","latitude":"17.9531","country":"Mexico"},{"country":"Afghanistan","city":"Zarah Sharan, Paktīkā","latitude":"33.1300","longitude":"68.7800","id":48329},{"id":48330,"latitude":"30.8108","city":"Zarand, Kermān","country":"Iran","longitude":"56.5658"},{"longitude":"61.8600","id":48331,"city":"Zaranj, Nīmrōz","latitude":"30.9600","country":"Afghanistan"},{"id":48332,"country":"Lithuania","longitude":"26.2500","city":"Zarasai, Zarasai","latitude":"55.7333"},{"latitude":"-34.0833","country":"Argentina","id":48333,"city":"Zarate, Buenos Aires","longitude":"-59.0333"},{"latitude":"43.2833","longitude":"-2.1667","country":"Spain","city":"Zarautz, Basque Country","id":48334},{"longitude":"-65.3167","id":48335,"latitude":"9.3394","country":"Venezuela","city":"Zaraza, Guárico"},{"longitude":"68.1683","country":"Uzbekistan","city":"Zarbdor Shaharchasi, Jizzax","latitude":"40.0747","id":48336},{"country":"Azerbaijan","id":48337,"longitude":"47.7083","latitude":"40.2183","city":"Zardab, Zərdab"},{"country":"Russia","longitude":"45.1667","latitude":"53.2000","city":"Zarechnyy, Penzenskaya Oblast’","id":48338},{"latitude":"56.8167","id":48339,"city":"Zarechnyy, Sverdlovskaya Oblast’","longitude":"61.3333","country":"Russia"},{"country":"Tajikistan","latitude":"37.8000","id":48340,"city":"Zargar, Khatlon","longitude":"68.6500"},{"longitude":"68.4167","id":48341,"latitude":"32.8500","country":"Afghanistan","city":"Zarghun Shahr, Paktīkā"},{"latitude":"11.0667","id":48342,"city":"Zaria, Kaduna","country":"Nigeria","longitude":"7.7000"},{"latitude":"53.7089","country":"Russia","longitude":"84.9672","id":48343,"city":"Zarinsk, Altayskiy Kray"},{"city":"Zarnesti, Braşov","latitude":"45.5667","country":"Romania","longitude":"25.3333","id":48344},{"country":"Iran","longitude":"52.7186","city":"Zarqan, Fārs","id":48345,"latitude":"29.7683"},{"country":"Philippines","longitude":"122.6000","city":"Zarraga, Iloilo","id":48346,"latitude":"10.8200"},{"city":"Zarrin Shahr, Eşfahān","longitude":"51.3733","latitude":"32.3889","country":"Iran","id":48347},{"latitude":"-3.6833","longitude":"-79.6000","city":"Zaruma, El Oro","country":"Ecuador","id":48348},{"id":48349,"city":"Zarumilla, Tumbes","longitude":"-80.2722","country":"Peru","latitude":"-3.5014"},{"city":"Zary, Lubuskie","latitude":"51.6333","country":"Poland","longitude":"15.1333","id":48350},{"id":48351,"city":"Zarzal, Valle del Cauca","country":"Colombia","latitude":"4.3983","longitude":"-76.0772"},{"country":"Tunisia","id":48352,"city":"Zarzis, Médenine","latitude":"33.5000","longitude":"11.1167"},{"city":"Zasechnoye, Penzenskaya Oblast’","country":"Russia","longitude":"45.0601","id":48353,"latitude":"53.1142"},{"latitude":"54.0083","longitude":"27.2847","city":"Zaslawye, Minskaya Voblasts’","country":"Belarus","id":48354},{"country":"Czechia","latitude":"50.3300","longitude":"13.5444","city":"Zatec, Ústecký Kraj","id":48355},{"country":"Belgium","longitude":"4.4667","city":"Zaventem, Flanders","latitude":"50.8667","id":48356},{"id":48357,"city":"Zavitinsk, Amurskaya Oblast’","latitude":"50.1281","longitude":"129.4433","country":"Russia"},{"city":"Zavodoukovsk, Tyumenskaya Oblast’","longitude":"66.5333","latitude":"56.4833","country":"Russia","id":48358},{"longitude":"42.1500","latitude":"57.4667","city":"Zavolzhsk, Ivanovskaya Oblast’","id":48359,"country":"Russia"},{"city":"Zavolzhye, Nizhegorodskaya Oblast’","latitude":"56.6500","longitude":"43.4000","id":48360,"country":"Russia"},{"country":"Mozambique","latitude":"-24.5167","id":48361,"longitude":"35.2000","city":"Zavora, Inhambane"},{"id":48362,"latitude":"46.3917","city":"Zavrc, Zavrč","country":"Slovenia","longitude":"16.0497"},{"longitude":"53.3756","city":"Zavyalovo, Udmurtiya","country":"Russia","id":48363,"latitude":"56.7922"},{"id":48364,"city":"Zawal, Rājasthān","longitude":"72.7333","country":"India","latitude":"24.9833"},{"longitude":"-7.9656","id":48365,"country":"Morocco","city":"Zawiat Moulay Brahim, Marrakech-Safi","latitude":"31.2858"},{"longitude":"19.4167","id":48366,"country":"Poland","city":"Zawiercie, Śląskie","latitude":"50.5000"},{"country":"Egypt","id":48367,"city":"Zawiyat Razin, Al Minūfīyah","longitude":"30.8536","latitude":"30.4122"},{"city":"Zawodzie, Śląskie","latitude":"50.2585","longitude":"19.0449","country":"Poland","id":48368},{"longitude":"-6.1056","id":48369,"latitude":"31.8325","city":"Zawyat Ahancal, Béni Mellal-Khénifra","country":"Morocco"},{"latitude":"33.0450","id":48370,"longitude":"-7.9290","city":"Zawyat Sidi Ben Hamdoun, Casablanca-Settat","country":"Morocco"},{"country":"Morocco","longitude":"-7.7170","id":48371,"latitude":"33.2120","city":"Zawyat Sidi al Mekki, Casablanca-Settat"},{"country":"Morocco","id":48372,"longitude":"-7.6114","latitude":"33.3611","city":"Zawyat an Nwacer, Casablanca-Settat"},{"city":"Zawyat ech Cheikh, Béni Mellal-Khénifra","longitude":"-5.9206","id":48373,"latitude":"32.6414","country":"Morocco"},{"country":"Morocco","city":"Zayda, Drâa-Tafilalet","longitude":"-4.9500","id":48374,"latitude":"32.8167"},{"latitude":"47.4667","country":"Kazakhstan","id":48375,"longitude":"84.8667","city":"Zaysan, East Kazakhstan"},{"latitude":"43.6119","longitude":"43.3269","id":48376,"city":"Zayukovo, Kabardino-Balkariya","country":"Russia"},{"longitude":"46.3500","latitude":"-22.2000","country":"Madagascar","city":"Zazafotsy, Fianarantsoa","id":48377},{"city":"Zbarazh, Ternopilska Oblast","latitude":"49.6667","longitude":"25.7778","id":48378,"country":"Ukraine"},{"id":48379,"latitude":"49.5628","city":"Zd'ar nad Sazavou, Vysočina","country":"Czechia","longitude":"15.9392"},{"country":"Ukraine","latitude":"50.5094","city":"Zdolbuniv, Rivnenska Oblast","longitude":"26.2597","id":48380},{"latitude":"51.6000","longitude":"18.9667","city":"Zdunska Wola, Łódzkie","country":"Poland","id":48381},{"country":"Poland","id":48382,"latitude":"50.4192","longitude":"18.1236","city":"Zdzieszowice, Opolskie"},{"longitude":"-5.1569","id":48383,"latitude":"12.3100","country":"Mali","city":"Zebala, Sikasso"},{"latitude":"35.8731","id":48384,"country":"Malta","longitude":"14.4419","city":"Zebbug, Żebbuġ"},{"longitude":"14.2369","id":48385,"city":"Zebbug, Żebbuġ (Ghawdex)","latitude":"36.0708","country":"Malta"},{"id":48386,"latitude":"36.3500","country":"Algeria","longitude":"1.4333","city":"Zeboudja, Chlef"},{"latitude":"51.1333","country":"Belgium","city":"Zedelgem, Flanders","longitude":"3.1333","id":48387},{"country":"South Africa","city":"Zeerust, North West","longitude":"26.0833","id":48388,"latitude":"-25.5333"},{"longitude":"5.5500","id":48389,"city":"Zeewolde, Flevoland","country":"Netherlands","latitude":"52.3333"},{"latitude":"32.9658","id":48390,"city":"Zefat, Northern","longitude":"35.4983","country":"Israel"},{"city":"Zefyri, Attikí","longitude":"23.7167","country":"Greece","latitude":"38.0667","id":48391},{"country":"Morocco","longitude":"-3.0000","id":48392,"city":"Zeghanghane, Oriental","latitude":"35.1500"},{"longitude":"-5.6536","id":48393,"latitude":"10.4875","city":"Zegoua, ","country":"Mali"},{"latitude":"34.8407","id":48394,"city":"Zegzel, Oriental","longitude":"-2.3543","country":"Morocco"},{"id":48395,"latitude":"30.8933","longitude":"61.6789","country":"Iran","city":"Zehak, Sīstān va Balūchestān"},{"latitude":"52.9833","longitude":"13.3333","city":"Zehdenick, Brandenburg","country":"Germany","id":48396},{"city":"Zeist, Utrecht","country":"Netherlands","id":48397,"latitude":"52.0906","longitude":"5.2331"},{"longitude":"12.1383","country":"Germany","id":48398,"city":"Zeitz, Saxony-Anhalt","latitude":"51.0478"},{"longitude":"14.5333","id":48399,"city":"Zejtun, Żejtun","latitude":"35.8556","country":"Malta"},{"longitude":"4.0333","country":"Belgium","id":48400,"city":"Zele, Flanders","latitude":"51.0667"},{"latitude":"41.8867","country":"North Macedonia","longitude":"21.5869","city":"Zelenikovo, Zelenikovo","id":48401},{"country":"Russia","id":48402,"city":"Zelenodol'sk, Tatarstan","latitude":"55.8500","longitude":"48.5167"},{"id":48403,"city":"Zelenodolsk, Dnipropetrovska Oblast","latitude":"47.5658","country":"Ukraine","longitude":"33.6464"},{"id":48404,"city":"Zelenogorsk, Krasnoyarskiy Kray","latitude":"56.1000","longitude":"94.5833","country":"Russia"},{"id":48405,"latitude":"54.9667","longitude":"20.4833","country":"Russia","city":"Zelenogradsk, Kaliningradskaya Oblast’"},{"longitude":"43.9167","city":"Zelenokumsk, Stavropol’skiy Kray","latitude":"44.4167","country":"Russia","id":48406},{"city":"Zelezniki, Železniki","longitude":"14.1592","country":"Slovenia","id":48407,"latitude":"46.2182"},{"id":48408,"city":"Zelfana, Ghardaïa","latitude":"32.3969","country":"Algeria","longitude":"4.2261"},{"city":"Zelino, Želino","country":"North Macedonia","id":48409,"latitude":"41.9794","longitude":"21.0619"},{"latitude":"47.3167","city":"Zell am See, Salzburg","longitude":"12.8000","id":48410,"country":"Austria"},{"longitude":"10.6669","id":48411,"city":"Zella-Mehlis, Thuringia","latitude":"50.6597","country":"Germany"},{"city":"Zelzate, Flanders","longitude":"3.8167","id":48412,"country":"Belgium","latitude":"51.2000"},{"longitude":"-8.7023","city":"Zemamra, Casablanca-Settat","country":"Morocco","id":48413,"latitude":"32.6215"},{"latitude":"5.0333","longitude":"25.1333","city":"Zemio, Haut-Mbomou","country":"Central African Republic","id":48414},{"longitude":"142.1050","city":"Zemlya Bunge, Sakha (Yakutiya)","country":"Russia","id":48415,"latitude":"74.8983"},{"country":"Algeria","longitude":"3.6000","id":48416,"city":"Zemmouri, Boumerdes","latitude":"36.7833"},{"latitude":"35.7167","country":"Algeria","city":"Zemoura, Relizane","longitude":"0.7500","id":48417},{"latitude":"19.9153","longitude":"-98.6689","country":"Mexico","id":48418,"city":"Zempoala, Hidalgo"},{"id":48419,"country":"Morocco","city":"Zemrane, Marrakech-Safi","latitude":"31.6700","longitude":"-7.4400"},{"city":"Zemst, Flanders","country":"Belgium","longitude":"4.4222","id":48420,"latitude":"50.9722"},{"latitude":"44.8500","id":48421,"city":"Zemun, Beograd","country":"Serbia","longitude":"20.4000"},{"city":"Zengcun, Hebei","longitude":"114.7394","latitude":"38.2461","country":"China","id":48422},{"longitude":"109.4692","city":"Zengjiaba, Shaanxi","country":"China","id":48423,"latitude":"32.1263"},{"country":"China","longitude":"112.2336","id":48424,"city":"Zengqiao, Hunan","latitude":"27.5153"},{"city":"Zenica, Bosnia and Herzegovina","latitude":"44.2039","longitude":"17.9078","id":48425,"country":"Bosnia and Herzegovina"},{"id":48426,"latitude":"34.2167","city":"Zentsujicho, Kagawa","country":"Japan","longitude":"133.7833"},{"longitude":"18.0333","city":"Zepce, Bosnia and Herzegovina","country":"Bosnia and Herzegovina","latitude":"44.4333","id":48427},{"city":"Zephyrhills, Florida","latitude":"28.2409","id":48428,"longitude":"-82.1797","country":"United States"},{"city":"Zequ, Qinghai","longitude":"101.4606","latitude":"35.0376","id":48429,"country":"China"},{"country":"India","latitude":"30.6500","longitude":"76.8200","city":"Zerakpur, Punjab","id":48430},{"id":48431,"country":"Algeria","latitude":"36.7167","city":"Zeralda, Tipaza","longitude":"2.8500"},{"longitude":"12.0844","id":48432,"city":"Zerbst, Saxony-Anhalt","latitude":"51.9681","country":"Germany"},{"latitude":"36.7272","longitude":"7.8947","city":"Zerizer, El Tarf","id":48433,"country":"Algeria"},{"city":"Zernograd, Rostovskaya Oblast’","country":"Russia","latitude":"46.8500","longitude":"40.3167","id":48434},{"city":"Zero Branco, Veneto","id":48435,"latitude":"45.6000","country":"Italy","longitude":"12.1667"},{"country":"China","city":"Zerong, Guizhou","longitude":"104.9558","latitude":"24.9692","id":48436},{"country":"Georgia","city":"Zestaponi, Imereti","latitude":"42.1083","id":48437,"longitude":"43.0417"},{"longitude":"15.7939","id":48438,"city":"Zetale, Žetale","latitude":"46.2750","country":"Slovenia"},{"country":"China","latitude":"29.2380","id":48439,"city":"Zetang, Tibet","longitude":"91.7710"},{"city":"Zetel, Lower Saxony","latitude":"53.4197","longitude":"7.9742","country":"Germany","id":48440},{"longitude":"11.9806","city":"Zeulenroda, Thuringia","id":48441,"latitude":"50.6486","country":"Germany"},{"city":"Zeuthen, Brandenburg","longitude":"13.6167","country":"Germany","id":48442,"latitude":"52.3667"},{"id":48443,"longitude":"9.2833","city":"Zeven, Lower Saxony","latitude":"53.3000","country":"Germany"},{"longitude":"6.0667","city":"Zevenaar, Gelderland","country":"Netherlands","id":48444,"latitude":"51.9167"},{"latitude":"45.3667","city":"Zevio, Veneto","country":"Italy","longitude":"11.1333","id":48445},{"country":"Russia","city":"Zeya, Amurskaya Oblast’","latitude":"53.7333","longitude":"127.2500","id":48446},{"latitude":"29.6008","country":"Iran","longitude":"55.5367","id":48447,"city":"Zeydabad, Kermān"},{"city":"Zgharta, Liban-Nord","latitude":"34.4000","country":"Lebanon","longitude":"35.9000","id":48448},{"id":48449,"city":"Zgierz, Łódzkie","longitude":"19.4167","latitude":"51.8500","country":"Poland"},{"latitude":"46.4057","country":"Slovenia","longitude":"15.8385","id":48450,"city":"Zgornja Hajdina, Hajdina"},{"longitude":"15.6141","latitude":"46.6388","id":48451,"country":"Slovenia","city":"Zgornja Kungota, Kungota"},{"country":"Slovenia","id":48452,"latitude":"46.3801","city":"Zgornje Gorje, Gorje","longitude":"14.0684"},{"country":"Slovenia","latitude":"46.3951","city":"Zgornje Jezersko, Jezersko","id":48453,"longitude":"14.4966"},{"longitude":"15.0083","latitude":"51.1500","city":"Zgorzelec, Dolnośląskie","country":"Poland","id":48454},{"latitude":"52.2006","country":"Belarus","id":48455,"city":"Zhabinka, Brestskaya Voblasts’","longitude":"24.0233"},{"city":"Zhaicun, Guangdong","longitude":"112.6275","country":"China","id":48456,"latitude":"22.6174"},{"latitude":"26.8794","city":"Zhailuo, Guizhou","country":"China","longitude":"105.3081","id":48457},{"longitude":"112.3451","latitude":"24.5133","country":"China","id":48458,"city":"Zhaitangcun, Guangdong"},{"latitude":"51.6324","longitude":"69.8328","id":48459,"country":"Kazakhstan","city":"Zhaltyr, Aqmola"},{"country":"China","longitude":"95.7681","city":"Zhamog, Tibet","latitude":"29.8595","id":48460},{"id":48461,"city":"Zhangaozen, Mangghystaū","longitude":"52.8553","latitude":"43.3378","country":"Kazakhstan"},{"latitude":"43.5705","country":"Kazakhstan","longitude":"69.7335","city":"Zhangatas, Zhambyl","id":48462},{"longitude":"114.9333","id":48463,"city":"Zhangcun, Hebei","latitude":"38.1333","country":"China"},{"country":"China","city":"Zhanggu, Sichuan","longitude":"101.9167","id":48464,"latitude":"30.9504"},{"id":48465,"country":"China","latitude":"29.1170","city":"Zhangjiajie, Hunan","longitude":"110.4790"},{"latitude":"40.5944","id":48466,"city":"Zhangjiakou Shi Xuanhua Qu, Hebei","country":"China","longitude":"115.0243"},{"longitude":"114.8860","city":"Zhangjiakou, Hebei","id":48467,"latitude":"40.7690","country":"China"},{"id":48468,"country":"China","city":"Zhangjiazhuang, Hebei","longitude":"114.7394","latitude":"38.1753"},{"city":"Zhangjiazhuang, Hebei","longitude":"118.2004","latitude":"39.7804","country":"China","id":48469},{"city":"Zhangjiazhuangcun, Hebei","country":"China","id":48470,"latitude":"38.1753","longitude":"114.7395"},{"latitude":"37.1256","longitude":"112.0664","city":"Zhangliangcun, Shanxi","country":"China","id":48471},{"longitude":"114.0833","id":48472,"latitude":"22.9149","country":"China","city":"Zhangmu Touwei, Guangdong"},{"id":48473,"city":"Zhangping, Fujian","latitude":"25.2902","country":"China","longitude":"117.4200"},{"longitude":"112.8775","latitude":"37.6339","id":48474,"country":"China","city":"Zhangping, Shanxi"},{"longitude":"115.8508","city":"Zhangshanying, Beijing","id":48475,"country":"China","latitude":"40.4775"},{"id":48476,"longitude":"113.5240","city":"Zhangshicun, Guangdong","latitude":"24.5477","country":"China"},{"latitude":"28.0546","country":"China","city":"Zhangshu, Jiangxi","longitude":"115.5462","id":48477},{"city":"Zhangye, Gansu","country":"China","latitude":"38.9248","longitude":"100.4499","id":48478},{"latitude":"38.4042","id":48479,"country":"China","city":"Zhangzhengqiao, Ningxia","longitude":"106.3567"},{"longitude":"117.6470","city":"Zhangzhou, Fujian","country":"China","latitude":"24.5130","id":48480},{"city":"Zhangziying, Beijing","longitude":"116.5900","id":48481,"latitude":"39.6842","country":"China"},{"latitude":"49.4167","id":48482,"country":"Kazakhstan","longitude":"46.8500","city":"Zhanibek, West Kazakhstan"},{"country":"China","latitude":"34.7564","city":"Zhanjia, Shaanxi","longitude":"109.3846","id":48483},{"latitude":"21.2701","country":"China","city":"Zhanjiang, Guangdong","id":48484,"longitude":"110.3575"},{"longitude":"116.2594","city":"Zhanlicun, Guangdong","latitude":"23.2881","country":"China","id":48485},{"id":48486,"city":"Zhaodianzi, Hebei","latitude":"39.9373","country":"China","longitude":"118.6401"},{"longitude":"125.9620","id":48487,"city":"Zhaodong, Heilongjiang","country":"China","latitude":"46.0510"},{"id":48488,"longitude":"113.1156","country":"China","city":"Zhaoling, Hunan","latitude":"27.5975"},{"longitude":"112.4667","city":"Zhaoqing, Guangdong","latitude":"23.0500","country":"China","id":48489},{"country":"China","longitude":"103.7170","city":"Zhaotong, Yunnan","id":48490,"latitude":"27.3380"},{"country":"China","id":48491,"city":"Zhaoxiang, Shanghai","latitude":"31.1490","longitude":"121.1962"},{"city":"Zhaoyu, Shanxi","country":"China","longitude":"112.3193","latitude":"37.3512","id":48492},{"country":"China","longitude":"114.7775","city":"Zhaozhou, Hebei","id":48493,"latitude":"37.7527"},{"country":"Kazakhstan","city":"Zharkent, Zhetisū","id":48494,"latitude":"44.1667","longitude":"80.0000"},{"id":48495,"longitude":"30.1111","latitude":"49.2358","city":"Zhashkiv, Cherkaska Oblast","country":"Ukraine"},{"city":"Zhatay, Sakha (Yakutiya)","country":"Russia","latitude":"62.1500","longitude":"129.8167","id":48496},{"latitude":"27.8440","country":"China","id":48497,"longitude":"105.0451","city":"Zhaxi, Yunnan"},{"country":"Ukraine","id":48498,"longitude":"38.2608","city":"Zhdanivka, Donetska Oblast","latitude":"48.1375"},{"city":"Zhedao, Yunnan","latitude":"24.8098","country":"China","longitude":"98.2961","id":48499},{"city":"Zhegaozhen, Anhui","latitude":"31.7827","country":"China","longitude":"117.7553","id":48500},{"latitude":"56.2500","country":"Russia","id":48501,"longitude":"93.5333","city":"Zheleznogorsk, Krasnoyarskiy Kray"},{"id":48502,"country":"Russia","city":"Zheleznogorsk, Kurskaya Oblast’","latitude":"52.3333","longitude":"35.3667"},{"latitude":"56.5833","city":"Zheleznogorsk-Ilimskiy, Irkutskaya Oblast’","id":48503,"country":"Russia","longitude":"104.1333"},{"longitude":"43.0169","city":"Zheleznovodsk, Stavropol’skiy Kray","country":"Russia","latitude":"44.1394","id":48504},{"longitude":"90.6550","latitude":"27.2134","city":"Zhemgang, Zhemgang","country":"Bhutan","id":48505},{"latitude":"38.6275","country":"China","id":48506,"city":"Zhenbeibu, Ningxia","longitude":"106.0669"},{"latitude":"38.1464","country":"China","id":48507,"longitude":"114.5708","city":"Zhengding, Hebei"},{"id":48508,"longitude":"101.5078","country":"China","city":"Zhengdong, Yunnan","latitude":"22.4819"},{"country":"China","city":"Zhengjiatun, Jilin","latitude":"43.5183","longitude":"123.5027","id":48509},{"city":"Zhengtun, Guizhou","latitude":"25.1494","country":"China","id":48510,"longitude":"105.0802"},{"city":"Zhengzhou, Henan","latitude":"34.7640","id":48511,"longitude":"113.6840","country":"China"},{"country":"China","id":48512,"city":"Zhenjiang, Jiangsu","longitude":"119.4240","latitude":"32.1880"},{"city":"Zhentang, Guangdong","latitude":"21.8662","country":"China","id":48513,"longitude":"110.6996"},{"city":"Zhenzhou, Jiangsu","latitude":"32.2723","id":48514,"country":"China","longitude":"119.1848"},{"id":48515,"latitude":"43.5942","longitude":"52.0789","country":"Kazakhstan","city":"Zhetibay, Mangghystaū"},{"longitude":"68.3272","latitude":"40.7753","city":"Zhetisay, Türkistan","country":"Kazakhstan","id":48516},{"latitude":"24.2591","country":"China","city":"Zhexiang, Yunnan","longitude":"98.2826","id":48517},{"longitude":"67.7000","country":"Kazakhstan","city":"Zhezqazghan, Ulytaū","id":48518,"latitude":"47.7833"},{"latitude":"66.7667","city":"Zhigansk, Sakha (Yakutiya)","country":"Russia","longitude":"123.3833","id":48519},{"latitude":"53.3997","city":"Zhigulevsk, Samarskaya Oblast’","longitude":"49.4953","country":"Russia","id":48520},{"country":"China","id":48521,"latitude":"30.4260","city":"Zhijiang, Hubei","longitude":"111.7610"},{"city":"Zhijiang, Hunan","latitude":"27.4367","longitude":"109.6780","id":48522,"country":"China"},{"longitude":"113.9833","id":48523,"country":"Russia","city":"Zhilinda, Sakha (Yakutiya)","latitude":"70.1333"},{"id":48524,"city":"Zhipingxiang, Gansu","longitude":"105.6158","country":"China","latitude":"35.2950"},{"city":"Zhirnovsk, Volgogradskaya Oblast’","latitude":"50.9833","longitude":"44.7833","country":"Russia","id":48525},{"latitude":"52.1908","id":48526,"country":"Kazakhstan","longitude":"61.2011","city":"Zhitiqara, Qostanay"},{"latitude":"52.9000","city":"Zhlobin, Homyel’skaya Voblasts’","country":"Belarus","longitude":"30.0333","id":48527},{"latitude":"49.0500","city":"Zhmerynka, Vinnytska Oblast","longitude":"28.1000","country":"Ukraine","id":48528},{"city":"Zhob, Balochistan","longitude":"69.4486","latitude":"31.3417","id":48529,"country":"Pakistan"},{"latitude":"51.7502","country":"Kazakhstan","city":"Zholymbet, Aqmola","longitude":"71.7099","id":48530},{"city":"Zhongba, Sichuan","longitude":"104.7550","latitude":"31.7710","id":48531,"country":"China"},{"longitude":"107.8883","city":"Zhongbai, Guizhou","id":48532,"latitude":"26.7723","country":"China"},{"country":"Taiwan","city":"Zhongbu, Chiayi","latitude":"23.4082","longitude":"120.5343","id":48533},{"longitude":"103.9773","id":48534,"latitude":"28.5973","city":"Zhongcheng, Yunnan","country":"China"},{"country":"China","longitude":"107.9791","latitude":"35.3615","city":"Zhongcun, Gansu","id":48535},{"country":"China","longitude":"107.8331","city":"Zhongdong Shequ, Guangxi","latitude":"22.8317","id":48536},{"id":48537,"city":"Zhongguyue, Hebei","latitude":"38.2833","country":"China","longitude":"113.8667"},{"id":48538,"city":"Zhonghechang, Guizhou","latitude":"27.8886","country":"China","longitude":"107.2531"},{"city":"Zhongli, Taoyuan","latitude":"24.9650","id":48539,"longitude":"121.2168","country":"Taiwan"},{"country":"Taiwan","id":48540,"longitude":"120.7819","latitude":"23.9039","city":"Zhongliao, Nantou"},{"latitude":"28.9391","id":48541,"city":"Zhongling, Guizhou","country":"China","longitude":"107.7073"},{"country":"China","longitude":"105.8771","latitude":"34.9430","city":"Zhongshan, Gansu","id":48542},{"city":"Zhongshan, Guangdong","latitude":"22.5170","longitude":"113.3925","id":48543,"country":"China"},{"latitude":"27.7919","city":"Zhongshu, Guizhou","longitude":"106.4013","id":48544,"country":"China"},{"country":"China","longitude":"107.6130","city":"Zhongtai, Gansu","id":48545,"latitude":"35.0675"},{"longitude":"116.5844","latitude":"40.2125","city":"Zhongtanying, Beijing","id":48546,"country":"China"},{"longitude":"115.2667","city":"Zhongwangzhuang, Hebei","latitude":"38.0333","country":"China","id":48547},{"longitude":"105.1968","latitude":"37.5002","id":48548,"city":"Zhongwei, Ningxia","country":"China"},{"city":"Zhongxiang, Hubei","latitude":"31.1690","id":48549,"longitude":"112.5853","country":"China"},{"id":48550,"latitude":"26.6877","city":"Zhongzai, Guizhou","longitude":"105.6548","country":"China"},{"city":"Zhongzhai, Guizhou","latitude":"25.7783","country":"China","id":48551,"longitude":"107.8665"},{"latitude":"45.4893","city":"Zhosaly, Qyzylorda","country":"Kazakhstan","longitude":"64.0915","id":48552},{"country":"China","longitude":"108.0347","id":48553,"city":"Zhoujia, Gansu","latitude":"35.2976"},{"id":48554,"latitude":"31.1116","country":"China","city":"Zhoujiajing, Jiangsu","longitude":"121.0518"},{"country":"China","id":48555,"longitude":"114.6418","city":"Zhoukou, Henan","latitude":"33.6250"},{"latitude":"29.9856","city":"Zhoushan, Zhejiang","id":48556,"country":"China","longitude":"122.2074"},{"city":"Zhovkva, Lvivska Oblast","latitude":"50.0550","country":"Ukraine","id":48557,"longitude":"23.9767"},{"country":"Ukraine","city":"Zhovti Vody, Dnipropetrovska Oblast","latitude":"48.3500","id":48558,"longitude":"33.5000"},{"longitude":"122.9670","id":48559,"city":"Zhuanghe, Liaoning","latitude":"39.6810","country":"China"},{"latitude":"24.7702","id":48560,"city":"Zhuangwei, Yilan","country":"Taiwan","longitude":"121.8023"},{"id":48561,"longitude":"120.8290","latitude":"37.3056","country":"China","city":"Zhuangyuan, Shandong"},{"latitude":"24.8333","longitude":"121.0119","id":48562,"country":"Taiwan","city":"Zhubei, Hsinchu"},{"latitude":"40.1759","longitude":"119.5909","country":"China","id":48563,"city":"Zhucaoying, Hebei"},{"country":"China","id":48564,"longitude":"106.5485","latitude":"26.6615","city":"Zhuchangba, Guizhou"},{"id":48565,"country":"Taiwan","city":"Zhudong, Hsinchu","latitude":"24.7366","longitude":"121.0916"},{"city":"Zhufeng, Shandong","id":48566,"latitude":"36.0000","longitude":"119.4167","country":"China"},{"longitude":"121.2264","country":"China","id":48567,"city":"Zhugang, Zhejiang","latitude":"28.1358"},{"country":"China","city":"Zhuhai, Guangdong","longitude":"113.5769","id":48568,"latitude":"22.2716"},{"country":"China","city":"Zhuji, Zhejiang","longitude":"120.2333","latitude":"29.7167","id":48569},{"id":48570,"longitude":"104.3893","country":"China","latitude":"26.3164","city":"Zhujiacun, Yunnan"},{"latitude":"38.2242","id":48571,"country":"China","city":"Zhujiagua, Shaanxi","longitude":"110.4032"},{"country":"China","city":"Zhujiezhen, Yunnan","latitude":"23.7444","longitude":"104.9008","id":48572},{"country":"Russia","id":48573,"longitude":"33.7333","city":"Zhukovka, Bryanskaya Oblast’","latitude":"53.5333"},{"country":"Russia","latitude":"55.0333","city":"Zhukovo, Kaluzhskaya Oblast’","longitude":"36.7500","id":48574},{"id":48575,"latitude":"55.5972","country":"Russia","longitude":"38.1203","city":"Zhukovskiy, Moskovskaya Oblast’"},{"country":"China","longitude":"114.0220","id":48576,"city":"Zhumadian, Henan","latitude":"33.0140"},{"latitude":"24.6833","longitude":"120.8833","city":"Zhunan, Miaoli","country":"Taiwan","id":48577},{"country":"Taiwan","city":"Zhuolan, Miaoli","longitude":"120.8447","id":48578,"latitude":"24.3222"},{"longitude":"115.2150","country":"China","id":48579,"latitude":"40.3753","city":"Zhuolu, Hebei"},{"city":"Zhuozhou, Hebei","latitude":"39.4850","country":"China","longitude":"115.9740","id":48580},{"longitude":"120.6021","city":"Zhuqi, Chiayi","id":48581,"country":"Taiwan","latitude":"23.5065"},{"latitude":"42.1639","country":"Kosovo","longitude":"20.6211","id":48582,"city":"Zhur, Prizren"},{"latitude":"23.6889","city":"Zhushan, Nantou","longitude":"120.7289","country":"Taiwan","id":48583},{"city":"Zhutailing, Hunan","country":"China","latitude":"27.4028","longitude":"113.0614","id":48584},{"latitude":"23.8528","longitude":"120.4114","city":"Zhutang, Changhua","id":48585,"country":"Taiwan"},{"city":"Zhutian, Pingtung","latitude":"22.5890","longitude":"120.5303","id":48586,"country":"Taiwan"},{"id":48587,"city":"Zhuzhou, Hunan","longitude":"113.1330","country":"China","latitude":"27.8290"},{"latitude":"49.3850","country":"Ukraine","id":48588,"city":"Zhydachiv, Lvivska Oblast","longitude":"24.1444"},{"country":"Belarus","longitude":"27.8667","city":"Zhytkavichy, Homyel’skaya Voblasts’","id":48589,"latitude":"52.2333"},{"country":"Ukraine","city":"Zhytomyr, Zhytomyrska Oblast","latitude":"50.2500","longitude":"28.6667","id":48590},{"latitude":"36.6667","id":48591,"country":"Algeria","longitude":"5.4833","city":"Ziama Mansouria, Bejaïa"},{"city":"Ziar nad Hronom, Banská Bystrica","longitude":"18.8608","id":48592,"country":"Slovakia","latitude":"48.5842"},{"city":"Ziarat, Balochistan","latitude":"30.3810","country":"Pakistan","longitude":"67.7270","id":48593},{"latitude":"36.8138","country":"China","longitude":"118.0550","id":48594,"city":"Zibo, Shandong"},{"longitude":"15.5000","city":"Zielona Gora, Lubuskie","country":"Poland","latitude":"51.9333","id":48595},{"city":"Zielonka, Mazowieckie","latitude":"52.3008","longitude":"21.1586","id":48596,"country":"Poland"},{"country":"Netherlands","longitude":"3.9164","latitude":"51.6497","city":"Zierikzee, Zeeland","id":48597},{"latitude":"30.7142","country":"Egypt","longitude":"31.2443","id":48598,"city":"Zifta, Al Gharbīyah"},{"id":48599,"city":"Zighout Youcef, Constantine","latitude":"36.5333","longitude":"6.7167","country":"Algeria"},{"latitude":"18.3385","country":"Burma","longitude":"95.6230","id":48600,"city":"Zigon, Bago"},{"longitude":"104.7790","latitude":"29.3390","city":"Zigong, Sichuan","id":48601,"country":"China"},{"city":"Ziguinchor, Ziguinchor","country":"Senegal","latitude":"12.5833","id":48602,"longitude":"-16.2667"},{"longitude":"-101.5511","city":"Zihuatanejo, Guerrero","id":48603,"country":"Mexico","latitude":"17.6444"},{"country":"China","latitude":"34.7667","id":48604,"city":"Zijinglu, Henan","longitude":"112.9667"},{"longitude":"99.9867","id":48605,"city":"Ziketan, Qinghai","latitude":"35.5886","country":"China"},{"city":"Zile, Tokat","longitude":"35.8833","latitude":"40.3000","id":48606,"country":"Turkey"},