{"cities":[{"country":"Algeria","city":"I-n-Amenas, Illizi","id":18057,"latitude":"28.0408","longitude":"9.5431"},{"longitude":"5.1647","id":18058,"city":"I-n-Amguel, Tamanrasset","latitude":"23.6936","country":"Algeria"},{"id":18059,"city":"I-n-Salah, In Salah","country":"Algeria","latitude":"27.1950","longitude":"2.4833"},{"longitude":"4.6194","city":"IJmuiden, Noord-Holland","id":18060,"country":"Netherlands","latitude":"52.4586"},{"longitude":"5.0333","country":"Netherlands","city":"IJsselstein, Utrecht","latitude":"52.0167","id":18061},{"longitude":"37.0463","city":"I`zaz, Ḩalab","id":18062,"latitude":"36.5866","country":"Syria"},{"city":"Iaboutene, Tanger-Tétouan-Al Hoceïma","latitude":"35.0670","id":18063,"country":"Morocco","longitude":"-3.9670"},{"city":"Iacanga, São Paulo","longitude":"-49.0247","country":"Brazil","id":18064,"latitude":"-21.8900"},{"city":"Iaciara, Goiás","latitude":"-14.1106","longitude":"-46.6267","id":18065,"country":"Brazil"},{"latitude":"-12.7669","id":18066,"longitude":"-40.2119","country":"Brazil","city":"Iacu, Bahia"},{"country":"Madagascar","city":"Iakora, Fianarantsoa","latitude":"-23.1000","longitude":"46.6500","id":18067},{"id":18068,"latitude":"46.9500","longitude":"28.7833","city":"Ialoveni, Ialoveni","country":"Moldova"},{"latitude":"36.4167","country":"Greece","city":"Ialysos, Nótio Aigaío","longitude":"28.1500","id":18069},{"city":"Ianantsony, Toliara","longitude":"43.7667","id":18070,"latitude":"-23.5500","country":"Madagascar"},{"country":"Madagascar","latitude":"-23.6167","id":18071,"longitude":"45.1333","city":"Ianapera, Toliara"},{"city":"Ianca, Brăila","latitude":"45.1350","longitude":"27.4747","id":18072,"country":"Romania"},{"latitude":"-19.4333","id":18073,"city":"Iapu, Minas Gerais","country":"Brazil","longitude":"-42.2167"},{"city":"Iara, Fianarantsoa","longitude":"47.4333","id":18074,"latitude":"-23.0833","country":"Madagascar"},{"country":"Madagascar","latitude":"-18.9167","longitude":"47.4000","id":18075,"city":"Iarinarivo, Antananarivo"},{"city":"Iarintsena, Fianarantsoa","country":"Madagascar","id":18076,"longitude":"46.8667","latitude":"-21.8167"},{"latitude":"22.2998","city":"Iarpur, West Bengal","longitude":"88.2994","country":"India","id":18077},{"id":18078,"longitude":"27.5889","country":"Romania","latitude":"47.1622","city":"Iasi, Iaşi"},{"longitude":"-36.8500","country":"Brazil","id":18079,"city":"Iati, Pernambuco","latitude":"-9.0500"},{"city":"Iawar, Madhya Pradesh","country":"India","id":18080,"longitude":"76.5007","latitude":"23.0094"},{"city":"Iazizatene, Oriental","longitude":"-3.1150","latitude":"35.2544","country":"Morocco","id":18081},{"longitude":"119.9800","id":18082,"country":"Philippines","city":"Iba, Zambales","latitude":"15.3300"},{"country":"Philippines","longitude":"121.1330","latitude":"13.8176","city":"Ibaan, Batangas","id":18083},{"country":"Nigeria","id":18084,"city":"Ibadan, Oyo","longitude":"3.9167","latitude":"7.3964"},{"country":"Colombia","latitude":"4.4333","city":"Ibague, Tolima","longitude":"-75.2333","id":18085},{"country":"Brazil","longitude":"-50.1667","id":18086,"city":"Ibaiti, Paraná","latitude":"-23.8333"},{"id":18087,"latitude":"11.8211","country":"Philippines","city":"Ibajay, Aklan","longitude":"122.1617"},{"latitude":"-0.1347","longitude":"30.4950","id":18088,"country":"Uganda","city":"Ibanda, Ibanda"},{"longitude":"133.4667","city":"Ibara, Okayama","latitude":"34.6000","country":"Japan","id":18089},{"longitude":"140.4245","latitude":"36.2869","city":"Ibaraki, Ibaraki","id":18090,"country":"Japan"},{"latitude":"34.8164","city":"Ibaraki, Ōsaka","longitude":"135.5686","country":"Japan","id":18091},{"longitude":"-38.8833","city":"Ibaretama, Ceará","latitude":"-4.8667","country":"Brazil","id":18092},{"id":18093,"city":"Ibarra, Imbabura","latitude":"0.3627","longitude":"-78.1307","country":"Ecuador"},{"id":18094,"longitude":"-47.9969","latitude":"-21.9550","city":"Ibate, São Paulo","country":"Brazil"},{"latitude":"-8.9728","longitude":"-35.9389","id":18095,"country":"Brazil","city":"Ibateguara, Alagoas"},{"longitude":"-41.5092","country":"Brazil","city":"Ibatiba, Espírito Santo","latitude":"-20.2364","id":18096},{"country":"Yemen","id":18097,"latitude":"13.9667","city":"Ibb, Ibb","longitude":"44.1667"},{"longitude":"44.1709","id":18098,"country":"Yemen","city":"Ibb, Ibb","latitude":"13.9759"},{"longitude":"7.7167","country":"Germany","id":18099,"city":"Ibbenburen, North Rhine-Westphalia","latitude":"52.2778"},{"id":18100,"city":"Ibi, Valencia","longitude":"-0.5753","country":"Spain","latitude":"38.6272"},{"longitude":"-46.5389","country":"Brazil","latitude":"-19.4778","city":"Ibia, Minas Gerais","id":18101},{"city":"Ibiapina, Ceará","longitude":"-40.8889","id":18102,"country":"Brazil","latitude":"-3.9228"},{"id":18103,"longitude":"-42.2833","city":"Ibiassuce, Bahia","country":"Brazil","latitude":"-14.2833"},{"country":"Brazil","latitude":"-14.8500","longitude":"-39.6000","id":18104,"city":"Ibicarai, Bahia"},{"id":18105,"longitude":"-41.3000","latitude":"-13.4000","country":"Brazil","city":"Ibicoara, Bahia"},{"id":18106,"latitude":"-14.8500","country":"Brazil","city":"Ibicui, Bahia","longitude":"-39.9833"},{"city":"Ibicuitinga, Ceará","longitude":"-38.6500","country":"Brazil","latitude":"-4.9833","id":18107},{"country":"Japan","city":"Ibigawa, Gifu","longitude":"136.5686","id":18108,"latitude":"35.4873"},{"city":"Ibimirim, Pernambuco","id":18109,"longitude":"-37.7000","latitude":"-8.5333","country":"Brazil"},{"latitude":"-11.6333","city":"Ibipeba, Bahia","longitude":"-42.0333","country":"Brazil","id":18110},{"city":"Ibipetuba, Bahia","id":18111,"latitude":"-11.0000","longitude":"-44.5333","country":"Brazil"},{"id":18112,"latitude":"-12.9000","city":"Ibipitanga, Bahia","longitude":"-42.5000","country":"Brazil"},{"country":"Brazil","longitude":"-51.0500","id":18113,"city":"Ibipora, Paraná","latitude":"-23.2833"},{"latitude":"-21.0803","id":18114,"country":"Brazil","longitude":"-49.2392","city":"Ibira, São Paulo"},{"country":"Brazil","longitude":"-47.1219","latitude":"-20.4619","id":18115,"city":"Ibiraci, Minas Gerais"},{"latitude":"-19.8319","country":"Brazil","longitude":"-40.3700","id":18116,"city":"Ibiracu, Espírito Santo"},{"country":"Brazil","latitude":"-27.0667","city":"Ibirama, Santa Catarina","longitude":"-49.5167","id":18117},{"longitude":"-39.3725","latitude":"-14.1625","id":18118,"country":"Brazil","city":"Ibirapitanga, Bahia"},{"id":18119,"country":"Brazil","city":"Ibirapua, Bahia","latitude":"-17.6500","longitude":"-40.1167"},{"latitude":"-14.0667","country":"Brazil","id":18120,"city":"Ibirataia, Bahia","longitude":"-39.6333"},{"city":"Ibirite, Minas Gerais","latitude":"-20.0219","longitude":"-44.0589","country":"Brazil","id":18121},{"longitude":"-53.1000","country":"Brazil","id":18122,"city":"Ibiruba, Rio Grande do Sul","latitude":"-28.6333"},{"city":"Ibitiara, Bahia","longitude":"-42.2178","latitude":"-12.6519","id":18123,"country":"Brazil"},{"city":"Ibitinga, São Paulo","country":"Brazil","latitude":"-21.7578","id":18124,"longitude":"-48.8289"},{"city":"Ibitita, Bahia","country":"Brazil","latitude":"-11.5667","longitude":"-41.9667","id":18125},{"country":"Brazil","city":"Ibiuna, São Paulo","longitude":"-47.2225","latitude":"-23.6564","id":18126},{"city":"Ibiza, Balearic Islands","latitude":"38.9089","longitude":"1.4328","id":18127,"country":"Spain"},{"country":"Brazil","longitude":"-43.2208","id":18128,"city":"Ibotirama, Bahia","latitude":"-12.1850"},{"city":"Ibra', Shamāl ash Sharqīyah","id":18129,"country":"Oman","longitude":"58.5500","latitude":"22.6833"},{"city":"Ibrahimpatan, Telangāna","id":18130,"country":"India","longitude":"78.6294","latitude":"17.1017"},{"latitude":"16.5830","country":"India","city":"Ibrahimpatnam, Andhra Pradesh","longitude":"80.5143","id":18131},{"city":"Ibshaway, Al Fayyūm","latitude":"29.4447","country":"Egypt","longitude":"30.7107","id":18132},{"longitude":"130.6331","city":"Ibusuki, Kagoshima","id":18133,"country":"Japan","latitude":"31.2528"},{"longitude":"-75.7333","latitude":"-14.0667","country":"Peru","city":"Ica, Ica","id":18134},{"city":"Icapui, Ceará","latitude":"-4.7128","id":18135,"country":"Brazil","longitude":"-37.3550"},{"latitude":"-28.7133","longitude":"-49.3000","id":18136,"country":"Brazil","city":"Icara, Santa Catarina"},{"country":"Brazil","longitude":"-53.6833","latitude":"-23.3833","id":18137,"city":"Icaraima, Paraná"},{"latitude":"-2.7758","country":"Brazil","city":"Icatu, Maranhão","longitude":"-44.0658","id":18138},{"country":"Korea","city":"Ich'on, KOR","latitude":"37.2667","id":18139,"longitude":"127.4333"},{"id":18140,"country":"India","city":"Ichalkaranji, Mahārāshtra","latitude":"16.7000","longitude":"74.4700"},{"latitude":"19.1200","country":"India","id":18141,"longitude":"84.7000","city":"Ichchapuram, Andhra Pradesh"},{"city":"Ichenhausen, Bavaria","longitude":"10.3167","country":"Germany","latitude":"48.3667","id":18142},{"city":"Ichhapur, Madhya Pradesh","latitude":"21.1551","longitude":"76.1556","country":"India","id":18143},{"latitude":"35.4981","longitude":"140.1154","country":"Japan","city":"Ichihara, Chiba","id":18144},{"latitude":"36.5500","longitude":"140.1000","city":"Ichikai, Tochigi","country":"Japan","id":18145},{"city":"Ichikawa, Chiba","latitude":"35.7219","id":18146,"longitude":"139.9311","country":"Japan"},{"country":"Japan","id":18147,"city":"Ichikawa, Hyōgo","latitude":"34.9833","longitude":"134.7667"},{"latitude":"35.5653","country":"Japan","city":"Ichikawamisato, Yamanashi","longitude":"138.5025","id":18148},{"latitude":"31.7167","city":"Ichikikushikino, Kagoshima","country":"Japan","longitude":"130.2667","id":18149},{"city":"Ichinohe, Iwate","latitude":"40.2129","id":18150,"longitude":"141.2954","country":"Japan"},{"city":"Ichinomiya, Aichi","country":"Japan","longitude":"136.8031","id":18151,"latitude":"35.3039"},{"country":"Japan","latitude":"35.3667","id":18152,"longitude":"140.3667","city":"Ichinomiya, Chiba"},{"longitude":"141.1266","city":"Ichinoseki, Iwate","country":"Japan","id":18153,"latitude":"38.9347"},{"id":18154,"country":"Ukraine","city":"Ichnia, Chernihivska Oblast","latitude":"50.8500","longitude":"32.4000"},{"country":"India","latitude":"19.4333","longitude":"78.4667","id":18155,"city":"Ichora, Telangāna"},{"country":"Belgium","id":18156,"latitude":"51.0928","city":"Ichtegem, Flanders","longitude":"3.0106"},{"id":18157,"longitude":"-0.4484","city":"Ickenham, Hillingdon","country":"United Kingdom","latitude":"51.5580"},{"country":"Brazil","latitude":"-6.4008","longitude":"-38.8619","city":"Ico, Ceará","id":18158},{"latitude":"28.3500","longitude":"-16.7000","id":18159,"city":"Icod de los Vinos, Canary Islands","country":"Spain"},{"country":"Brazil","latitude":"-20.7928","city":"Iconha, Espírito Santo","longitude":"-40.8108","id":18160},{"id":18161,"latitude":"4.1833","country":"Colombia","longitude":"-74.5333","city":"Icononzo, Tolima"},{"id":18162,"longitude":"6.7433","country":"Nigeria","latitude":"7.0978","city":"Idah, Kogi"},{"longitude":"-112° 01' 58\"","country":"United States","id":18163,"city":"Idaho Falls, Idaho","latitude":" 43° 29' 30\""},{"country":"Pakistan","city":"Idak, Khyber Pakhtunkhwa","latitude":"32.9741","longitude":"70.1988","id":18164},{"longitude":"77.9890","country":"India","city":"Idangansalai, Tamil Nādu","latitude":"11.6272","id":18165},{"longitude":"-7.2333","city":"Idanha-a-Nova, Castelo Branco","country":"Portugal","latitude":"39.9167","id":18166},{"id":18167,"country":"Nigeria","city":"Idanre, Ondo","latitude":"7.0922","longitude":"5.1322"},{"longitude":"77.8341","latitude":"11.5835","city":"Idappadi, Tamil Nādu","id":18168,"country":"India"},{"country":"India","city":"Idar, Gujarāt","latitude":"23.8390","longitude":"73.0020","id":18169},{"latitude":"24.9778","id":18170,"city":"Idfu, Aswān","country":"Egypt","longitude":"32.8733"},{"country":"West Bank","longitude":"34.9761","city":"Idhna, ","latitude":"31.5586","id":18171},{"id":18172,"country":"Benin","latitude":"7.4833","longitude":"2.7000","city":"Idigny, Plateau"},{"country":"Turkey","city":"Idil, Şırnak","latitude":"37.3410","id":18173,"longitude":"41.8940"},{"id":18174,"city":"Idiofa, Kwilu","longitude":"19.5910","country":"Congo (Kinshasa)","latitude":"-4.9668"},{"country":"Egypt","city":"Idku, Al Buḩayrah","latitude":"31.3000","longitude":"30.3000","id":18175},{"country":"Syria","latitude":"35.9333","longitude":"36.6333","id":18176,"city":"Idlib, Idlib"},{"city":"Idri, Wādī ash Shāţi’","latitude":"27.4471","country":"Libya","longitude":"13.0517","id":18177},{"longitude":"14.0275","id":18178,"city":"Idrija, Idrija","latitude":"46.0025","country":"Slovenia"},{"country":"Germany","latitude":"50.2206","city":"Idstein, Hesse","longitude":"8.2742","id":18179},{"id":18180,"country":"India","city":"Idukki, Kerala","latitude":"9.8500","longitude":"76.9700"},{"id":18181,"latitude":"10.4224","longitude":"79.6001","country":"India","city":"Idumbavanam, Tamil Nādu"},{"longitude":"80.7543","id":18182,"country":"India","city":"Idupugallu, Andhra Pradesh","latitude":"16.4609"},{"id":18183,"country":"United States","latitude":"38.8896","city":"Idylwood, Virginia","longitude":"-77.2056"},{"country":"Brazil","latitude":"-5.8167","city":"Ielmo Marinho, Rio Grande do Norte","id":18184,"longitude":"-35.5500"},{"longitude":"2.8850","id":18185,"country":"Belgium","latitude":"50.8508","city":"Ieper, Flanders"},{"country":"Greece","latitude":"35.0117","city":"Ierapetra, Kríti","id":18186,"longitude":"25.7414"},{"id":18187,"country":"Italy","longitude":"13.2392","latitude":"43.5236","city":"Iesi, Marche"},{"id":18188,"country":"Italy","longitude":"12.6408","latitude":"45.5339","city":"Iesolo, Veneto"},{"city":"Ifakara, Morogoro","longitude":"36.6833","latitude":"-8.1000","id":18189,"country":"Tanzania"},{"id":18190,"country":"Madagascar","longitude":"47.6333","city":"Ifanadiana, Fianarantsoa","latitude":"-21.3000"},{"id":18191,"country":"Benin","city":"Ifanhim, Plateau","latitude":"6.6667","longitude":"2.7167"},{"country":"Madagascar","longitude":"47.4667","latitude":"-22.1833","id":18192,"city":"Ifanirea, Fianarantsoa"},{"country":"Madagascar","latitude":"-24.9333","longitude":"46.8500","city":"Ifarantsa, Toliara","id":18193},{"city":"Ifatsy, Fianarantsoa","latitude":"-22.4000","longitude":"47.7500","id":18194,"country":"Madagascar"},{"id":18195,"city":"Iferhounene, Tizi Ouzou","longitude":"4.3833","latitude":"36.5167","country":"Algeria"},{"country":"United Kingdom","id":18196,"city":"Ifield, West Sussex","latitude":"51.1234","longitude":"-0.2073"},{"latitude":"36.6667","country":"Algeria","longitude":"4.4167","city":"Ifigha, Tizi Ouzou","id":18197},{"longitude":"4.2203","id":18198,"city":"Iflissen, Tizi Ouzou","country":"Algeria","latitude":"36.8636"},{"latitude":"33.5333","id":18199,"longitude":"-5.1167","country":"Morocco","city":"Ifrane, Fès-Meknès"},{"id":18200,"latitude":"49.1389","city":"Ifs, Normandie","longitude":"-0.3519","country":"France"},{"longitude":"14.5394","latitude":"45.9692","country":"Slovenia","id":18201,"city":"Ig, Ig"},{"country":"Japan","longitude":"136.1333","city":"Iga, Mie","id":18202,"latitude":"34.7667"},{"latitude":"-9.5369","city":"Igaci, Alagoas","id":18203,"country":"Brazil","longitude":"-36.6336"},{"id":18204,"longitude":"2.7000","country":"Benin","city":"Igana, Plateau","latitude":"7.0333"},{"city":"Iganga, Iganga","country":"Uganda","latitude":"0.6150","longitude":"33.4850","id":18205},{"country":"Brazil","id":18206,"latitude":"-13.7667","city":"Igapora, Bahia","longitude":"-42.7167"},{"id":18207,"country":"Brazil","city":"Igaracu do Tiete, São Paulo","latitude":"-22.5092","longitude":"-48.5578"},{"city":"Igarapava, São Paulo","latitude":"-20.0383","longitude":"-47.7469","country":"Brazil","id":18208},{"longitude":"-44.8528","id":18209,"city":"Igarape Grande, Maranhão","latitude":"-4.5850","country":"Brazil"},{"longitude":"-44.3019","country":"Brazil","id":18210,"city":"Igarape, Minas Gerais","latitude":"-20.0700"},{"country":"Brazil","city":"Igarape-Acu, Pará","longitude":"-47.6178","latitude":"-1.1269","id":18211},{"city":"Igarape-Miri, Pará","latitude":"-1.9833","id":18212,"country":"Brazil","longitude":"-48.9667"},{"longitude":"-34.9064","country":"Brazil","id":18213,"latitude":"-7.8342","city":"Igarassu, Pernambuco"},{"country":"Brazil","city":"Igarata, São Paulo","latitude":"-23.2044","longitude":"-46.1561","id":18214},{"latitude":"-19.9333","country":"Brazil","longitude":"-44.7000","city":"Igaratinga, Minas Gerais","id":18215},{"country":"Russia","longitude":"86.5833","id":18216,"city":"Igarka, Krasnoyarskiy Kray","latitude":"67.4667"},{"country":"Nigeria","id":18217,"latitude":"6.3869","longitude":"6.1647","city":"Igbanke, Edo"},{"latitude":"10.7200","country":"Philippines","longitude":"122.2700","id":18218,"city":"Igbaras, Iloilo"},{"id":18219,"country":"Nigeria","city":"Igboho, Oyo","latitude":"8.8333","longitude":"3.7500"},{"country":"Turkey","latitude":"39.9208","id":18220,"city":"Igdir, Iğdır","longitude":"44.0444"},{"city":"Ighram, Tizi Ouzou","id":18221,"longitude":"4.5167","country":"Algeria","latitude":"36.4667"},{"id":18222,"country":"Morocco","city":"Ighrem n'Ougdal, Drâa-Tafilalet","latitude":"31.2333","longitude":"-7.4333"},{"id":18223,"longitude":"8.5333","city":"Iglesias, Sardegna","latitude":"39.3167","country":"Italy"},{"country":"Russia","city":"Iglino, Bashkortostan","longitude":"56.4231","id":18224,"latitude":"54.8383"},{"city":"Ignace, Ontario","country":"Canada","latitude":" 49° 25' 00\"","longitude":"-91° 40' 00\"","id":18225},{"latitude":"18.6618","country":"Mexico","city":"Ignacio de la Llave, Veracruz","longitude":"-95.9721","id":18226},{"city":"Ignalina, Ignalina","id":18227,"longitude":"26.1667","country":"Lithuania","latitude":"55.3500"},{"city":"Igny, Île-de-France","country":"France","id":18228,"latitude":"48.7421","longitude":"2.2261"},{"city":"Igrapiuna, Bahia","longitude":"-39.1500","id":18229,"latitude":"-13.8167","country":"Brazil"},{"city":"Igreja Nova, Alagoas","latitude":"-10.1253","longitude":"-36.6619","country":"Brazil","id":18230},{"id":18231,"latitude":"15.0339","city":"Igreja, Mosteiros","country":"Cabo Verde","longitude":"-24.3250"},{"city":"Igrejinha, Rio Grande do Sul","country":"Brazil","latitude":"-29.5739","longitude":"-50.7900","id":18232},{"country":"Russia","longitude":"64.4194","id":18233,"city":"Igrim, Khanty-Mansiyskiy Avtonomnyy Okrug-Yugra","latitude":"63.1933"},{"id":18234,"country":"Brazil","longitude":"-42.2289","latitude":"-22.8389","city":"Iguaba Grande, Rio de Janeiro"},{"latitude":"-22.7400","id":18235,"longitude":"-43.4700","country":"Brazil","city":"Iguacu, Rio de Janeiro"},{"id":18236,"longitude":"-40.0667","country":"Brazil","latitude":"-14.7500","city":"Iguai, Bahia"},{"city":"Iguala de la Independencia, Guerrero","latitude":"18.3450","id":18237,"longitude":"-99.5383","country":"Mexico"},{"city":"Igualada, Catalonia","id":18238,"country":"Spain","latitude":"41.5833","longitude":"1.6167"},{"longitude":"-47.5553","latitude":"-24.7081","country":"Brazil","city":"Iguape, São Paulo","id":18239},{"id":18240,"country":"Brazil","city":"Iguaraci, Pernambuco","latitude":"-7.8333","longitude":"-37.5333"},{"id":18241,"country":"Brazil","city":"Iguatemi, Mato Grosso do Sul","latitude":"-23.6800","longitude":"-54.5608"},{"country":"Brazil","longitude":"-39.2989","id":18242,"city":"Iguatu, Ceará","latitude":"-6.3589"},{"latitude":"30.7467","city":"Iguidiy, Souss-Massa","country":"Morocco","longitude":"-7.9267","id":18243},{"country":"Philippines","latitude":"17.7517","id":18244,"city":"Iguig, Cagayan","longitude":"121.7364"},{"city":"Ihaddadene, Marrakech-Safi","latitude":"31.2000","longitude":"-9.6500","country":"Morocco","id":18245},{"id":18246,"latitude":"-13.3500","city":"Iharana, Antsiranana","country":"Madagascar","longitude":"50.0000"},{"id":18247,"country":"Morocco","latitude":"35.1500","longitude":"-2.9667","city":"Iheddadene, Oriental"},{"city":"Ihnasya al Madinah, Banī Suwayf","id":18248,"latitude":"29.0833","longitude":"30.9333","country":"Egypt"},{"latitude":"-23.0000","country":"Madagascar","city":"Ihorombe, Fianarantsoa","longitude":"47.5333","id":18249},{"id":18250,"latitude":"-22.4036","country":"Madagascar","city":"Ihosy, Fianarantsoa","longitude":"46.1258"},{"latitude":"39.0333","id":18251,"city":"Ihsaniye, Afyonkarahisar","longitude":"30.4167","country":"Turkey"},{"id":18252,"city":"Ihtiman, Sofia","country":"Bulgaria","longitude":"23.8167","latitude":"42.4333"},{"latitude":"-6.1667","country":"Tanzania","id":18253,"city":"Ihumwa, Dodoma","longitude":"35.8833"},{"country":"Finland","city":"Ii, Pohjois-Pohjanmaa","longitude":"25.3667","id":18254,"latitude":"65.3167"},{"country":"Japan","city":"Iida, Nagano","id":18255,"latitude":"35.5150","longitude":"137.8214"},{"country":"Japan","city":"Iijima, Nagano","latitude":"35.6767","longitude":"137.9198","id":18256},{"city":"Iioka, Chiba","latitude":"35.7000","id":18257,"country":"Japan","longitude":"140.7167"},{"id":18258,"country":"Finland","latitude":"63.5567","city":"Iisalmi, Pohjois-Savo","longitude":"27.1883"},{"city":"Iiyama, Nagano","latitude":"36.8516","country":"Japan","longitude":"138.3655","id":18259},{"city":"Iizuka, Fukuoka","latitude":"33.6500","longitude":"130.6833","country":"Japan","id":18260},{"id":18261,"country":"Japan","latitude":"36.7548","city":"Iizuna, Nagano","longitude":"138.2355"},{"longitude":"3.9208","city":"Ijebu-Ode, Ogun","latitude":"6.8208","country":"Nigeria","id":18262},{"country":"Armenia","latitude":"40.8792","longitude":"45.1472","city":"Ijevan, Tavush","id":18263},{"latitude":"26.3119","longitude":"86.0037","id":18264,"city":"Ijra, Bihār","country":"India"},{"country":"Nigeria","latitude":"6.6107","city":"Iju, Ogun","id":18265,"longitude":"3.0857"},{"longitude":"-53.9150","id":18266,"city":"Ijui, Rio Grande do Sul","country":"Brazil","latitude":"-28.3878"},{"longitude":"46.5833","country":"Madagascar","id":18267,"latitude":"-21.1500","city":"Ikalamavony, Fianarantsoa"},{"id":18268,"country":"Nigeria","latitude":"7.5167","longitude":"5.7500","city":"Ikare, Ondo"},{"latitude":"34.6167","city":"Ikaruga, Nara","country":"Japan","longitude":"135.7333","id":18269},{"longitude":"9.1500","latitude":"56.1333","city":"Ikast, Midtjylland","country":"Denmark","id":18270},{"latitude":"35.4423","country":"Japan","longitude":"136.5730","id":18271,"city":"Ikeda, Gifu"},{"id":18272,"country":"Japan","city":"Ikeda, Hyōgo","latitude":"34.8217","longitude":"135.4286"},{"longitude":"137.8746","country":"Japan","id":18273,"latitude":"36.4212","city":"Ikeda, Nagano"},{"longitude":"3.3500","country":"Nigeria","id":18274,"city":"Ikeja, Lagos","latitude":"6.6000"},{"latitude":"-1.1833","city":"Ikela, Tshuapa","country":"Congo (Kinshasa)","longitude":"23.2667","id":18275},{"country":"India","city":"Ikhlaspur, Bihār","latitude":"25.0589","longitude":"83.6083","id":18276},{"country":"Japan","latitude":"33.7497","id":18277,"longitude":"129.6914","city":"Iki, Nagasaki"},{"country":"Turkey","city":"Ikizce, Ordu","id":18278,"latitude":"41.0531","longitude":"37.0769"},{"latitude":"13.1724","country":"India","city":"Ikkadu, Tamil Nādu","longitude":"79.9358","id":18279},{"country":"India","id":18280,"latitude":"10.9669","city":"Ikkarai Boluvampatti, Tamil Nādu","longitude":"76.7996"},{"longitude":"14.4544","latitude":"35.9042","country":"Malta","city":"Iklin, Iklin","id":18281},{"city":"Iklod, Madhya Pradesh","id":18282,"country":"India","latitude":"26.0222","longitude":"77.3208"},{"id":18283,"city":"Ikniwn, Drâa-Tafilalet","latitude":"31.1736","country":"Morocco","longitude":"-5.6733"},{"country":"Nigeria","latitude":"6.0833","longitude":"8.6167","city":"Ikom, Cross River","id":18284},{"city":"Ikoma, Nara","country":"Japan","latitude":"34.7000","id":18285,"longitude":"135.7000"},{"country":"Madagascar","latitude":"-21.8833","longitude":"47.4333","city":"Ikongo, Fianarantsoa","id":18286},{"city":"Ikot Abasi, Akwa Ibom","latitude":"4.5704","country":"Nigeria","longitude":"7.5600","id":18287},{"latitude":"5.1833","longitude":"7.7167","country":"Nigeria","city":"Ikot Ekpene, Akwa Ibom","id":18288},{"city":"Ikot Okoro, Akwa Ibom","longitude":"7.7167","latitude":"4.9000","id":18289,"country":"Nigeria"},{"longitude":"33.1089","country":"South Sudan","city":"Ikoto, Eastern Equatoria","latitude":"4.0783","id":18290},{"id":18291,"city":"Ikryanoye, Astrakhanskaya Oblast’","latitude":"46.1000","longitude":"47.7333","country":"Russia"},{"country":"Korea","longitude":"126.9544","id":18292,"city":"Iksan, KOR","latitude":"35.9439"},{"city":"Il'pyrskiy, Kamchatskiy Kray","country":"Russia","id":18293,"latitude":"59.9600","longitude":"164.2000"},{"city":"Ilafy, Toamasina","country":"Madagascar","longitude":"48.4167","id":18294,"latitude":"-17.8833"},{"city":"Ilagan, Isabela","id":18295,"longitude":"121.8894","latitude":"17.1489","country":"Philippines"},{"id":18296,"country":"India","latitude":"9.6271","city":"Ilaiyankudi, Tamil Nādu","longitude":"78.6247"},{"country":"Madagascar","latitude":"-19.5531","longitude":"48.8408","id":18297,"city":"Ilaka Atsinanana, Toamasina"},{"country":"Madagascar","city":"Ilakatra, Fianarantsoa","latitude":"-22.3500","id":18298,"longitude":"47.6667"},{"country":"Nepal","city":"Ilam, ","id":18299,"latitude":"26.9080","longitude":"87.9260"},{"id":18300,"longitude":"46.4227","latitude":"33.6374","country":"Iran","city":"Ilam, Īlām"},{"latitude":"20.7833","country":"Mexico","id":18301,"longitude":"-98.4500","city":"Ilamatlan, Veracruz"},{"id":18302,"city":"Ilami, Jhārkhand","longitude":"87.8804","country":"India","latitude":"24.6776"},{"longitude":"78.0068","id":18303,"country":"India","city":"Ilampillai, Tamil Nādu","latitude":"11.6066"},{"city":"Ilarionove, Dnipropetrovska Oblast","id":18304,"latitude":"48.4092","longitude":"35.2753","country":"Ukraine"},{"longitude":"-69.6383","id":18305,"country":"Peru","latitude":"-16.0836","city":"Ilave, Puno"},{"latitude":"53.5964","id":18306,"city":"Ilawa, Warmińsko-Mazurskie","country":"Poland","longitude":"19.5656"},{"latitude":"39.2187","longitude":"-76.7683","id":18307,"country":"United States","city":"Ilchester, Maryland"},{"city":"Ile-Ife, Osun","id":18308,"longitude":"4.5667","country":"Nigeria","latitude":"7.4667"},{"longitude":"-107° 53' 00\"","latitude":" 55° 27' 00\"","city":"Ile-a-la-Crosse, Saskatchewan","id":18309,"country":"Canada"},{"country":"Congo (Kinshasa)","latitude":"-4.3167","longitude":"20.6000","city":"Ilebo, Kasaï","id":18310},{"longitude":"-77.5167","id":18311,"latitude":"0.9667","city":"Iles, Nariño","country":"Colombia"},{"latitude":"7.6167","country":"Nigeria","city":"Ilesa, Osun","id":18312,"longitude":"4.7167"},{"longitude":"0.0858","country":"United Kingdom","city":"Ilford, Redbridge","latitude":"51.5575","id":18313},{"latitude":"51.2080","longitude":"-4.1200","city":"Ilfracombe, Devon","id":18314,"country":"United Kingdom"},{"city":"Ilgin, Konya","longitude":"31.9139","id":18315,"country":"Turkey","latitude":"38.2792"},{"id":18316,"latitude":"-20.4272","country":"Brazil","city":"Ilha Solteira, São Paulo","longitude":"-51.3436"},{"city":"Ilha de Mocambique, Nampula","country":"Mozambique","latitude":"-15.0367","longitude":"40.7328","id":18317},{"country":"Brazil","latitude":"-23.8150","id":18318,"longitude":"-45.3706","city":"Ilhabela, São Paulo"},{"city":"Ilhavo, Aveiro","country":"Portugal","longitude":"-8.6667","id":18319,"latitude":"40.6000"},{"country":"Brazil","longitude":"-39.0489","id":18320,"latitude":"-14.7889","city":"Ilheus, Bahia"},{"latitude":"-26.9000","country":"Brazil","city":"Ilhota, Santa Catarina","longitude":"-48.8667","id":18321},{"country":"Turkey","latitude":"39.4536","longitude":"38.5633","id":18322,"city":"Ilic, Erzincan"},{"id":18323,"country":"Turkey","city":"Ilicakoy, Antalya","latitude":"36.8219","longitude":"31.3672"},{"city":"Ilicinia, Minas Gerais","latitude":"-20.9333","longitude":"-45.8333","id":18324,"country":"Brazil"},{"latitude":"43.8167","id":18325,"country":"Bosnia and Herzegovina","city":"Ilidza, Bosnia and Herzegovina","longitude":"18.3000"},{"country":"Philippines","id":18326,"longitude":"124.2500","latitude":"8.2300","city":"Iligan, Iligan"},{"country":"Bosnia and Herzegovina","latitude":"43.9500","city":"Ilijas, Bosnia and Herzegovina","longitude":"18.2667","id":18327},{"latitude":"41.9945","id":18328,"city":"Ilinden, Ilinden","country":"North Macedonia","longitude":"21.5800"},{"country":"India","latitude":"32.1461","city":"Ilindu Kothi, Himāchal Pradesh","longitude":"76.2784","id":18329},{"city":"Ilion, Attikí","latitude":"38.0333","country":"Greece","longitude":"23.7000","id":18330},{"city":"Ilioupoli, Attikí","longitude":"23.7500","country":"Greece","id":18331,"latitude":"37.9333"},{"latitude":"45.5679","longitude":"14.2527","id":18332,"city":"Ilirska Bistrica, Ilirska Bistrica","country":"Slovenia"},{"id":18333,"city":"Ilkal, Karnātaka","country":"India","latitude":"15.9592","longitude":"76.1135"},{"city":"Ilkeston, Derbyshire","longitude":"-1.3092","country":"United Kingdom","id":18334,"latitude":"52.9711"},{"latitude":"37.9373","city":"Ilkhchi, Āz̄arbāyjān-e Sharqī","longitude":"45.9790","id":18335,"country":"Iran"},{"country":"Iran","city":"Ilkhechi, Āz̄arbāyjān-e Sharqī","latitude":"37.9378","longitude":"45.9803","id":18336},{"city":"Ilkley, Bradford","country":"United Kingdom","latitude":"53.9250","id":18337,"longitude":"-1.8220"},{"latitude":"-31.6333","longitude":"-71.1667","id":18338,"country":"Chile","city":"Illapel, Coquimbo"},{"country":"Germany","id":18339,"city":"Illertissen, Bavaria","longitude":"10.0833","latitude":"48.2167"},{"latitude":"40.1167","id":18340,"country":"Spain","city":"Illescas, Castille-La Mancha","longitude":"-3.8333"},{"id":18341,"longitude":"7.0333","country":"Germany","city":"Illingen, Saarland","latitude":"49.3667"},{"id":18342,"latitude":"49.1056","city":"Illintsi, Vinnytska Oblast","country":"Ukraine","longitude":"29.2089"},{"id":18343,"country":"Algeria","city":"Illizi, Illizi","latitude":"26.5050","longitude":"8.4822"},{"latitude":"48.5300","country":"France","id":18344,"city":"Illkirch-Graffenstaden, Grand Est","longitude":"7.7200"},{"city":"Illzach, Grand Est","country":"France","id":18345,"longitude":"7.3486","latitude":"47.7831"},{"city":"Ilmajoki, Etelä-Pohjanmaa","country":"Finland","id":18346,"latitude":"62.7333","longitude":"22.5833"},{"id":18347,"city":"Ilmenau, Thuringia","latitude":"50.6839","longitude":"10.9194","country":"Germany"},{"country":"Peru","longitude":"-71.3453","id":18348,"city":"Ilo, Moquegua","latitude":"-17.6459"},{"country":"El Salvador","id":18349,"latitude":"13.8400","city":"Ilobasco, Cabañas","longitude":"-88.8500"},{"country":"Nigeria","city":"Ilobu, Osun","latitude":"7.8400","id":18350,"longitude":"4.4860"},{"id":18351,"longitude":"122.7700","country":"Philippines","city":"Ilog, Negros Occidental","latitude":"10.0300"},{"city":"Iloilo, Iloilo","country":"Philippines","longitude":"122.5700","id":18352,"latitude":"10.7200"},{"city":"Ilopango, San Salvador","country":"El Salvador","latitude":"13.7000","longitude":"-89.1167","id":18353},{"country":"Nigeria","city":"Ilorin, Kwara","longitude":"4.5500","id":18354,"latitude":"8.5000"},{"id":18355,"country":"Ukraine","city":"Ilovaisk, Donetska Oblast","latitude":"47.9260","longitude":"38.1940"},{"latitude":"52.2667","country":"Germany","id":18356,"longitude":"10.1833","city":"Ilsede, Lower Saxony"},{"id":18357,"city":"Ilsenburg, Saxony-Anhalt","latitude":"51.8667","longitude":"10.6833","country":"Germany"},{"country":"Germany","city":"Ilsfeld, Baden-Württemberg","id":18358,"latitude":"49.0500","longitude":"9.2500"},{"country":"Greenland","city":"Ilulissat, Avannaata","id":18359,"longitude":"-51.1000","latitude":"69.2167"},{"country":"India","id":18360,"latitude":"10.5137","longitude":"78.6216","city":"Iluppur, Tamil Nādu"},{"latitude":"49.4725","country":"Germany","city":"Ilvesheim, Baden-Württemberg","longitude":"8.5675","id":18361},{"city":"Imabari, Ehime","id":18362,"longitude":"133.0000","latitude":"34.0667","country":"Japan"},{"country":"Brazil","longitude":"-37.5000","city":"Imaculada, Paraíba","latitude":"-7.3667","id":18363},{"city":"Imam Qasim, Bābil","country":"Iraq","longitude":"44.6892","latitude":"32.3014","id":18364},{"latitude":"37.1844","longitude":"68.9144","city":"Imam Sahib, Kunduz","id":18365,"country":"Afghanistan"},{"id":18366,"country":"Turkey","longitude":"35.6728","city":"Imamoglu, Adana","latitude":"37.2589"},{"latitude":"16.3302","country":"India","city":"Imani, Andhra Pradesh","longitude":"80.6580","id":18367},{"latitude":"-24.4333","longitude":"45.8167","country":"Madagascar","id":18368,"city":"Imanombo, Toliara"},{"id":18369,"longitude":"129.8833","country":"Japan","city":"Imaricho-ko, Saga","latitude":"33.2667"},{"longitude":"-48.8167","id":18370,"city":"Imarui, Santa Catarina","latitude":"-28.3500","country":"Brazil"},{"latitude":"12.4393","longitude":"-2.3331","country":"Burkina Faso","id":18371,"city":"Imassogo, Centre-Ouest"},{"longitude":"28.7667","id":18372,"city":"Imatra, Etelä-Karjala","country":"Finland","latitude":"61.1833"},{"latitude":"8.3128","country":"Philippines","longitude":"124.6873","id":18373,"city":"Imbatug, Bukidnon"},{"country":"Brazil","latitude":"-24.4450","longitude":"-50.7608","city":"Imbau, Paraná","id":18374},{"country":"Dominican Republic","city":"Imbert, Cibao Norte","longitude":"-70.8300","latitude":"19.7500","id":18375},{"latitude":"-28.2333","longitude":"-48.6667","id":18376,"city":"Imbituba, Santa Catarina","country":"Brazil"},{"longitude":"-50.5833","id":18377,"latitude":"-25.2000","city":"Imbituva, Paraná","country":"Brazil"},{"city":"Imdina, Imdina","country":"Malta","longitude":"14.4031","id":18378,"latitude":"35.8858"},{"country":"Kyrgyzstan","latitude":"40.2778","longitude":"72.6361","id":18379,"city":"Imeni Chapayeva, Osh"},{"city":"Imerimandroso, Toamasina","latitude":"-17.4333","id":18380,"country":"Madagascar","longitude":"48.5833"},{"id":18381,"city":"Imerintsiatosika, Antananarivo","country":"Madagascar","latitude":"-18.9833","longitude":"47.3167"},{"country":"Malta","longitude":"14.3664","latitude":"35.9197","city":"Imgarr, Imġarr","id":18382},{"city":"Imi Mokorn, Souss-Massa","id":18383,"longitude":"-9.2322","latitude":"30.1675","country":"Morocco"},{"latitude":"31.4224","longitude":"-6.5641","country":"Morocco","id":18384,"city":"Imi n'Oulaoun, Drâa-Tafilalet"},{"id":18385,"country":"Morocco","latitude":"31.1600","longitude":"-8.8500","city":"Imi-n-Tanout, Marrakech-Safi"},{"id":18386,"longitude":"-74.6519","country":"Cuba","city":"Imias, Guantánamo","latitude":"20.0767"},{"country":"Poland","latitude":"50.1478","city":"Imielin, Śląskie","longitude":"19.1814","id":18387},{"longitude":"-5.6347","id":18388,"city":"Imilchil, Drâa-Tafilalet","latitude":"32.1550","country":"Morocco"},{"country":"Azerbaijan","city":"Imisli, İmişli","id":18389,"latitude":"39.8697","longitude":"48.0600"},{"city":"Imito, Fianarantsoa","longitude":"47.3167","latitude":"-20.4167","country":"Madagascar","id":18390},{"longitude":"137.0756","country":"Japan","city":"Imizucho, Toyama","id":18391,"latitude":"36.7306"},{"latitude":"31.7567","country":"Morocco","id":18392,"city":"Imlil, Béni Mellal-Khénifra","longitude":"-7.0106"},{"city":"Immenstadt im Allgau, Bavaria","id":18393,"latitude":"47.5667","country":"Germany","longitude":"10.2167"},{"country":"United Kingdom","longitude":"-0.2183","latitude":"53.6139","city":"Immingham, North East Lincolnshire","id":18394},{"country":"United States","city":"Immokalee, Florida","latitude":"26.4253","id":18395,"longitude":"-81.4251"},{"id":18396,"latitude":"44.3531","city":"Imola, Emilia-Romagna","country":"Italy","longitude":"11.7147"},{"country":"Croatia","longitude":"17.2167","latitude":"43.4500","city":"Imotski, Splitsko-Dalmatinska Županija","id":18397},{"city":"Imouzzer Kandar, Fès-Meknès","latitude":"33.7300","country":"Morocco","longitude":"-5.0100","id":18398},{"city":"Impasugong, Bukidnon","country":"Philippines","longitude":"125.0014","latitude":"8.3028","id":18399},{"city":"Imperatriz, Maranhão","latitude":"-5.5333","id":18400,"longitude":"-47.4833","country":"Brazil"},{"city":"Imperia, Liguria","id":18401,"latitude":"43.8833","longitude":"8.0333","country":"Italy"},{"longitude":"-117.1180","latitude":"32.5693","city":"Imperial Beach, California","id":18402,"country":"United States"},{"latitude":"32.8390","country":"United States","longitude":"-115.5720","city":"Imperial, California","id":18403},{"longitude":"18.0622","latitude":"1.6186","id":18404,"country":"Congo (Brazzaville)","city":"Impfondo, Likouala"},{"city":"Imphal, Manipur","id":18405,"country":"India","longitude":"93.9384","latitude":"24.8074"},{"country":"Italy","city":"Impruneta, Tuscany","latitude":"43.6833","longitude":"11.2500","id":18406},{"latitude":"35.8442","city":"Imqabba, Imqabba","longitude":"14.4669","country":"Malta","id":18407},{"country":"Malta","city":"Imsida, Imsida","longitude":"14.4894","id":18408,"latitude":"35.8978"},{"country":"Austria","city":"Imst, Tirol","latitude":"47.2394","id":18409,"longitude":"10.7381"},{"latitude":"35.8908","longitude":"14.3969","city":"Imtarfa, Imtarfa","country":"Malta","id":18410},{"longitude":"120.9367","latitude":"14.4297","country":"Philippines","city":"Imus, Cavite","id":18411},{"latitude":"35.1500","longitude":"-3.8500","id":18412,"country":"Morocco","city":"Imzouren, Tanger-Tétouan-Al Hoceïma"},{"country":"Algeria","latitude":"19.5686","city":"In Guezzam, In Guezzam","longitude":"5.7722","id":18413},{"id":18414,"latitude":"9.9833","country":"Benin","city":"Ina, Borgou","longitude":"2.7167"},{"city":"Ina, Nagano","country":"Japan","latitude":"35.8275","id":18415,"longitude":"137.9540"},{"longitude":"124.0700","country":"Philippines","city":"Inabanga, Bohol","latitude":"10.0300","id":18416},{"longitude":"136.5614","id":18417,"city":"Inabe, Mie","country":"Japan","latitude":"35.1156"},{"longitude":"-51.0789","latitude":"-25.5708","city":"Inacio Martins, Paraná","id":18418,"country":"Brazil"},{"latitude":"34.9000","id":18419,"longitude":"135.3833","country":"Japan","city":"Inagawa, Hyōgo"},{"longitude":"139.5046","id":18420,"city":"Inagi, Tōkyō","country":"Japan","latitude":"35.6379"},{"longitude":"-37.8269","country":"Brazil","city":"Inaja, Alagoas","latitude":"-8.9031","id":18421},{"longitude":"134.9167","id":18422,"city":"Inami, Hyōgo","country":"Japan","latitude":"34.7500"},{"longitude":"136.9710","country":"Japan","latitude":"36.5602","id":18423,"city":"Inami, Toyama"},{"country":"Madagascar","id":18424,"latitude":"-19.6500","longitude":"46.6167","city":"Inanantonana, Antananarivo"},{"latitude":"35.9565","country":"Japan","city":"Inashiki, Ibaraki","longitude":"140.3239","id":18425},{"city":"Inawashiro, Fukushima","country":"Japan","longitude":"140.1215","id":18426,"latitude":"37.5744"},{"latitude":"35.2647","longitude":"136.7969","city":"Inazawa, Aichi","id":18427,"country":"Japan"},{"country":"Spain","latitude":"39.7167","city":"Inca, Balearic Islands","longitude":"2.9167","id":18428},{"id":18429,"country":"United Kingdom","city":"Ince-in-Makerfield, Wigan","latitude":"53.5402","longitude":"-2.5990"},{"latitude":"38.6222","id":18430,"country":"Turkey","city":"Incesu, Kayseri","longitude":"35.1847"},{"id":18431,"longitude":"126.6333","country":"Korea","latitude":"37.4833","city":"Incheon, KOR"},{"country":"Turkey","city":"Incirliova, Aydın","latitude":"37.8547","longitude":"27.7236","id":18432},{"latitude":"39.2639","id":18433,"country":"United States","city":"Incline Village, Nevada","longitude":"-119.9455"},{"country":"Brazil","latitude":"-26.8978","longitude":"-49.2319","city":"Indaial, Santa Catarina","id":18434},{"country":"Brazil","city":"Indaiatuba, São Paulo","latitude":"-23.0903","id":18435,"longitude":"-47.2181"},{"country":"India","id":18436,"latitude":"18.5403","longitude":"78.2248","city":"Indalvai, Telangāna"},{"city":"Indanan, Sulu","country":"Philippines","longitude":"120.9700","id":18437,"latitude":"6.0000"},{"id":18438,"country":"Philippines","city":"Indang, Cavite","longitude":"120.8800","latitude":"14.2000"},{"country":"India","city":"Indargarh, Madhya Pradesh","longitude":"78.5619","id":18439,"latitude":"25.9109"},{"id":18440,"longitude":"-95° 42' 00\"","country":"United States","city":"Independence, Kansas","latitude":" 37° 13' 58\""},{"longitude":"-84.5492","country":"United States","city":"Independence, Kentucky","id":18441,"latitude":"38.9510"},{"city":"Independence, Missouri","latitude":" 39° 05' 35\"","longitude":"-94° 25' 00\"","country":"United States","id":18442},{"longitude":"-123.1952","city":"Independence, Oregon","latitude":"44.8547","country":"United States","id":18443},{"city":"Independencia, Ceará","country":"Brazil","latitude":"-5.3958","longitude":"-40.3089","id":18444},{"latitude":"-17.0839","id":18445,"country":"Bolivia","longitude":"-66.8181","city":"Independencia, Cochabamba"},{"longitude":"-77.4089","country":"United States","id":18446,"latitude":"38.6404","city":"Independent Hill, Virginia"},{"longitude":"51.7833","latitude":"48.5500","id":18447,"country":"Kazakhstan","city":"Inderbor, Atyraū"},{"city":"Indi, Karnātaka","latitude":"17.1773","id":18448,"country":"India","longitude":"75.9526"},{"latitude":"28.1529","longitude":"-80.5976","country":"United States","city":"Indian Harbour Beach, Florida","id":18449},{"longitude":"-80.6452","city":"Indian Trail, North Carolina","country":"United States","id":18450,"latitude":"35.0699"},{"id":18451,"country":"United States","latitude":"40.6220","city":"Indiana, Pennsylvania","longitude":"-79.1552"},{"city":"Indianapolis, Indiana","id":18452,"longitude":"-86° 09' 46\"","latitude":" 39° 46' 06\"","country":"United States"},{"id":18453,"latitude":"41.3629","country":"United States","longitude":"-93.5652","city":"Indianola, Iowa"},{"city":"Indianola, Mississippi","country":"United States","latitude":"33.4492","id":18454,"longitude":"-90.6447"},{"longitude":"-37.5119","latitude":"-11.5189","country":"Brazil","id":18455,"city":"Indiaroba, Sergipe"},{"latitude":"67.6898","city":"Indiga, Nenetskiy Avtonomnyy Okrug","longitude":"49.0166","id":18456,"country":"Russia"},{"latitude":"45.0500","longitude":"20.0833","country":"Serbia","city":"Indija, Inđija","id":18457},{"city":"Indio, California","longitude":"-116.2346","id":18458,"country":"United States","latitude":"33.7346"},{"city":"Indore, Madhya Pradesh","latitude":"22.7167","longitude":"75.8472","country":"India","id":18459},{"latitude":"-6.3528","longitude":"108.3242","city":"Indramayu, Jawa Barat","id":18460,"country":"Indonesia"},{"longitude":"8.8386","country":"Italy","latitude":"45.8522","id":18461,"city":"Induno Olona, Lombardy"},{"city":"Indurti, Telangāna","latitude":"18.2233","id":18462,"longitude":"79.1355","country":"India"},{"city":"Indurti, Telangāna","longitude":"78.9054","latitude":"17.0055","id":18463,"country":"India"},{"id":18464,"latitude":"-31.4660","city":"Indwe, Eastern Cape","longitude":"27.3330","country":"South Africa"},{"longitude":"33.7608","city":"Inebolu, Kastamonu","id":18465,"latitude":"41.9747","country":"Turkey"},{"latitude":"40.0806","country":"Turkey","city":"Inegol, Bursa","longitude":"29.5097","id":18466},{"longitude":"3.1592","country":"Mali","latitude":"15.9492","city":"Inekar, Gao","id":18467},{"longitude":"21.8369","id":18468,"latitude":"46.4258","country":"Romania","city":"Ineu, Arad"},{"city":"Inezgane, Souss-Massa","latitude":"30.3658","id":18469,"longitude":"-9.5381","country":"Morocco"},{"latitude":"15.8208","id":18470,"longitude":"119.9083","city":"Infanta, Pangasinan","country":"Philippines"},{"latitude":"14.7425","city":"Infanta, Quezon","country":"Philippines","longitude":"121.6494","id":18471},{"longitude":"-35.6128","city":"Inga, Paraíba","id":18472,"country":"Brazil","latitude":"-7.2678"},{"latitude":"17.8167","longitude":"95.2667","id":18473,"country":"Burma","city":"Ingabu, Ayeyarwady"},{"country":"Germany","longitude":"8.0564","id":18474,"latitude":"49.9747","city":"Ingelheim, Rhineland-Palatinate"},{"latitude":"50.9167","city":"Ingelmunster, Flanders","id":18475,"country":"Belgium","longitude":"3.2500"},{"city":"Ingenbohl, Schwyz","id":18476,"latitude":"46.9833","country":"Switzerland","longitude":"8.6000"},{"city":"Ingeniero Guillermo N. Juarez, Formosa","latitude":"-23.9000","country":"Argentina","longitude":"-61.8500","id":18477},{"country":"Argentina","longitude":"-69.5833","id":18478,"latitude":"-41.3000","city":"Ingeniero Jacobacci, Río Negro"},{"latitude":"-34.3667","city":"Ingeniero Maschwitz, Buenos Aires","longitude":"-58.7500","country":"Argentina","id":18479},{"id":18480,"country":"Argentina","longitude":"-58.7667","city":"Ingeniero Pablo Nogues, Buenos Aires","latitude":"-34.4667"},{"country":"Argentina","city":"Ingeniero White, Buenos Aires","latitude":"-38.7667","longitude":"-62.2667","id":18481},{"country":"Spain","city":"Ingenio, Canary Islands","latitude":"27.9214","id":18482,"longitude":"-15.4325"},{"latitude":"43.0392","city":"Ingersoll, Ontario","country":"Canada","longitude":"-80.8836","id":18483},{"longitude":"146.1572","country":"Australia","latitude":"-18.6508","id":18484,"city":"Ingham, Queensland"},{"city":"Ingichka, Samarqand","latitude":"39.7389","country":"Uzbekistan","id":18485,"longitude":"65.9922"},{"id":18486,"country":"United States","latitude":"27.8703","city":"Ingleside, Texas","longitude":"-97.2075"},{"longitude":"-118° 20' 59\"","country":"United States","latitude":" 33° 57' 36\"","city":"Inglewood, California","id":18487},{"latitude":"48.7631","id":18488,"longitude":"11.4250","country":"Germany","city":"Ingolstadt, Bavaria"},{"longitude":"-60° 22' 00\"","city":"Ingonish, Nova Scotia","id":18489,"country":"Canada","latitude":" 46° 42' 00\""},{"id":18490,"latitude":"25.0119","longitude":"88.1433","country":"India","city":"Ingraj Bazar, West Bengal"},{"country":"France","latitude":"47.9211","city":"Ingre, Centre-Val de Loire","longitude":"1.8250","id":18491},{"latitude":"17.6695","country":"India","city":"Ingurti, Telangāna","longitude":"79.8003","id":18492},{"country":"Mozambique","id":18493,"city":"Inhambane, Inhambane","latitude":"-23.8650","longitude":"35.3833"},{"latitude":"-11.7833","id":18494,"country":"Brazil","longitude":"-38.3500","city":"Inhambupe, Bahia"},{"city":"Inhangapi, Pará","latitude":"-1.4167","country":"Brazil","longitude":"-47.8833","id":18495},{"latitude":"-9.2189","city":"Inhapi, Alagoas","longitude":"-37.7539","id":18496,"country":"Brazil"},{"country":"Brazil","longitude":"-42.1167","id":18497,"latitude":"-19.5500","city":"Inhapim, Minas Gerais"},{"id":18498,"latitude":"-21.5333","country":"Mozambique","city":"Inhassoro, Inhambane","longitude":"35.2000"},{"city":"Inhuma, Piauí","country":"Brazil","latitude":"-6.6678","longitude":"-41.7078","id":18499},{"latitude":"-16.3550","id":18500,"country":"Brazil","city":"Inhumas, Goiás","longitude":"-49.4931"},{"id":18501,"city":"Inirida, Guainía","longitude":"-67.9239","country":"Colombia","latitude":"3.8653"},{"longitude":"4.6500","city":"Inisa, Osun","latitude":"7.9833","country":"Nigeria","id":18502},{"city":"Initao, Misamis Oriental","latitude":"8.5000","longitude":"124.3167","id":18503,"country":"Philippines"},{"latitude":"10.9500","longitude":"36.9333","country":"Ethiopia","id":18504,"city":"Injibara, Āmara"},{"country":"Ukraine","longitude":"33.6000","id":18505,"city":"Inkerman, Sevastopol","latitude":"44.6000"},{"country":"Syria","longitude":"36.1167","city":"Inkhil, Dar‘ā","latitude":"33.0000","id":18506},{"country":"India","city":"Inkollu, Andhra Pradesh","latitude":"15.8300","longitude":"80.2000","id":18507},{"latitude":"42.2935","id":18508,"city":"Inkster, Michigan","country":"United States","longitude":"-83.3148"},{"country":"Canada","id":18509,"latitude":" 52° 02' 00\"","city":"Innisfail, Alberta","longitude":"-113° 57' 00\""},{"country":"Australia","id":18510,"city":"Innisfail, Queensland","latitude":"-17.5238","longitude":"146.0311"},{"country":"Canada","id":18511,"city":"Innisfil, Ontario","latitude":"44.3000","longitude":"-79.5833"},{"latitude":"37.6552","city":"Innsbrook, Virginia","country":"United States","longitude":"-77.5775","id":18512},{"longitude":"11.3933","latitude":"47.2683","country":"Austria","id":18513,"city":"Innsbruck, Tirol"},{"city":"Ino, Kōchi","latitude":"33.5500","country":"Japan","longitude":"133.4333","id":18514},{"country":"India","city":"Inole, Telangāna","latitude":"17.8682","longitude":"79.5545","id":18515},{"city":"Inongo, Mai-Ndombe","country":"Congo (Kinshasa)","latitude":"-1.9500","longitude":"18.2667","id":18516},{"latitude":"10.5000","longitude":"124.7500","country":"Philippines","city":"Inopacan, Leyte","id":18517},{"longitude":"18.2611","city":"Inowroclaw, Kujawsko-Pomorskie","country":"Poland","id":18518,"latitude":"52.7931"},{"city":"Inta, Komi","latitude":"66.0833","longitude":"60.1333","id":18519,"country":"Russia"},{"country":"Honduras","city":"Intibuca, Intibucá","latitude":"14.3121","longitude":"-88.1781","id":18520},{"id":18521,"country":"Ethiopia","longitude":"39.1500","city":"Intich'o, Tigray","latitude":"14.2667"},{"longitude":"139.6242","id":18522,"country":"Japan","city":"Inuma, Saitama","latitude":"36.0001"},{"city":"Inungur, Tamil Nādu","id":18523,"country":"India","latitude":"10.8507","longitude":"78.4889"},{"latitude":" 68° 19' 11\"","longitude":"-133° 30' 00\"","id":18524,"country":"Canada","city":"Inuvik, Northwest Territories"},{"latitude":"35.3786","country":"Japan","city":"Inuyama, Gifu","longitude":"136.9445","id":18525},{"country":"United States","city":"Inver Grove Heights, Minnesota","latitude":"44.8247","id":18526,"longitude":"-93.0596"},{"longitude":"168.3475","id":18527,"country":"New Zealand","latitude":"-46.4131","city":"Invercargill, Southland"},{"city":"Inverell, New South Wales","longitude":"151.1167","latitude":"-29.7667","id":18528,"country":"Australia"},{"latitude":"45.7333","country":"Italy","city":"Inverigo, Lombardy","longitude":"9.2167","id":18529},{"city":"Inverness, Highland","id":18530,"latitude":"57.4778","country":"United Kingdom","longitude":"-4.2247"},{"longitude":"-61.1000","id":18531,"country":"Canada","city":"Inverness, Nova Scotia","latitude":"46.2000"},{"city":"Inverurie, Aberdeenshire","longitude":"-2.3800","id":18532,"country":"United Kingdom","latitude":"57.2800"},{"country":"United States","id":18533,"city":"Inwood, New York","latitude":"40.6219","longitude":"-73.7506"},{"country":"Colombia","city":"Inza, Cauca","latitude":"2.5503","longitude":"-76.0636","id":18534},{"city":"Inza, Ul’yanovskaya Oblast’","id":18535,"longitude":"46.3500","latitude":"53.8500","country":"Russia"},{"latitude":"45.5333","city":"Inzago, Lombardy","country":"Italy","id":18536,"longitude":"9.4833"},{"id":18537,"longitude":"140.1500","country":"Japan","city":"Inzai, Chiba","latitude":"35.8333"},{"id":18538,"country":"Greece","latitude":"39.6636","longitude":"20.8522","city":"Ioannina, Ípeiros"},{"latitude":"26.5160","longitude":"-81.9601","country":"United States","city":"Iona, Florida","id":18539},{"id":18540,"country":"United States","city":"Ionia, Michigan","latitude":"42.9773","longitude":"-85.0727"},{"id":18541,"city":"Iormughanlo, K’akheti","longitude":"45.5294","country":"Georgia","latitude":"41.5961"},{"longitude":"-91° 31' 53\"","id":18542,"city":"Iowa City, Iowa","latitude":" 41° 39' 37\"","country":"United States"},{"id":18543,"longitude":"-95.4206","city":"Iowa Colony, Texas","latitude":"29.4407","country":"United States"},{"country":"Brazil","city":"Ipaba, Minas Gerais","id":18544,"latitude":"-19.3833","longitude":"-42.4167"},{"city":"Ipameri, Goiás","country":"Brazil","id":18545,"latitude":"-17.7247","longitude":"-48.1597"},{"city":"Ipanema, Minas Gerais","id":18546,"country":"Brazil","longitude":"-41.7128","latitude":"-19.8008"},{"city":"Ipanguacu, Rio Grande do Norte","country":"Brazil","longitude":"-36.8500","latitude":"-5.5000","id":18547},{"country":"Brazil","latitude":"-4.9000","longitude":"-40.7667","id":18548,"city":"Ipaporanga, Ceará"},{"city":"Ipatinga, Minas Gerais","longitude":"-42.5333","id":18549,"country":"Brazil","latitude":"-19.5000"},{"longitude":"42.0000","country":"Russia","city":"Ipatovo, Stavropol’skiy Kray","id":18550,"latitude":"45.7167"},{"latitude":"-23.0569","city":"Ipaucu, São Paulo","longitude":"-49.6267","id":18551,"country":"Brazil"},{"id":18552,"city":"Ipaumirim, Ceará","latitude":"-6.7833","country":"Brazil","longitude":"-38.7167"},{"longitude":"-39.3078","id":18553,"city":"Ipecaeta, Bahia","latitude":"-12.3000","country":"Brazil"},{"longitude":"5.6667","country":"Nigeria","city":"Ipele, Ondo","latitude":"7.1333","id":18554},{"longitude":"-47.6886","latitude":"-23.3503","city":"Ipero, São Paulo","country":"Brazil","id":18555},{"city":"Iperu, Ogun","country":"Nigeria","id":18556,"latitude":"6.9143","longitude":"3.6632"},{"country":"Nigeria","longitude":"4.4447","city":"Ipetumodu, Osun","id":18557,"latitude":"7.5070"},{"latitude":"0.8303","city":"Ipiales, Nariño","country":"Colombia","longitude":"-77.6444","id":18558},{"longitude":"-39.7339","latitude":"-14.1369","country":"Brazil","city":"Ipiau, Bahia","id":18559},{"longitude":"122.5867","id":18560,"country":"Philippines","city":"Ipil, Zamboanga Sibugay","latitude":"7.7822"},{"city":"Ipira, Bahia","latitude":"-12.1583","country":"Brazil","id":18561,"longitude":"-39.7389"},{"city":"Ipiranga do Piaui, Piauí","id":18562,"latitude":"-6.8167","longitude":"-41.7500","country":"Brazil"},{"country":"Brazil","latitude":"-25.0239","id":18563,"city":"Ipiranga, Paraná","longitude":"-50.5839"},{"latitude":"-7.0508","id":18564,"longitude":"-71.6950","city":"Ipixuna, Amazonas","country":"Brazil"},{"country":"Malaysia","city":"Ipoh, Perak","id":18565,"latitude":"4.5972","longitude":"101.0750"},{"latitude":"-8.4000","longitude":"-35.0639","country":"Brazil","city":"Ipojuca, Pernambuco","id":18566},{"country":"Nigeria","latitude":"6.5333","id":18567,"city":"Ipokia, Ogun","longitude":"2.8500"},{"country":"Brazil","city":"Ipora, Goiás","latitude":"-16.4411","longitude":"-51.1194","id":18568},{"country":"Brazil","city":"Ipora, Paraná","latitude":"-24.0028","id":18569,"longitude":"-53.7039"},{"city":"Ippagudem, Telangāna","longitude":"79.3751","id":18570,"latitude":"17.7668","country":"India"},{"country":"Central African Republic","longitude":"21.2000","city":"Ippy, Ouaka","latitude":"6.2500","id":18571},{"country":"Turkey","city":"Ipsala, Edirne","latitude":"40.9167","id":18572,"longitude":"26.3833"},{"longitude":"-70.8399","id":18573,"country":"United States","latitude":"42.6857","city":"Ipswich, Massachusetts"},{"city":"Ipswich, Queensland","latitude":"-27° 37' 59\"","longitude":" 152° 43' 00\"","id":18574,"country":"Australia"},{"id":18575,"latitude":"52.0594","country":"United Kingdom","city":"Ipswich, Suffolk","longitude":"1.1556"},{"latitude":"-4.3257","longitude":"-40.7103","city":"Ipu, Ceará","id":18576,"country":"Brazil"},{"latitude":"-20.4381","country":"Brazil","id":18577,"city":"Ipua, São Paulo","longitude":"-48.0122"},{"country":"Brazil","latitude":"-7.6500","longitude":"-40.1167","id":18578,"city":"Ipubi, Pernambuco"},{"country":"Brazil","longitude":"-40.7167","latitude":"-4.5431","id":18579,"city":"Ipueiras, Ceará"},{"country":"Brazil","latitude":"-22.1000","id":18580,"city":"Ipuiuna, Minas Gerais","longitude":"-46.1833"},{"country":"Brazil","latitude":"-11.8167","longitude":"-42.6167","city":"Ipupiara, Bahia","id":18581},{"id":18582,"city":"Iqaluit, Nunavut","country":"Canada","latitude":" 63° 45' 35\"","longitude":"-68° 32' 59\""},{"country":"Chile","longitude":"-70.1500","id":18583,"city":"Iquique, Tarapacá","latitude":"-20.2167"},{"id":18584,"country":"Colombia","longitude":"-75.6500","latitude":"2.6500","city":"Iquira, Huila"},{"id":18585,"longitude":"-73.2500","country":"Peru","latitude":"-3.7500","city":"Iquitos, Loreto"},{"country":"Brazil","city":"Iracemapolis, São Paulo","longitude":"-47.5186","id":18586,"latitude":"-22.5806"},{"longitude":"-35.9519","city":"Iraci, Pernambuco","latitude":"-8.8078","id":18587,"country":"Brazil"},{"latitude":"5.4804","id":18588,"country":"French Guiana","longitude":"-53.2200","city":"Iracoubo, "},{"city":"Iradan, Batken","latitude":"40.2600","longitude":"72.1000","country":"Kyrgyzstan","id":18589},{"id":18590,"longitude":"79.1970","country":"India","city":"Iraiyur, Tamil Nādu","latitude":"11.7834"},{"country":"Greece","longitude":"23.2833","id":18591,"city":"Irakleia, Kentrikí Makedonía","latitude":"41.1833"},{"latitude":"38.0500","longitude":"23.7667","id":18592,"country":"Greece","city":"Irakleio, Attikí"},{"city":"Irakleio, Kríti","country":"Greece","latitude":"35.3403","longitude":"25.1344","id":18593},{"city":"Iramaia, Bahia","longitude":"-40.9508","id":18594,"country":"Brazil","latitude":"-13.2858"},{"id":18595,"country":"India","latitude":"10.0374","longitude":"76.5135","city":"Iramala, Kerala"},{"city":"Iranduba, Amazonas","longitude":"-60.1858","country":"Brazil","latitude":"-3.2850","id":18596},{"country":"Iran","longitude":"60.6836","city":"Iranshahr, Sīstān va Balūchestān","id":18597,"latitude":"27.1978"},{"latitude":"20.6667","longitude":"-101.3500","country":"Mexico","id":18598,"city":"Irapuato, Guanajuato"},{"country":"Brazil","longitude":"-41.6189","latitude":"-12.2489","city":"Iraquara, Bahia","id":18599},{"latitude":"-12.0458","id":18600,"country":"Brazil","longitude":"-38.7658","city":"Irara, Bahia"},{"id":18601,"city":"Irati, Paraná","latitude":"-25.4697","longitude":"-50.6547","country":"Brazil"},{"city":"Iraucuba, Ceará","longitude":"-39.7833","id":18602,"latitude":"-3.7500","country":"Brazil"},{"city":"Irbid, Irbid","country":"Jordan","id":18603,"latitude":"32.5500","longitude":"35.8500"},{"country":"Russia","longitude":"63.0667","city":"Irbit, Sverdlovskaya Oblast’","id":18604,"latitude":"57.6667"},{"latitude":"7.9361","country":"Nigeria","longitude":"4.7250","city":"Ire, Osun","id":18605},{"longitude":"-42.8558","city":"Irece, Bahia","country":"Brazil","latitude":"-11.3039","id":18606},{"id":18607,"country":"Brazil","latitude":"-24.2833","longitude":"-52.0333","city":"Iretama, Paraná"},{"country":"Chad","latitude":"15.1167","longitude":"22.2500","city":"Iriba, Wadi-Fira","id":18608},{"latitude":"45.1000","id":18609,"longitude":"19.8500","country":"Serbia","city":"Irig, Irig"},{"country":"Philippines","latitude":"13.4231","longitude":"123.4122","city":"Iriga City, Camarines Sur","id":18610},{"latitude":"45.6731","longitude":"4.8225","id":18611,"country":"France","city":"Irigny, Auvergne-Rhône-Alpes"},{"country":"India","city":"Irikkur, Kerala","longitude":"75.5700","id":18612,"latitude":"11.9700"},{"city":"Irimbiliyam, Kerala","id":18613,"country":"India","latitude":"10.8667","longitude":"76.0833"},{"country":"Brazil","latitude":"-26.2386","id":18614,"city":"Irineopolis, Santa Catarina","longitude":"-50.7997"},{"country":"Tanzania","longitude":"35.6900","latitude":"-7.7700","id":18615,"city":"Iringa, Iringa"},{"longitude":"75.6000","country":"India","latitude":"11.5667","city":"Iringal, Kerala","id":18616},{"longitude":"76.2112","country":"India","latitude":"10.3424","city":"Irinjalakuda, Kerala","id":18617},{"id":18618,"country":"Honduras","latitude":"15.9333","city":"Iriona, Colón","longitude":"-85.1833"},{"country":"Brazil","latitude":"-1.7667","longitude":"-47.4333","city":"Irituia, Pará","id":18619},{"country":"Russia","longitude":"104.2833","latitude":"52.2833","city":"Irkutsk, Irkutskaya Oblast’","id":18620},{"latitude":"53.4450","city":"Irlam, Salford","longitude":"-2.4220","id":18621,"country":"United Kingdom"},{"latitude":"34.1018","country":"United States","city":"Irmo, South Carolina","id":18622,"longitude":"-81.1956"},{"country":"USA","longitude":"-88° 39' 00\"","city":"Iron River, Michigan","latitude":" 46° 08' 59\"","id":18623},{"latitude":"33.5439","city":"Irondale, Alabama","longitude":"-86.6606","country":"United States","id":18624},{"city":"Irondequoit, New York","longitude":"-77.5705","id":18625,"latitude":"43.2096","country":"United States"},{"id":18626,"city":"Ironton, Ohio","longitude":"-82.6779","country":"United States","latitude":"38.5323"},{"country":"Canada","latitude":" 48° 46' 00\"","id":18627,"city":"Iroquois Falls, Ontario","longitude":"-80° 41' 00\""},{"latitude":"12.7050","id":18628,"longitude":"124.0319","country":"Philippines","city":"Irosin, Sorsogon"},{"country":"Ukraine","longitude":"30.2500","latitude":"50.5167","id":18629,"city":"Irpin, Kyivska Oblast"},{"id":18630,"latitude":"48.3000","country":"Ukraine","city":"Irshava, Zakarpatska Oblast","longitude":"23.0500"},{"latitude":"52.3240","longitude":"-0.6140","city":"Irthlingborough, Northamptonshire","country":"United Kingdom","id":18631},{"city":"Irugur, Tamil Nādu","longitude":"77.0629","id":18632,"latitude":"11.0178","country":"India"},{"longitude":"76.1833","id":18633,"latitude":"11.7500","city":"Irukanni, Kerala","country":"India"},{"latitude":"35.8358","id":18634,"longitude":"139.3911","country":"Japan","city":"Iruma, Saitama"},{"latitude":"43.3378","country":"Spain","id":18635,"city":"Irun, Basque Country","longitude":"-1.7888"},{"city":"Irungalur, Tamil Nādu","latitude":"10.9399","longitude":"78.7619","id":18636,"country":"India"},{"id":18637,"country":"Brazil","latitude":"-20.3450","city":"Irupi, Espírito Santo","longitude":"-41.6408"},{"id":18638,"latitude":"8.5863","longitude":"76.8976","country":"India","city":"Iruttarakonam, Kerala"},{"id":18639,"country":"United States","latitude":" 33° 40' 29\"","city":"Irvine, California","longitude":"-117° 45' 36\""},{"country":"United Kingdom","city":"Irvine, North Ayrshire","longitude":"-4.6614","latitude":"55.6201","id":18640},{"longitude":"-96° 56' 12\"","country":"United States","city":"Irving, Texas","id":18641,"latitude":" 32° 48' 47\""},{"longitude":"-74° 13' 29\"","id":18642,"city":"Irvington, New Jersey","country":"United States","latitude":" 40° 43' 36\""},{"city":"Isa, Kagoshima","longitude":"130.6131","latitude":"32.0572","id":18643,"country":"Japan"},{"latitude":"10.9300","id":18644,"country":"Philippines","city":"Isabel, Leyte","longitude":"124.4300"},{"longitude":"122.9800","id":18645,"country":"Philippines","city":"Isabela, Negros Occidental","latitude":"10.2000"},{"id":18646,"city":"Isabela, Puerto Rico","latitude":"18.4991","country":"Puerto Rico","longitude":"-67.0220"},{"country":"Iceland","city":"Isafjordhur, Ísafjarðarbær","latitude":"66.0758","longitude":"-23.1267","id":18647},{"latitude":"24.8391","id":18648,"longitude":"77.8827","country":"India","city":"Isagarh, Madhya Pradesh"},{"longitude":"47.3500","city":"Isahara, Fianarantsoa","id":18649,"latitude":"-23.7167","country":"Madagascar"},{"city":"Isahaya, Nagasaki","id":18650,"latitude":"32.8500","longitude":"130.0667","country":"Japan"},{"country":"Madagascar","id":18651,"longitude":"47.0000","latitude":"-21.1500","city":"Isaka, Fianarantsoa"},{"city":"Isaka-Ivondro, Toliara","country":"Madagascar","latitude":"-24.8000","longitude":"46.8500","id":18652},{"country":"Burundi","city":"Isale, Bujumbura Rural","longitude":"29.4833","id":18653,"latitude":"-3.3444"},{"city":"Isalo, Toliara","id":18654,"longitude":"45.4333","country":"Madagascar","latitude":"-19.7333"},{"longitude":"169.2800","city":"Isangel, Tafea","country":"Vanuatu","latitude":"-19.5300","id":18655},{"country":"Nigeria","id":18656,"city":"Isanlu, Kogi","latitude":"8.1667","longitude":"5.8000"},{"longitude":"86.9893","id":18657,"latitude":"25.4122","country":"India","city":"Isapur, Bihār"},{"latitude":"47.5333","country":"Hungary","id":18658,"longitude":"19.4000","city":"Isaszeg, Pest"},{"country":"France","city":"Isbergues, Hauts-de-France","latitude":"50.6242","longitude":"2.4575","id":18659},{"id":18660,"longitude":"13.9500","country":"Italy","latitude":"40.7333","city":"Ischia, Campania"},{"city":"Iscuande, Nariño","country":"Colombia","longitude":"-77.9717","id":18661,"latitude":"2.4444"},{"country":"Japan","latitude":"34.4833","id":18662,"city":"Ise, Mie","longitude":"136.7167"},{"latitude":"35.3833","longitude":"139.3000","id":18663,"country":"Japan","city":"Isehara, Kanagawa"},{"latitude":"40.5697","longitude":"-74.3172","city":"Iselin, New Jersey","country":"United States","id":18664},{"country":"Nigeria","latitude":"7.9700","longitude":"3.5900","id":18665,"city":"Isemi-Ile, Oyo"},{"id":18666,"country":"Italy","latitude":"45.6500","city":"Iseo, Lombardy","longitude":"10.0500"},{"country":"Germany","city":"Iserlohn, North Rhine-Westphalia","latitude":"51.3833","longitude":"7.6667","id":18667},{"longitude":"9.8572","latitude":"52.4342","country":"Germany","city":"Isernhagen-Sud, Lower Saxony","id":18668},{"city":"Isernia, Molise","latitude":"41.6028","longitude":"14.2397","id":18669,"country":"Italy"},{"latitude":"36.3114","city":"Isesaki, Gunma","id":18670,"longitude":"139.1968","country":"Japan"},{"city":"Iseyin, Oyo","id":18671,"country":"Nigeria","longitude":"3.6000","latitude":"7.9667"},{"country":"Kyrgyzstan","latitude":"39.8372","id":18672,"city":"Isfana, Batken","longitude":"69.5333"},{"country":"Tajikistan","latitude":"40.1167","longitude":"70.6333","city":"Isfara, Sughd","id":18673},{"longitude":"69.7447","id":18674,"city":"Isfisor, Sughd","latitude":"40.2433","country":"Tajikistan"},{"id":18675,"country":"Uganda","city":"Ishaka, Buhweju","longitude":"30.1383","latitude":"-0.5450"},{"longitude":"141.1471","id":18676,"city":"Ishidoriyacho-eso, Iwate","country":"Japan","latitude":"39.4839"},{"longitude":"124.1556","country":"Japan","city":"Ishigaki, Okinawa","latitude":"24.3406","id":18677},{"longitude":"134.4333","country":"Japan","latitude":"34.0667","city":"Ishii, Tokushima","id":18678},{"id":18679,"country":"Japan","city":"Ishikari, Hokkaidō","latitude":"43.1667","longitude":"141.3167"},{"id":18680,"latitude":"37.1571","country":"Japan","city":"Ishikawa, Fukushima","longitude":"140.4468"},{"city":"Ishiki, Aichi","id":18681,"latitude":"34.8167","country":"Japan","longitude":"137.0333"},{"country":"Russia","city":"Ishim, Tyumenskaya Oblast’","longitude":"69.5000","latitude":"56.1167","id":18682},{"country":"Russia","city":"Ishimbay, Bashkortostan","latitude":"53.4500","longitude":"56.0333","id":18683},{"country":"Japan","city":"Ishioka, Ibaraki","latitude":"36.1908","longitude":"140.2872","id":18684},{"city":"Ishizaki, Miyagi","country":"Japan","id":18685,"latitude":"38.4176","longitude":"141.3027"},{"longitude":"71.5739","city":"Ishkashim, Badakhshān","id":18686,"latitude":"36.7092","country":"Afghanistan"},{"id":18687,"city":"Ishtixon Shahri, Samarqand","country":"Uzbekistan","longitude":"66.4861","latitude":"39.9664"},{"country":"Argentina","id":18688,"latitude":"-34.7000","city":"Isidro Casanova, Buenos Aires","longitude":"-58.5833"},{"id":18689,"country":"Russia","city":"Isilkul, Omskaya Oblast’","latitude":"54.9500","longitude":"71.2500"},{"latitude":"-0.7950","longitude":"30.8153","country":"Uganda","city":"Isingiro, Isingiro","id":18690},{"id":18691,"country":"Kenya","city":"Isiolo, Isiolo","latitude":"0.3500","longitude":"37.5833"},{"country":"Congo (Kinshasa)","id":18692,"longitude":"27.6167","city":"Isiro, Haut-Uélé","latitude":"2.7833"},{"city":"Iskandar, Toshkent","country":"Uzbekistan","latitude":"41.5581","longitude":"69.7047","id":18693},{"country":"India","city":"Iskapalem, Andhra Pradesh","latitude":"14.5416","longitude":"79.8925","id":18694},{"city":"Iskapalli, Andhra Pradesh","longitude":"80.0981","country":"India","latitude":"14.7363","id":18695},{"country":"Turkey","city":"Iskenderun, Hatay","latitude":"36.5817","id":18696,"longitude":"36.1650"},{"city":"Iskilip, Çorum","latitude":"40.7361","longitude":"34.4739","id":18697,"country":"Turkey"},{"country":"Russia","city":"Iskitim, Novosibirskaya Oblast’","latitude":"54.6400","longitude":"83.3061","id":18698},{"country":"Morocco","longitude":"-9.8186","latitude":"30.8433","city":"Iskourane, Marrakech-Safi","id":18699},{"country":"Mexico","city":"Isla Mujeres, Quintana Roo","id":18700,"latitude":"21.2333","longitude":"-86.7333"},{"city":"Isla Raton, Amazonas","country":"Venezuela","id":18701,"latitude":"5.1311","longitude":"-67.8106"},{"latitude":"34.4128","longitude":"-119.8614","id":18702,"country":"United States","city":"Isla Vista, California"},{"country":"Chile","city":"Isla de Maipo, Región Metropolitana","id":18703,"latitude":"-33.7500","longitude":"-70.9000"},{"country":"Mexico","city":"Isla, Veracruz","latitude":"18.0333","longitude":"-95.5333","id":18704},{"country":"Spain","latitude":"37.1992","city":"Isla-Cristina, Andalusia","longitude":"-7.3214","id":18705},{"country":"Turkey","longitude":"36.6345","id":18706,"city":"Islahiye, Gaziantep","latitude":"37.0250"},{"city":"Islam Qal`ah, Herāt","id":18707,"latitude":"34.6667","country":"Afghanistan","longitude":"61.0667"},{"latitude":"33.6931","longitude":"73.0639","city":"Islamabad, Islamabad","country":"Pakistan","id":18708},{"country":"India","id":18709,"latitude":"33.7353","city":"Islamabad, Jammu and Kashmīr","longitude":"75.1478"},{"latitude":"43.6756","longitude":"43.4550","city":"Islamey, Kabardino-Balkariya","id":18710,"country":"Russia"},{"country":"India","city":"Islampur, Bihār","longitude":"85.2059","latitude":"25.1407","id":18711},{"longitude":"88.2000","id":18712,"country":"India","city":"Islampur, West Bengal","latitude":"26.2700"},{"id":18713,"country":"India","city":"Islampur, West Bengal","latitude":"24.1548","longitude":"88.4665"},{"country":"United Kingdom","longitude":"-0.1027","latitude":"51.5440","id":18714,"city":"Islington, Islington"},{"longitude":"-73.1888","latitude":"40.7385","id":18715,"country":"United States","city":"Islip, New York"},{"id":18716,"country":"Egypt","longitude":"32.2667","city":"Ismailia, Al Ismā‘īlīyah","latitude":"30.5833"},{"latitude":"25.3113","country":"India","id":18717,"longitude":"87.1270","city":"Ismailpur, Bihār"},{"longitude":"11.6725","id":18718,"country":"Germany","latitude":"48.2264","city":"Ismaning, Bavaria"},{"id":18719,"city":"Ismayilli, İsmayıllı","country":"Azerbaijan","latitude":"40.7900","longitude":"48.1519"},{"longitude":"32.5500","country":"Egypt","city":"Isna, Qinā","latitude":"25.3000","id":18720},{"latitude":"17.5443","country":"India","id":18721,"longitude":"78.3486","city":"Isnapuram, Telangāna"},{"city":"Isnos, Huila","latitude":"1.9333","longitude":"-76.2333","id":18722,"country":"Colombia"},{"city":"Isny im Allgau, Baden-Württemberg","latitude":"47.6919","longitude":"10.0394","id":18723,"country":"Germany"},{"longitude":"45.7167","latitude":"-23.8333","country":"Madagascar","city":"Isoanala, Toliara","id":18724},{"longitude":"17.0956","id":18725,"city":"Isola Capo Rizzuto, Calabria","country":"Italy","latitude":"38.9589"},{"city":"Isola Vicentina, Veneto","latitude":"45.6333","longitude":"11.4500","id":18726,"country":"Italy"},{"city":"Isola del Liri, Lazio","id":18727,"country":"Italy","latitude":"41.6794","longitude":"13.5728"},{"city":"Isola della Scala, Veneto","country":"Italy","latitude":"45.2667","longitude":"11.1333","id":18728},{"id":18729,"country":"Madagascar","longitude":"46.9333","city":"Isorana, Fianarantsoa","latitude":"-21.3167"},{"id":18730,"longitude":"30.5567","country":"Turkey","latitude":"37.7647","city":"Isparta, Isparta"},{"city":"Isperih, Razgrad","id":18731,"country":"Bulgaria","latitude":"43.7167","longitude":"26.8333"},{"city":"Ispica, Sicilia","country":"Italy","latitude":"36.7833","longitude":"14.9000","id":18732},{"id":18733,"country":"Turkey","latitude":"40.4836","longitude":"40.9953","city":"Ispir, Erzurum"},{"country":"India","city":"Israin Kalan, Bihār","id":18734,"latitude":"25.9844","longitude":"87.0372"},{"id":18735,"city":"Israna, Haryāna","longitude":"76.8461","latitude":"29.2739","country":"India"},{"latitude":"7.0833","city":"Issaba, Plateau","longitude":"2.6167","country":"Benin","id":18736},{"country":"United States","longitude":"-122.0471","city":"Issaquah, Washington","id":18737,"latitude":"47.5439"},{"country":"Germany","id":18738,"longitude":"6.4667","latitude":"51.8331","city":"Isselburg, North Rhine-Westphalia"},{"id":18739,"longitude":"3.6660","city":"Isser, Boumerdes","latitude":"36.7160","country":"Algeria"},{"longitude":"3.2497","id":18740,"country":"France","latitude":"45.5450","city":"Issoire, Auvergne-Rhône-Alpes"},{"country":"France","id":18741,"longitude":"1.9944","city":"Issoudun, Centre-Val de Loire","latitude":"46.9608"},{"city":"Issum, North Rhine-Westphalia","longitude":"6.4236","id":18742,"latitude":"51.5389","country":"Germany"},{"longitude":"2.2700","id":18743,"city":"Issy-les-Moulineaux, Île-de-France","latitude":"48.8239","country":"France"},{"city":"Istanbul, İstanbul","id":18744,"country":"Turkey","latitude":"41.0136","longitude":"28.9550"},{"id":18745,"country":"Tajikistan","city":"Istaravshan, Sughd","latitude":"39.9108","longitude":"69.0064"},{"latitude":"5.1667","longitude":"-76.6833","country":"Colombia","city":"Istmina, Chocó","id":18746},{"longitude":"20.4833","country":"Kosovo","id":18747,"city":"Istog, Istog","latitude":"42.7833"},{"country":"Russia","latitude":"55.9167","id":18748,"city":"Istra, Moskovskaya Oblast’","longitude":"36.8667"},{"country":"Italy","city":"Istrana, Veneto","longitude":"12.1000","id":18749,"latitude":"45.6833"},{"country":"France","city":"Istres, Provence-Alpes-Côte d’Azur","longitude":"4.9895","latitude":"43.5151","id":18750},{"country":"India","id":18751,"longitude":"85.8430","city":"Isua, Bihār","latitude":"25.2330"},{"city":"Isulan, Sultan Kudarat","latitude":"6.6300","longitude":"124.6000","id":18752,"country":"Philippines"},{"country":"Japan","latitude":"35.2539","id":18753,"longitude":"140.3852","city":"Isumi, Chiba"},{"id":18754,"country":"Paraguay","city":"Ita, Central","latitude":"-25.4833","longitude":"-57.3500"},{"country":"Brazil","city":"Itabaiana, Paraíba","id":18755,"longitude":"-35.3328","latitude":"-7.3289"},{"country":"Brazil","longitude":"-37.4250","id":18756,"latitude":"-10.6850","city":"Itabaiana, Sergipe"},{"longitude":"-37.7900","latitude":"-11.2739","country":"Brazil","city":"Itabaianinha, Sergipe","id":18757},{"id":18758,"latitude":"35.7667","city":"Itabashi, Tōkyō","country":"Japan","longitude":"139.6833"},{"latitude":"-16.5750","city":"Itabela, Bahia","country":"Brazil","id":18759,"longitude":"-39.5528"},{"city":"Itabera, São Paulo","latitude":"-23.8619","country":"Brazil","longitude":"-49.1372","id":18760},{"country":"Brazil","longitude":"-40.3000","latitude":"-12.5333","city":"Itaberaba, Bahia","id":18761},{"latitude":"-16.0083","longitude":"-49.7961","id":18762,"city":"Itaberai, Goiás","country":"Brazil"},{"longitude":"-43.2269","latitude":"-19.6189","city":"Itabira, Minas Gerais","country":"Brazil","id":18763},{"city":"Itabirinha de Mantena, Minas Gerais","latitude":"-18.5658","country":"Brazil","longitude":"-41.2328","id":18764},{"latitude":"-20.2530","id":18765,"longitude":"-43.8010","country":"Brazil","city":"Itabirito, Minas Gerais"},{"country":"Brazil","city":"Itaborai, Rio de Janeiro","longitude":"-42.8589","latitude":"-22.7439","id":18766},{"id":18767,"longitude":"-39.2800","country":"Brazil","city":"Itabuna, Bahia","latitude":"-14.7858"},{"id":18768,"country":"Brazil","latitude":"-15.1017","city":"Itacarambi, Minas Gerais","longitude":"-44.1067"},{"city":"Itacare, Bahia","country":"Brazil","latitude":"-14.2781","longitude":"-38.9961","id":18769},{"latitude":"-3.1428","longitude":"-58.4439","country":"Brazil","city":"Itacoatiara, Amazonas","id":18770},{"city":"Itacurubi de la Cordillera, Cordillera","id":18771,"latitude":"-25.4500","country":"Paraguay","longitude":"-56.8500"},{"id":18772,"city":"Itaete, Bahia","country":"Brazil","longitude":"-40.9667","latitude":"-12.9833"},{"longitude":"-40.0058","id":18773,"country":"Brazil","latitude":"-14.1628","city":"Itagi, Bahia"},{"country":"Brazil","latitude":"-18.8000","city":"Itaguacu, Espírito Santo","longitude":"-40.8500","id":18774},{"city":"Itaguara, Minas Gerais","latitude":"-20.3919","longitude":"-44.4878","id":18775,"country":"Brazil"},{"city":"Itagui, Antioquia","latitude":"6.1667","longitude":"-75.6167","country":"Colombia","id":18776},{"id":18777,"longitude":"87.6200","country":"Nepal","latitude":"26.5500","city":"Itahara, "},{"city":"Itahari, ","latitude":"26.6631","longitude":"87.2744","country":"Nepal","id":18778},{"latitude":"25.3130","id":18779,"longitude":"86.5459","city":"Itahri, Bihār","country":"India"},{"latitude":"-23.4178","longitude":"-49.0906","city":"Itai, São Paulo","id":18780,"country":"Brazil"},{"id":18781,"country":"Brazil","city":"Itaiba, Pernambuco","longitude":"-37.4228","latitude":"-8.9478"},{"latitude":"-7.4000","longitude":"-41.5167","country":"Brazil","city":"Itainopolis, Piauí","id":18782},{"country":"Brazil","longitude":"-49.9058","id":18783,"city":"Itaiopolis, Santa Catarina","latitude":"-26.3358"},{"country":"Brazil","longitude":"-41.6689","id":18784,"city":"Itaipe, Minas Gerais","latitude":"-17.4019"},{"country":"Brazil","city":"Itaitinga, Ceará","latitude":"-3.9667","longitude":"-38.5167","id":18785},{"latitude":"-4.2758","country":"Brazil","city":"Itaituba, Pará","longitude":"-55.9839","id":18786},{"latitude":"-26.9000","id":18787,"longitude":"-48.6667","country":"Brazil","city":"Itajai, Santa Catarina"},{"city":"Itajiba, Bahia","latitude":"-14.2833","longitude":"-39.8500","id":18788,"country":"Brazil"},{"country":"Brazil","longitude":"-49.0539","city":"Itajobi, São Paulo","id":18789,"latitude":"-21.3178"},{"city":"Itajuba, Minas Gerais","latitude":"-22.4258","longitude":"-45.4528","id":18790,"country":"Brazil"},{"country":"Brazil","city":"Itajuipe, Bahia","id":18791,"latitude":"-14.6833","longitude":"-39.3667"},{"city":"Itako, Ibaraki","latitude":"35.9471","id":18792,"longitude":"140.5554","country":"Japan"},{"country":"Japan","city":"Itakura, Gunma","latitude":"36.2229","id":18793,"longitude":"139.6103"},{"latitude":"-21.4208","longitude":"-41.6908","id":18794,"country":"Brazil","city":"Italva, Rio de Janeiro"},{"country":"Brazil","id":18795,"city":"Itamaraca, Pernambuco","longitude":"-34.8278","latitude":"-7.7472"},{"latitude":"-17.0667","id":18796,"longitude":"-39.5333","country":"Brazil","city":"Itamaraju, Bahia"},{"country":"Brazil","city":"Itamarandiba, Minas Gerais","latitude":"-17.8569","id":18797,"longitude":"-42.8589"},{"latitude":"-6.4250","country":"Brazil","city":"Itamarati, Amazonas","longitude":"-68.2528","id":18798},{"city":"Itamati, Odisha","country":"India","latitude":"20.1333","longitude":"85.1500","id":18799},{"longitude":"-41.7000","city":"Itambacuri, Minas Gerais","latitude":"-18.0167","country":"Brazil","id":18800},{"city":"Itambe, Bahia","latitude":"-15.2450","country":"Brazil","longitude":"-40.6239","id":18801},{"city":"Itami, Hyōgo","longitude":"135.4000","country":"Japan","latitude":"34.7833","id":18802},{"id":18803,"country":"Brazil","longitude":"-47.0500","latitude":"-21.0833","city":"Itamogi, Minas Gerais"},{"latitude":"-22.2833","id":18804,"country":"Brazil","longitude":"-44.8833","city":"Itamonte, Minas Gerais"},{"latitude":"-24.6833","city":"Itampolo, Toliara","country":"Madagascar","id":18805,"longitude":"43.9500"},{"longitude":"80.1130","city":"Itamukkala, Andhra Pradesh","id":18806,"latitude":"15.3731","country":"India"},{"longitude":"93.6200","id":18807,"country":"India","latitude":"27.1000","city":"Itanagar, Arunāchal Pradesh"},{"latitude":"-24.1806","id":18808,"country":"Brazil","city":"Itanhaem, São Paulo","longitude":"-46.7828"},{"latitude":"-22.3000","city":"Itanhandu, Minas Gerais","id":18809,"country":"Brazil","longitude":"-44.9500"},{"id":18810,"city":"Itanhem, Bahia","longitude":"-40.3333","latitude":"-17.1500","country":"Brazil"},{"longitude":"-41.8667","city":"Itanhomi, Minas Gerais","id":18811,"country":"Brazil","latitude":"-19.1667"},{"id":18812,"city":"Itano, Tokushima","country":"Japan","latitude":"34.1444","longitude":"134.4626"},{"id":18813,"country":"Brazil","longitude":"-42.0819","latitude":"-21.6789","city":"Itaocara, Rio de Janeiro"},{"id":18814,"longitude":"47.4667","latitude":"-18.9167","country":"Madagascar","city":"Itaosy, Antananarivo"},{"id":18815,"country":"Nigeria","city":"Itapa-Ekiti, Ekiti","latitude":"7.8131","longitude":"5.3844"},{"city":"Itapaci, Goiás","latitude":"-14.9611","country":"Brazil","longitude":"-49.5594","id":18816},{"latitude":"-3.6833","id":18817,"city":"Itapage, Ceará","longitude":"-39.5833","country":"Brazil"},{"longitude":"-49.3808","id":18818,"latitude":"-19.9089","city":"Itapagipe, Minas Gerais","country":"Brazil"},{"longitude":"-38.6789","country":"Brazil","id":18819,"city":"Itaparica, Bahia","latitude":"-12.8878"},{"city":"Itape, Bahia","longitude":"-39.4208","id":18820,"country":"Brazil","latitude":"-14.8978"},{"country":"Brazil","latitude":"-15.9333","id":18821,"longitude":"-39.5333","city":"Itapebi, Bahia"},{"city":"Itapecerica da Serra, São Paulo","longitude":"-46.8494","latitude":"-23.7172","id":18822,"country":"Brazil"},{"country":"Brazil","latitude":"-20.4728","city":"Itapecerica, Minas Gerais","longitude":"-46.1258","id":18823},{"id":18824,"city":"Itapecuru Mirim, Maranhão","latitude":"-3.3928","country":"Brazil","longitude":"-44.3589"},{"id":18825,"city":"Itapema, Santa Catarina","latitude":"-27.0900","country":"Brazil","longitude":"-48.6108"},{"country":"Brazil","latitude":"-21.0111","longitude":"-40.8339","city":"Itapemirim, Espírito Santo","id":18826},{"country":"Brazil","latitude":"-25.2000","id":18827,"city":"Itaperucu, Paraná","longitude":"-49.3667"},{"city":"Itaperuna, Rio de Janeiro","latitude":"-21.2050","country":"Brazil","id":18828,"longitude":"-41.8878"},{"latitude":"-7.3778","city":"Itapetim, Pernambuco","longitude":"-37.1900","country":"Brazil","id":18829},{"id":18830,"country":"Brazil","longitude":"-40.2555","latitude":"-15.2535","city":"Itapetinga, Bahia"},{"latitude":"-23.5917","longitude":"-48.0531","city":"Itapetininga, São Paulo","id":18831,"country":"Brazil"},{"latitude":"-22.7678","city":"Itapeva, Minas Gerais","id":18832,"longitude":"-46.2208","country":"Brazil"},{"latitude":"-23.9822","city":"Itapeva, São Paulo","country":"Brazil","longitude":"-48.8756","id":18833},{"longitude":"-46.9342","latitude":"-23.5489","id":18834,"city":"Itapevi, São Paulo","country":"Brazil"},{"longitude":"-38.2328","city":"Itapicuru, Bahia","id":18835,"country":"Brazil","latitude":"-11.3169"},{"country":"Brazil","city":"Itapipoca, Ceará","latitude":"-3.4939","longitude":"-39.5789","id":18836},{"country":"Brazil","city":"Itapira, São Paulo","latitude":"-22.4361","longitude":"-46.8217","id":18837},{"country":"Brazil","longitude":"-58.0219","id":18838,"city":"Itapiranga, Amazonas","latitude":"-2.7489"},{"latitude":"-27.1689","country":"Brazil","longitude":"-53.7119","city":"Itapiranga, Santa Catarina","id":18839},{"country":"Brazil","longitude":"-34.8919","city":"Itapissuma, Pernambuco","id":18840,"latitude":"-7.7758"},{"longitude":"-39.5650","city":"Itapitanga, Bahia","latitude":"-14.4228","country":"Brazil","id":18841},{"country":"Brazil","city":"Itapiuna, Ceará","latitude":"-4.5500","id":18842,"longitude":"-38.9500"},{"longitude":"-48.8128","country":"Brazil","id":18843,"city":"Itapolis, São Paulo","latitude":"-21.5958"},{"id":18844,"latitude":"-22.0789","longitude":"-54.7889","city":"Itapora, Mato Grosso do Sul","country":"Brazil"},{"country":"Brazil","latitude":"-10.9978","longitude":"-37.3108","city":"Itaporanga d'Ajuda, Sergipe","id":18845},{"id":18846,"city":"Itaporanga, Paraíba","country":"Brazil","latitude":"-7.3039","longitude":"-38.1500"},{"city":"Itapororoca, Paraíba","latitude":"-6.8500","longitude":"-35.2500","id":18847,"country":"Brazil"},{"longitude":"-48.7192","country":"Brazil","city":"Itapui, São Paulo","latitude":"-22.2333","id":18848},{"country":"Brazil","longitude":"-49.9489","city":"Itapuranga, Goiás","latitude":"-15.5619","id":18849},{"country":"Brazil","longitude":"-46.3486","city":"Itaquaquecetuba, São Paulo","latitude":"-23.4864","id":18850},{"city":"Itaqui, Rio Grande do Sul","id":18851,"country":"Brazil","latitude":"-29.1167","longitude":"-56.5500"},{"latitude":"-7.6667","country":"Brazil","id":18852,"city":"Itaquitinga, Pernambuco","longitude":"-35.1000"},{"city":"Itarana, Espírito Santo","longitude":"-40.8750","country":"Brazil","id":18853,"latitude":"-19.8739"},{"id":18854,"city":"Itarantim, Bahia","latitude":"-15.6500","country":"Brazil","longitude":"-40.0500"},{"latitude":"-24.1125","city":"Itarare, São Paulo","id":18855,"longitude":"-49.3317","country":"Brazil"},{"longitude":"-39.9144","country":"Brazil","id":18856,"city":"Itarema, Ceará","latitude":"-2.9233"},{"id":18857,"country":"India","city":"Itarhi, Bihār","latitude":"25.4832","longitude":"84.0129"},{"city":"Itariri, São Paulo","latitude":"-24.2889","id":18858,"longitude":"-47.1739","country":"Brazil"},{"id":18859,"city":"Itarsi, Madhya Pradesh","country":"India","longitude":"77.7623","latitude":"22.6115"},{"city":"Itasca, Illinois","latitude":"41.9772","country":"United States","longitude":"-88.0183","id":18860},{"latitude":"-22.4961","longitude":"-44.5633","id":18861,"country":"Brazil","city":"Itatiaia, Rio de Janeiro"},{"longitude":"-44.4167","id":18862,"city":"Itatiaiucu, Minas Gerais","country":"Brazil","latitude":"-20.2000"},{"country":"Brazil","id":18863,"city":"Itatiba, São Paulo","latitude":"-23.0058","longitude":"-46.8389"},{"id":18864,"latitude":"-12.7119","country":"Brazil","city":"Itatim, Bahia","longitude":"-39.6978"},{"longitude":"-48.6158","city":"Itatinga, São Paulo","country":"Brazil","latitude":"-23.1017","id":18865},{"city":"Itatira, Ceará","id":18866,"longitude":"-39.6167","latitude":"-4.5000","country":"Brazil"},{"country":"Brazil","city":"Itatuba, Paraíba","latitude":"-7.3750","longitude":"-35.6278","id":18867},{"longitude":"-46.7519","latitude":"-20.7389","country":"Brazil","id":18868,"city":"Itau de Minas, Minas Gerais"},{"latitude":"-7.6000","id":18869,"country":"Brazil","city":"Itaueira, Piauí","longitude":"-43.0333"},{"country":"Paraguay","city":"Itaugua, Central","id":18870,"longitude":"-57.3333","latitude":"-25.3833"},{"city":"Itauna, Minas Gerais","latitude":"-20.0750","country":"Brazil","id":18871,"longitude":"-44.5758"},{"latitude":"40.6959","longitude":"140.4572","id":18872,"country":"Japan","city":"Itayanagi, Aomori"},{"longitude":"4.0625","city":"Itele, Ogun","latitude":"6.7667","id":18873,"country":"Nigeria"},{"latitude":"0.6731","country":"Kenya","id":18874,"longitude":"35.5083","city":"Iten, Elgeyo\/Marakwet"},{"latitude":"42.4442","city":"Ithaca, New York","id":18875,"country":"United States","longitude":"-76.5032"},{"id":18876,"city":"Itigi, Singida","country":"Tanzania","longitude":"34.4833","latitude":"-5.7000"},{"longitude":"77.6582","city":"Itikalapalle, Andhra Pradesh","country":"India","id":18877,"latitude":"14.6013"},{"latitude":"14.9510","longitude":"76.0944","id":18878,"country":"India","city":"Itiki, Karnātaka"},{"id":18879,"country":"Brazil","longitude":"-41.7719","city":"Itinga, Minas Gerais","latitude":"-16.6094"},{"city":"Itiquira, Mato Grosso","id":18880,"latitude":"-17.2089","country":"Brazil","longitude":"-54.1500"},{"country":"Brazil","city":"Itirapina, São Paulo","longitude":"-47.8228","id":18881,"latitude":"-22.2528"},{"city":"Itirucu, Bahia","latitude":"-13.5167","country":"Brazil","longitude":"-40.1500","id":18882},{"country":"Brazil","id":18883,"latitude":"-10.6908","longitude":"-39.8528","city":"Itiuba, Bahia"},{"city":"Itki Thakurgaon, Jhārkhand","country":"India","latitude":"23.3456","id":18884,"longitude":"85.1114"},{"longitude":"139.1019","id":18885,"country":"Japan","city":"Ito, Shizuoka","latitude":"34.9657"},{"id":18886,"country":"Philippines","longitude":"120.6700","city":"Itogon, Benguet","latitude":"16.3700"},{"longitude":"137.8627","id":18887,"country":"Japan","city":"Itoigawa, Niigata","latitude":"37.0390"},{"country":"Japan","city":"Itoman, Okinawa","longitude":"127.6658","id":18888,"latitude":"26.1236"},{"country":"Madagascar","city":"Itondy, Toliara","longitude":"45.3500","latitude":"-19.0500","id":18889},{"city":"Itororo, Bahia","latitude":"-15.1169","id":18890,"country":"Brazil","longitude":"-40.0700"},{"latitude":"33.5539","city":"Itoshima, Fukuoka","longitude":"130.1978","id":18891,"country":"Japan"},{"longitude":"13.5333","id":18892,"latitude":"41.2833","country":"Italy","city":"Itri, Lazio"},{"id":18893,"city":"Itsoseng, North West","country":"South Africa","latitude":"-26.0830","longitude":"25.8820"},{"city":"Itsukaichi, Tōkyō","country":"Japan","id":18894,"longitude":"139.2667","latitude":"35.7522"},{"latitude":"8.8633","country":"India","longitude":"76.6972","id":18895,"city":"Ittikara, Kerala"},{"city":"Ittikelakunta, Andhra Pradesh","country":"India","id":18896,"latitude":"16.6797","longitude":"81.7094"},{"id":18897,"latitude":"8.8500","longitude":"76.8833","city":"Ittiva, Kerala","country":"India"},{"country":"Brazil","id":18898,"city":"Itu, São Paulo","latitude":"-23.2642","longitude":"-47.2992"},{"latitude":"-13.8167","longitude":"-41.3000","country":"Brazil","city":"Ituacu, Bahia","id":18899},{"longitude":"-75.7500","latitude":"7.1667","country":"Colombia","id":18900,"city":"Ituango, Antioquia"},{"longitude":"-39.1500","country":"Brazil","city":"Itubera, Bahia","latitude":"-13.7333","id":18901},{"city":"Ituiutaba, Minas Gerais","latitude":"-18.9667","longitude":"-49.4667","id":18902,"country":"Brazil"},{"longitude":"-49.2167","id":18903,"country":"Brazil","latitude":"-18.4167","city":"Itumbiara, Goiás"},{"latitude":"5.5333","longitude":"-58.2500","id":18904,"country":"Guyana","city":"Ituni, Upper Demerara-Berbice"},{"country":"Brazil","latitude":"-23.1531","id":18905,"longitude":"-47.0578","city":"Itupeva, São Paulo"},{"longitude":"-49.3333","id":18906,"country":"Brazil","city":"Itupiranga, Pará","latitude":"-5.1500"},{"latitude":"-27.4167","id":18907,"longitude":"-49.6000","country":"Brazil","city":"Ituporanga, Santa Catarina"},{"city":"Iturama, Minas Gerais","country":"Brazil","longitude":"-50.1961","id":18908,"latitude":"-19.7297"},{"longitude":"-58.6667","id":18909,"country":"Argentina","latitude":"-34.6667","city":"Ituzaingo, Buenos Aires"},{"longitude":"-56.6667","id":18910,"country":"Argentina","city":"Ituzaingo, Corrientes","latitude":"-27.6000"},{"id":18911,"country":"Germany","latitude":"53.9250","longitude":"9.5164","city":"Itzehoe, Schleswig-Holstein"},{"country":"Morocco","latitude":"32.8833","longitude":"-5.0500","id":18912,"city":"Itzer, Drâa-Tafilalet"},{"city":"Iuiu, Bahia","country":"Brazil","latitude":"-14.4000","longitude":"-43.5833","id":18913},{"city":"Iuna, Espírito Santo","id":18914,"longitude":"-41.5358","country":"Brazil","latitude":"-20.3458"},{"id":18915,"city":"Ivai, Paraná","latitude":"-25.0108","longitude":"-50.8589","country":"Brazil"},{"id":18916,"longitude":"-51.7500","country":"Brazil","city":"Ivaipora, Paraná","latitude":"-24.2500"},{"country":"Belarus","latitude":"52.1333","city":"Ivanava, Brestskaya Voblasts’","longitude":"25.5500","id":18917},{"city":"Ivancice, Jihomoravský Kraj","id":18918,"longitude":"16.3775","country":"Czechia","latitude":"49.1014"},{"country":"Slovenia","longitude":"14.8029","city":"Ivancna Gorica, Ivančna Gorica","latitude":"45.9374","id":18919},{"city":"Ivandrika, Fianarantsoa","longitude":"47.7333","id":18920,"latitude":"-22.8667","country":"Madagascar"},{"city":"Ivanec, Varaždinska Županija","latitude":"46.2264","longitude":"16.1253","id":18921,"country":"Croatia"},{"id":18922,"longitude":"28.2167","country":"Russia","city":"Ivangorod, Leningradskaya Oblast’","latitude":"59.3667"},{"longitude":"144.2994","id":18923,"latitude":"-32.9164","country":"Australia","city":"Ivanhoe, New South Wales"},{"longitude":"16.3947","country":"Croatia","id":18924,"latitude":"45.7081","city":"Ivanic-Grad, Zagrebačka Županija"},{"latitude":"43.5811","longitude":"20.2297","country":"Serbia","id":18925,"city":"Ivanjica, Ivanjica"},{"longitude":"29.9047","city":"Ivankiv, Kyivska Oblast","latitude":"50.9328","country":"Ukraine","id":18926},{"country":"Ukraine","latitude":"48.9228","longitude":"24.7106","id":18927,"city":"Ivano-Frankivsk, Ivano-Frankivska Oblast"},{"latitude":"42.8864","city":"Ivanovka, Chüy","id":18928,"longitude":"75.0822","country":"Kyrgyzstan"},{"longitude":"40.9819","id":18929,"city":"Ivanovo, Ivanovskaya Oblast’","latitude":"56.9967","country":"Russia"},{"longitude":"37.9333","latitude":"55.9833","city":"Ivanteyevka, Moskovskaya Oblast’","country":"Russia","id":18930},{"country":"Madagascar","latitude":"-20.6167","city":"Ivato, Fianarantsoa","longitude":"47.2000","id":18931},{"id":18932,"longitude":"25.3333","city":"Ivatsevichy, Brestskaya Voblasts’","country":"Belarus","latitude":"52.7167"},{"longitude":"60.4167","id":18933,"country":"Russia","city":"Ivdel, Sverdlovskaya Oblast’","latitude":"60.6833"},{"latitude":"51.5210","id":18934,"city":"Iver, Buckinghamshire","longitude":"-0.5070","country":"United Kingdom"},{"country":"United States","longitude":"-80.1830","city":"Ives Estates, Florida","id":18935,"latitude":"25.9632"},{"longitude":"-113.6809","country":"United States","latitude":"37.1742","city":"Ivins, Utah","id":18936},{"id":18937,"country":"Philippines","city":"Ivisan, Capiz","latitude":"11.5217","longitude":"122.6908"},{"latitude":"-21.4000","city":"Ivoamba, Fianarantsoa","country":"Madagascar","longitude":"47.1667","id":18938},{"id":18939,"country":"Brazil","city":"Ivoti, Rio Grande do Sul","longitude":"-51.1667","latitude":"-29.6000"},{"longitude":"7.8833","country":"Italy","id":18940,"city":"Ivrea, Piedmont","latitude":"45.4667"},{"country":"Turkey","latitude":"39.5833","longitude":"27.4833","city":"Ivrindi, Balıkesir","id":18941},{"latitude":"48.8078","id":18942,"longitude":"2.3747","city":"Ivry-sur-Seine, Île-de-France","country":"France"},{"longitude":"-3.9210","id":18943,"latitude":"50.3890","city":"Ivybridge, Devon","country":"United Kingdom"},{"latitude":"35.5833","longitude":"134.3333","country":"Japan","id":18944,"city":"Iwai, Tottori"},{"city":"Iwaizumi, Iwate","longitude":"141.7964","latitude":"39.8431","id":18945,"country":"Japan"},{"latitude":"40.6159","longitude":"140.4213","id":18946,"city":"Iwaka, Aomori","country":"Japan"},{"id":18947,"country":"Japan","city":"Iwaki, Fukushima","latitude":"37.0505","longitude":"140.8877"},{"id":18948,"country":"Japan","latitude":"34.1664","longitude":"132.2189","city":"Iwakuni, Yamaguchi"},{"longitude":"136.8714","country":"Japan","latitude":"35.2794","id":18949,"city":"Iwakura, Aichi"},{"latitude":"43.2000","city":"Iwamizawa, Hokkaidō","longitude":"141.7833","id":18950,"country":"Japan"},{"country":"Japan","city":"Iwamuro-onsen, Niigata","latitude":"37.7375","longitude":"138.8391","id":18951},{"city":"Iwanai, Hokkaidō","latitude":"42.9789","longitude":"140.5092","country":"Japan","id":18952},{"longitude":"140.8702","country":"Japan","id":18953,"city":"Iwanuma, Miyagi","latitude":"38.1043"},{"city":"Iwashita, Kumamoto","id":18954,"latitude":"32.6500","longitude":"130.8167","country":"Japan"},{"city":"Iwata, Shizuoka","longitude":"137.8515","country":"Japan","id":18955,"latitude":"34.7179"},{"country":"Japan","city":"Iwate, Iwate","longitude":"141.2122","id":18956,"latitude":"39.9728"},{"city":"Iwo, Osun","longitude":"4.1833","latitude":"7.6333","country":"Nigeria","id":18957},{"id":18958,"city":"Ixcatepec, Veracruz","country":"Mexico","longitude":"-98.0000","latitude":"21.2333"},{"id":18959,"latitude":"15.1675","longitude":"-91.9319","country":"Guatemala","city":"Ixchiguan, San Marcos"},{"longitude":"-98.0167","latitude":"20.6833","city":"Ixhuatlan de Madero, Veracruz","id":18960,"country":"Mexico"},{"id":18961,"country":"Mexico","latitude":"18.0170","longitude":"-94.3800","city":"Ixhuatlan del Sureste, Veracruz"},{"id":18962,"city":"Ixhuatlancillo, Veracruz","country":"Mexico","latitude":"18.9000","longitude":"-97.1500"},{"country":"Mexico","id":18963,"city":"Ixmiquilpan, Hidalgo","latitude":"20.4819","longitude":"-99.2181"},{"longitude":"-97.0667","country":"Mexico","latitude":"18.8500","city":"Ixtaczoquitlan, Veracruz","id":18964},{"longitude":"-91.7667","id":18965,"city":"Ixtahuacan, Huehuetenango","country":"Guatemala","latitude":"15.4167"},{"city":"Ixtapa Zihuatanejo, Guerrero","country":"Mexico","latitude":"17.6367","longitude":"-101.5514","id":18966},{"city":"Ixtapaluca, México","latitude":"19.3186","country":"Mexico","longitude":"-98.8822","id":18967},{"longitude":"-99.6833","id":18968,"country":"Mexico","city":"Ixtapan de la Sal, México","latitude":"18.8333"},{"city":"Ixtlahuaca, México","id":18969,"longitude":"-99.7669","country":"Mexico","latitude":"19.5689"},{"longitude":"-103.1833","id":18970,"country":"Mexico","city":"Ixtlahuacan de los Membrillos, Jalisco","latitude":"20.3500"},{"id":18971,"country":"Mexico","city":"Ixtlahuacan del Rio, Jalisco","latitude":"20.8667","longitude":"-103.2500"},{"id":18972,"country":"Morocco","latitude":"29.5001","city":"Iygli, Souss-Massa","longitude":"-9.0501"},{"latitude":"33.7500","city":"Iyo, Ehime","country":"Japan","id":18973,"longitude":"132.7000"},{"country":"El Salvador","id":18974,"longitude":"-89.6667","latitude":"13.7333","city":"Izalco, Sonsonate"},{"country":"Mexico","latitude":"20.9314","id":18975,"city":"Izamal, Yucatán","longitude":"-89.0178"},{"longitude":"47.8636","city":"Izberbash, Dagestan","id":18976,"country":"Russia","latitude":"42.5633"},{"country":"Belgium","id":18977,"latitude":"50.9167","longitude":"3.2000","city":"Izegem, Flanders"},{"city":"Izhevsk, Udmurtiya","latitude":"56.8333","country":"Russia","longitude":"53.1833","id":18978},{"city":"Iziaslav, Khmelnytska Oblast","longitude":"26.8000","country":"Ukraine","id":18979,"latitude":"50.1167"},{"id":18980,"country":"Ukraine","longitude":"37.2569","city":"Izium, Kharkivska Oblast","latitude":"49.2128"},{"latitude":"22.9339","country":"Oman","city":"Izki, Ad Dākhilīyah","longitude":"57.7750","id":18981},{"city":"Izmail, Odeska Oblast","longitude":"28.8364","id":18982,"country":"Ukraine","latitude":"45.3517"},{"city":"Izmir, İzmir","id":18983,"longitude":"27.1400","latitude":"38.4200","country":"Turkey"},{"latitude":"40.4292","city":"Iznik, Bursa","id":18984,"longitude":"29.7211","country":"Turkey"},{"longitude":"41.7167","country":"Russia","id":18985,"city":"Izobil'nyy, Stavropol’skiy Kray","latitude":"45.3667"},{"latitude":"45.5344","longitude":"13.6675","country":"Slovenia","city":"Izola, Izola","id":18986},{"country":"Syria","longitude":"36.2499","id":18987,"latitude":"32.8454","city":"Izra, Dar‘ā"},{"country":"Guatemala","id":18988,"city":"Iztapa, Escuintla","latitude":"13.9331","longitude":"-90.7075"},{"city":"Izu, Shizuoka","longitude":"138.9468","id":18989,"country":"Japan","latitude":"34.9765"},{"id":18990,"country":"Japan","city":"Izumi, Kagoshima","latitude":"32.0833","longitude":"130.3500"},{"city":"Izumiotsu, Ōsaka","latitude":"34.5000","longitude":"135.4000","country":"Japan","id":18991},{"id":18992,"city":"Izumisano, Ōsaka","longitude":"135.3333","country":"Japan","latitude":"34.4000"},{"longitude":"132.7547","city":"Izumo, Shimane","id":18993,"country":"Japan","latitude":"35.3669"},{"longitude":"138.9333","id":18994,"latitude":"35.0333","country":"Japan","city":"Izunokuni, Shizuoka"},{"longitude":"45.3056","latitude":"13.2231","country":"Yemen","id":18995,"city":"Ja`ar, Abyan"},{"city":"Ja`fariyeh, Qom","latitude":"34.7739","longitude":"50.5164","id":18996,"country":"Iran"},{"country":"India","city":"Jabalpur, Madhya Pradesh","longitude":"79.9333","id":18997,"latitude":"23.1667"},{"latitude":"31.5281","id":18998,"country":"Gaza Strip","city":"Jabalya, ","longitude":"34.4831"},{"latitude":"51.1500","id":18999,"longitude":"3.2333","country":"Belgium","city":"Jabbeke, Flanders"},{"country":"India","city":"Jabera, Madhya Pradesh","longitude":"79.6780","id":19000,"latitude":"23.5582"},