{"cities":[{"country":"Uzbekistan","latitude":"40.0214","city":"G'allaorol Shahri, Jizzax","longitude":"67.5975","id":14638},{"country":"Uzbekistan","city":"G'ijduvon Shahri, Buxoro","latitude":"40.1000","longitude":"64.6667","id":14639},{"city":"G'oliblar Qishlog'i, Jizzax","country":"Uzbekistan","longitude":"67.8778","id":14640,"latitude":"40.4953"},{"latitude":"41.5625","id":14641,"country":"Uzbekistan","longitude":"69.7750","city":"G`azalkent, Toshkent"},{"country":"Uzbekistan","latitude":"40.5944","city":"G`ozg`on, Navoiy","longitude":"65.4964","id":14642},{"city":"G`uzor, Qashqadaryo","country":"Uzbekistan","id":14643,"latitude":"38.6208","longitude":"66.2481"},{"longitude":"30.2260","id":14644,"country":"South Africa","city":"Ga-Kgapane, Limpopo","latitude":"-23.6490"},{"latitude":"35.1594","city":"Gaada, Oriental","id":14645,"country":"Morocco","longitude":"-2.9892"},{"longitude":"47.4308","id":14646,"city":"Gaalkacyo, Mudug","latitude":"6.7697","country":"Somalia"},{"city":"Gabaldon, Nueva Ecija","latitude":"15.4506","longitude":"121.3378","id":14647,"country":"Philippines"},{"latitude":"-24.6667","longitude":"25.7833","id":14648,"city":"Gabane, Kweneng","country":"Botswana"},{"latitude":"35.2481","longitude":"100.5903","country":"China","city":"Gabasumdo, Qinghai","id":14649},{"country":"Angola","longitude":"14.3667","city":"Gabela, Cuanza-Sul","latitude":"-10.8500","id":14650},{"city":"Gabes, Gabès","id":14651,"longitude":"10.1167","country":"Tunisia","latitude":"33.8833"},{"longitude":"25.9122","city":"Gaborone, Gaborone","id":14652,"country":"Botswana","latitude":"-24.6581"},{"country":"Bulgaria","longitude":"25.3333","id":14653,"latitude":"42.8667","city":"Gabrovo, Gabrovo"},{"latitude":"12.2833","country":"Guinea-Bissau","longitude":"-14.2167","id":14654,"city":"Gabu, Gabú"},{"country":"Colombia","longitude":"-73.8731","city":"Gachancipa, Cundinamarca","id":14655,"latitude":"4.9908"},{"latitude":"4.8176","city":"Gacheta, Cundinamarca","longitude":"-73.6360","id":14656,"country":"Colombia"},{"id":14657,"city":"Gacko, Srpska","country":"Bosnia and Herzegovina","longitude":"18.5333","latitude":"43.1667"},{"country":"Azerbaijan","latitude":"40.5656","id":14658,"city":"Gadabay, Gədəbəy","longitude":"45.8161"},{"latitude":"15.4167","id":14659,"country":"India","city":"Gadag, Karnātaka","longitude":"75.6167"},{"city":"Gadani, Balochistan","country":"Pakistan","longitude":"66.7319","id":14660,"latitude":"25.1194"},{"city":"Gadarpur, Uttarākhand","latitude":"29.0437","longitude":"79.2465","id":14661,"country":"India"},{"latitude":"22.9235","id":14662,"country":"India","city":"Gadarwara, Madhya Pradesh","longitude":"78.7849"},{"longitude":"86.2375","latitude":"26.1287","country":"India","city":"Gadaul, Bihār","id":14663},{"latitude":"18.7519","city":"Gadda Madiral, Telangāna","longitude":"79.5133","country":"India","id":14664},{"country":"India","latitude":"21.9700","longitude":"71.5700","id":14665,"city":"Gadhada, Gujarāt"},{"country":"Somalia","latitude":"5.6897","city":"Gadoon, Galguduud","id":14666,"longitude":"46.6847"},{"id":14667,"latitude":" 34° 00' 56\"","longitude":"-86° 00' 41\"","city":"Gadsden, Alabama","country":"United States"},{"latitude":"16.2300","longitude":"77.8000","city":"Gadwal, Telangāna","id":14668,"country":"India"},{"country":"Russia","city":"Gadzhiyevo, Murmanskaya Oblast’","longitude":"33.4167","id":14669,"latitude":"69.2500"},{"id":14670,"longitude":"22.0322","latitude":"43.2228","country":"Serbia","city":"Gadzin Han, Gadžin Han"},{"country":"Romania","longitude":"25.3197","city":"Gaesti, Dâmboviţa","id":14671,"latitude":"44.7194"},{"latitude":"41.2167","country":"Italy","id":14672,"longitude":"13.5667","city":"Gaeta, Lazio"},{"latitude":"40.6350","city":"Gafanha da Nazare, Aveiro","id":14673,"country":"Portugal","longitude":"-8.7140"},{"latitude":"35.0743","country":"United States","city":"Gaffney, South Carolina","id":14674,"longitude":"-81.6552"},{"longitude":"9.3200","latitude":"36.3400","city":"Gafour, Siliana","country":"Tunisia","id":14675},{"city":"Gafsa, Gafsa","country":"Tunisia","longitude":"8.7842","id":14676,"latitude":"34.4225"},{"country":"Uzbekistan","id":14677,"latitude":"40.6619","longitude":"68.1722","city":"Gagarin Shahri, Jizzax"},{"latitude":"55.5500","city":"Gagarin, Smolenskaya Oblast’","country":"Russia","longitude":"35.0167","id":14678},{"city":"Gages Lake, Illinois","latitude":"42.3519","country":"United States","longitude":"-87.9828","id":14679},{"id":14680,"city":"Gaggenau, Baden-Württemberg","latitude":"48.8039","country":"Germany","longitude":"8.3194"},{"longitude":"9.0333","country":"Italy","latitude":"45.4000","city":"Gaggiano, Lombardy","id":14681},{"id":14682,"city":"Gagnef, Dalarna","longitude":"15.0667","latitude":"60.5833","country":"Sweden"},{"city":"Gagnoa, Gôh-Djiboua","country":"Côte d’Ivoire","latitude":"6.1333","longitude":"-5.9333","id":14683},{"country":"France","longitude":"2.5333","id":14684,"city":"Gagny, Île-de-France","latitude":"48.8833"},{"longitude":"-82.8637","country":"United States","city":"Gahanna, Ohio","id":14685,"latitude":"40.0251"},{"id":14686,"longitude":"71.9575","country":"Pakistan","latitude":"29.7375","city":"Gahi Mammar, Punjab"},{"city":"Gahini, Eastern Province","longitude":"30.4781","country":"Rwanda","id":14687,"latitude":"-1.8422"},{"longitude":"83.8220","id":14688,"latitude":"25.4970","country":"India","city":"Gahmar, Uttar Pradesh"},{"city":"Gaibandha, Rangpur","country":"Bangladesh","latitude":"25.3290","longitude":"89.5415","id":14689},{"longitude":"-78.9484","latitude":"9.5586","id":14690,"city":"Gaigirgordub, Guna Yala","country":"Panama"},{"country":"Germany","longitude":"9.7667","latitude":"49.0000","city":"Gaildorf, Baden-Württemberg","id":14691},{"id":14692,"latitude":"43.9014","city":"Gaillac, Occitanie","country":"France","longitude":"1.8992"},{"longitude":"6.2083","latitude":"46.1858","city":"Gaillard, Auvergne-Rhône-Alpes","id":14693,"country":"France"},{"latitude":"48.8167","longitude":"11.3667","country":"Germany","id":14694,"city":"Gaimersheim, Bavaria"},{"longitude":"-82° 15' 00\"","id":14695,"latitude":" 29° 41' 59\"","city":"Gainesville, Florida","country":"United States"},{"country":"United States","id":14696,"city":"Gainesville, Georgia","longitude":"-83° 47' 59\"","latitude":" 34° 16' 01\""},{"longitude":"-97.1487","city":"Gainesville, Texas","id":14697,"latitude":"33.6390","country":"United States"},{"id":14698,"latitude":"38.7931","longitude":"-77.6347","country":"United States","city":"Gainesville, Virginia"},{"latitude":"25.9916","id":14699,"longitude":"87.4648","country":"India","city":"Gainrha, Bihār"},{"longitude":"-0.7732","country":"United Kingdom","latitude":"53.4016","id":14700,"city":"Gainsborough, Lincolnshire"},{"country":"Philippines","city":"Gainza, Camarines Sur","id":14701,"latitude":"13.6167","longitude":"123.1414"},{"longitude":"78.2208","id":14702,"latitude":"23.4102","city":"Gairtganj, Madhya Pradesh","country":"India"},{"city":"Gaithersburg, Maryland","country":"United States","id":14703,"latitude":" 39° 08' 24\"","longitude":"-77° 11' 53\""},{"latitude":"40.4000","id":14704,"city":"Gaizhou, Liaoning","country":"China","longitude":"122.3500"},{"longitude":"75.9698","city":"Gajendragarh, Karnātaka","id":14705,"country":"India","latitude":"15.7363"},{"longitude":"86.3715","id":14706,"latitude":"26.5237","city":"Gajhara, Bihār","country":"India"},{"country":"India","city":"Gajiginhalu, Karnātaka","latitude":"15.6969","longitude":"76.6647","id":14707},{"latitude":"17.8517","country":"India","id":14708,"city":"Gajwel, Telangāna","longitude":"78.6828"},{"latitude":"36.1736","country":"Pakistan","longitude":"73.7667","id":14709,"city":"Gakuch, Gilgit-Baltistan"},{"latitude":"37.0625","city":"Galaat el Andeless, L’Ariana","country":"Tunisia","longitude":"10.1183","id":14710},{"city":"Galanta, Trnava","longitude":"17.7264","id":14711,"country":"Slovakia","latitude":"48.1889"},{"latitude":"39.8500","city":"Galaosiyo Shahri, Buxoro","id":14712,"longitude":"64.4500","country":"Uzbekistan"},{"longitude":"-74.8333","latitude":"10.9167","id":14713,"country":"Colombia","city":"Galapa, Atlántico"},{"longitude":"-4.0019","city":"Galapagar, Madrid","latitude":"40.5764","country":"Spain","id":14714},{"city":"Galashiels, Scottish Borders","latitude":"55.6194","longitude":"-2.8033","id":14715,"country":"United Kingdom"},{"longitude":"74.5800","country":"India","id":14716,"city":"Galatge, Karnātaka","latitude":"16.4200"},{"id":14717,"country":"Romania","longitude":"28.0425","latitude":"45.4233","city":"Galati, Galaţi"},{"latitude":"40.1667","longitude":"18.1667","country":"Italy","city":"Galatina, Puglia","id":14718},{"latitude":"40.1500","longitude":"18.0667","id":14719,"city":"Galatone, Puglia","country":"Italy"},{"longitude":"23.7500","id":14720,"latitude":"38.0167","city":"Galatsi, Attikí","country":"Greece"},{"latitude":"34.5500","id":14721,"country":"Morocco","longitude":"-4.8000","city":"Galaz, Fès-Meknès"},{"longitude":"4.4900","id":14722,"city":"Galbois, Bordj Bou Arréridj","country":"Algeria","latitude":"36.2000"},{"city":"Galdacano, Basque Country","latitude":"43.2306","longitude":"-2.8458","id":14723,"country":"Spain"},{"city":"Galeana, Nuevo León","id":14724,"longitude":"-100.0667","country":"Mexico","latitude":"24.8333"},{"latitude":"1.8236","country":"Indonesia","longitude":"127.8431","id":14725,"city":"Galela, Maluku Utara"},{"longitude":"-95.2333","id":14726,"city":"Galena Park, Texas","latitude":"29.7452","country":"United States"},{"latitude":" 64° 44' 27\"","city":"Galena, Alaska","country":"USA","longitude":"-156° 57' 03\"","id":14727},{"id":14728,"country":"Colombia","city":"Galeras, Sucre","latitude":"9.1667","longitude":"-75.0500"},{"latitude":"40.9506","country":"United States","city":"Galesburg, Illinois","longitude":"-90.3763","id":14729},{"id":14730,"latitude":"8.0000","country":"Sri Lanka","longitude":"80.2831","city":"Galgamuwa, North Western"},{"country":"Sri Lanka","longitude":"80.5688","id":14731,"city":"Galhinna, Central","latitude":"7.4161"},{"id":14732,"latitude":"58.3833","longitude":"42.3500","country":"Russia","city":"Galich, Kostromskaya Oblast’"},{"country":"Iran","latitude":"37.2728","longitude":"55.4328","city":"Galikesh, Golestān","id":14733},{"latitude":"17.1800","city":"Galimuyod, Ilocos Sur","id":14734,"country":"Philippines","longitude":"120.4700"},{"city":"Galion, Ohio","longitude":"-82.7792","id":14735,"latitude":"40.7385","country":"United States"},{"city":"Galivedu, Andhra Pradesh","latitude":"14.0333","id":14736,"country":"India","longitude":"78.5000"},{"latitude":"28.2000","longitude":"83.4167","country":"Nepal","id":14737,"city":"Galkot, "},{"latitude":"45.6667","city":"Gallarate, Lombardy","country":"Italy","id":14738,"longitude":"8.8000"},{"id":14739,"country":"United States","city":"Gallatin, Tennessee","longitude":"-86.4698","latitude":"36.3782"},{"country":"Sri Lanka","id":14740,"latitude":"6.0328","longitude":"80.2156","city":"Galle, Southern"},{"longitude":"52.6594","country":"Iran","latitude":"27.6578","city":"Galleh Dar, Fārs","id":14741},{"city":"Galliate, Piedmont","country":"Italy","id":14742,"latitude":"45.4833","longitude":"8.7000"},{"city":"Gallipoli, Puglia","longitude":"17.9917","country":"Italy","latitude":"40.0556","id":14743},{"latitude":"40.4139","id":14744,"longitude":"26.6703","city":"Gallipoli, Çanakkale","country":"Turkey"},{"country":"United States","id":14745,"latitude":"39.4914","city":"Galloway, New Jersey","longitude":"-74.4803"},{"city":"Gallup, New Mexico","country":"United States","id":14746,"latitude":" 35° 31' 29\"","longitude":"-108° 44' 31\""},{"latitude":"50.7500","country":"Belgium","longitude":"3.9900","id":14747,"city":"Galmaarden, Flanders"},{"city":"Galmi, Tahoua","longitude":"5.6750","id":14748,"latitude":"13.9660","country":"Niger"},{"id":14749,"longitude":"87.6925","city":"Galsi, West Bengal","latitude":"23.3372","country":"India"},{"longitude":"-121.3004","id":14750,"city":"Galt, California","country":"United States","latitude":"38.2698"},{"city":"Galten, Midtjylland","latitude":"56.1533","country":"Denmark","longitude":"9.9069","id":14751},{"latitude":"36.7269","country":"Iran","longitude":"53.8089","id":14752,"city":"Galugah, Māzandarān"},{"longitude":"-71.3400","city":"Galvan, Enriquillo","latitude":"18.5039","country":"Dominican Republic","id":14753},{"city":"Galvarino, Araucanía","longitude":"-72.7833","country":"Chile","id":14754,"latitude":"-38.4000"},{"longitude":"-94° 47' 43\"","latitude":" 29° 18' 10\"","country":"United States","id":14755,"city":"Galveston, Texas"},{"city":"Galvez, Santa Fe","longitude":"-61.2167","latitude":"-32.0333","country":"Argentina","id":14756},{"latitude":"53.2719","city":"Galway, Galway","country":"Ireland","id":14757,"longitude":"-9.0489"},{"latitude":"34.8431","longitude":"137.2196","country":"Japan","id":14758,"city":"Gamagori, Aichi"},{"id":14759,"latitude":"25.7062","city":"Gamail, Bihār","country":"India","longitude":"86.9914"},{"longitude":"-73.6667","city":"Gamarra, Cesar","country":"Colombia","latitude":"8.3333","id":14760},{"latitude":"12.3800","country":"Philippines","id":14761,"city":"Gamay, Northern Samar","longitude":"125.3000"},{"longitude":"10.0167","city":"Gamba, Ogooué-Maritime","id":14762,"latitude":"-2.7250","country":"Gabon"},{"city":"Gambela, Gambēla Hizboch","id":14763,"longitude":"34.5833","latitude":"8.2500","country":"Ethiopia"},{"city":"Gambettola, Emilia-Romagna","longitude":"12.3333","country":"Italy","id":14764,"latitude":"44.1167"},{"latitude":"13.2333","longitude":"-14.3167","city":"Gambissara, GMB","id":14765,"country":"Gambia"},{"latitude":"45.2500","longitude":"8.8667","id":14766,"country":"Italy","city":"Gambolo, Lombardy"},{"country":"Congo (Brazzaville)","latitude":"-1.8711","city":"Gamboma, Plateaux","longitude":"15.8781","id":14767},{"country":"Central African Republic","longitude":"15.1500","latitude":"4.1333","city":"Gamboula, Mambéré-Kadéï","id":14768},{"latitude":"-8.5833","country":"Brazil","longitude":"-35.3833","id":14769,"city":"Gameleira, Pernambuco"},{"city":"Gamharia, Bihār","country":"India","longitude":"86.6550","id":14770,"latitude":"25.8973"},{"id":14771,"country":"India","latitude":"26.0561","city":"Gamharia, Bihār","longitude":"86.7243"},{"longitude":"10.2867","city":"Gammarth, Tunis","country":"Tunisia","id":14772,"latitude":"36.9097"},{"id":14773,"country":"Morocco","city":"Gammasa, Marrakech-Safi","longitude":"-8.3784","latitude":"31.4182"},{"latitude":"7.0917","id":14774,"city":"Gampaha, Western","longitude":"79.9997","country":"Sri Lanka"},{"city":"Gampola, Central","longitude":"80.5767","country":"Sri Lanka","latitude":"7.1647","id":14775},{"latitude":"47.2167","id":14776,"city":"Gamprin, Gamprin","longitude":"9.5000","country":"Liechtenstein"},{"id":14777,"longitude":"121.8300","latitude":"17.0500","city":"Gamu, Isabela","country":"Philippines"},{"id":14778,"longitude":"34.7053","latitude":"31.7822","city":"Gan Yavne, Central","country":"Israel"},{"city":"Ganapathivattam, Kerala","country":"India","latitude":"11.6700","longitude":"76.2800","id":14779},{"latitude":"11.0309","city":"Ganapatipalaiyam, Tamil Nādu","longitude":"77.3367","id":14780,"country":"India"},{"latitude":"16.1233","country":"India","longitude":"80.1721","id":14781,"city":"Ganapavaram, Andhra Pradesh"},{"country":"India","longitude":"80.5856","latitude":"15.9232","id":14782,"city":"Ganapavaram, Andhra Pradesh"},{"id":14783,"longitude":"81.4667","city":"Ganapavaram, Andhra Pradesh","latitude":"16.7000","country":"India"},{"id":14784,"longitude":"80.0515","latitude":"16.4314","city":"Ganapavaram, Andhra Pradesh","country":"India"},{"id":14785,"country":"India","longitude":"78.2450","city":"Ganaram, Telangāna","latitude":"18.5275"},{"city":"Ganassi, Lanao del Sur","longitude":"124.1034","id":14786,"latitude":"7.8269","country":"Philippines"},{"country":"Azerbaijan","id":14787,"longitude":"46.3606","city":"Ganca, Gəncə","latitude":"40.6828"},{"longitude":"14.6333","city":"Ganda, Benguela","latitude":"-13.0167","country":"Angola","id":14788},{"latitude":"-6.7500","country":"Congo (Kinshasa)","id":14789,"longitude":"23.9667","city":"Gandajika, Lomami"},{"longitude":"80.5500","id":14790,"city":"Gandara West, Southern","latitude":"5.9500","country":"Sri Lanka"},{"id":14791,"longitude":"124.8118","latitude":"12.0130","city":"Gandara, Samar","country":"Philippines"},{"country":"India","latitude":"34.2262","longitude":"74.7748","id":14792,"city":"Gandarbal, Jammu and Kashmīr"},{"longitude":"-54° 34' 01\"","country":"Canada","id":14793,"city":"Gander, Newfoundland","latitude":" 48° 55' 58\""},{"city":"Gander, Newfoundland and Labrador","id":14794,"latitude":"48.9569","longitude":"-54.6089","country":"Canada"},{"city":"Ganderkesee, Lower Saxony","latitude":"53.0358","longitude":"8.5483","id":14795,"country":"Germany"},{"country":"India","id":14796,"longitude":"72.9800","latitude":"20.8200","city":"Gandevi, Gujarāt"},{"latitude":"21.1040","city":"Gandhali, Mahārāshtra","longitude":"75.1050","country":"India","id":14797},{"id":14798,"longitude":"78.1174","city":"Gandhari, Telangāna","latitude":"18.3932","country":"India"},{"country":"India","city":"Gandhidham, Gujarāt","id":14799,"longitude":"70.1300","latitude":"23.0800"},{"city":"Gandhwani, Madhya Pradesh","latitude":"22.3400","longitude":"75.0048","country":"India","id":14800},{"longitude":"-0.1833","id":14801,"city":"Gandia, Valencia","latitude":"38.9667","country":"Spain"},{"country":"India","latitude":"16.1693","longitude":"80.9443","id":14802,"city":"Gandikunta, Andhra Pradesh"},{"country":"India","id":14803,"latitude":"14.0500","longitude":"78.3089","city":"Gandlapenta, Andhra Pradesh"},{"id":14804,"country":"Sierra Leone","longitude":"-11.6925","latitude":"7.5564","city":"Gandorhun, Southern"},{"latitude":"-13.7439","longitude":"-39.4869","id":14805,"city":"Gandu, Bahia","country":"Brazil"},{"country":"China","latitude":"35.8908","longitude":"102.3272","id":14806,"city":"Gandujie, Qinghai"},{"country":"India","longitude":"87.3587","id":14807,"latitude":"25.7678","city":"Ganeshpur, Bihār"},{"id":14808,"latitude":"21.6528","country":"India","longitude":"88.0753","city":"Ganga Sagar, West Bengal"},{"longitude":"74.9234","country":"India","latitude":"30.3229","id":14809,"city":"Ganga, Punjab"},{"id":14810,"city":"Gangadhar, Telangāna","longitude":"79.0110","country":"India","latitude":"18.5883"},{"country":"India","city":"Gangaikondan, Tamil Nādu","latitude":"11.5389","longitude":"79.4765","id":14811},{"country":"India","id":14812,"latitude":"23.4200","city":"Gangajalghati, West Bengal","longitude":"87.1200"},{"country":"India","longitude":"83.9642","id":14813,"latitude":"18.4980","city":"Gangammapeta, Andhra Pradesh"},{"city":"Ganganagar, Rājasthān","longitude":"73.8800","id":14814,"latitude":"29.9200","country":"India"},{"latitude":"25.2395","longitude":"86.6536","country":"India","id":14815,"city":"Gangania, Bihār"},{"id":14816,"latitude":"14.5237","longitude":"80.1521","city":"Gangapatnam, Andhra Pradesh","country":"India"},{"city":"Gangapur Athar, Bihār","country":"India","latitude":"25.8214","longitude":"85.7123","id":14817},{"city":"Gangapur, Bihār","country":"India","longitude":"86.8957","id":14818,"latitude":"25.5136"},{"longitude":"86.9496","id":14819,"country":"India","latitude":"25.8565","city":"Gangapur, Bihār"},{"country":"India","city":"Gangarampur, West Bengal","id":14820,"longitude":"88.5200","latitude":"25.4000"},{"latitude":"26.5666","id":14821,"country":"India","city":"Gangaur, Bihār","longitude":"85.8821"},{"city":"Gangaura Behra, Bihār","id":14822,"latitude":"25.9541","longitude":"86.5482","country":"India"},{"city":"Gangavalli, Tamil Nādu","latitude":"11.4983","country":"India","longitude":"78.6461","id":14823},{"latitude":"15.4300","id":14824,"city":"Gangawati, Karnātaka","country":"India","longitude":"76.5300"},{"latitude":"50.9831","city":"Gangelt, North Rhine-Westphalia","country":"Germany","longitude":"6.0000","id":14825},{"id":14826,"longitude":"128.9000","city":"Gangneung, KOR","latitude":"37.7500","country":"Korea"},{"latitude":"13.6538","city":"Gangoli, Karnātaka","longitude":"74.6664","id":14827,"country":"India"},{"longitude":"88.6200","city":"Gangtok, Sikkim","latitude":"27.3300","country":"India","id":14828},{"latitude":"16.4750","id":14829,"city":"Ganguru, Andhra Pradesh","country":"India","longitude":"80.7411"},{"country":"India","latitude":"10.1694","longitude":"77.6973","id":14830,"city":"Ganguvarpatti, Tamil Nādu"},{"country":"China","latitude":"25.9644","longitude":"105.3376","city":"Gangwuzhen, Guizhou","id":14831},{"id":14832,"city":"Ganjam, Odisha","country":"India","longitude":"85.0508","latitude":"19.3870"},{"city":"Ganjing, Shaanxi","country":"China","latitude":"35.3338","longitude":"110.0955","id":14833},{"city":"Gannan, Heilongjiang","longitude":"123.4978","latitude":"47.9117","id":14834,"country":"China"},{"latitude":"16.5333","id":14835,"country":"India","longitude":"80.8000","city":"Gannavaram, Andhra Pradesh"},{"longitude":"19.3522","latitude":"-34.5828","city":"Gansbaai, Western Cape","country":"South Africa","id":14836},{"city":"Ganserndorf, Niederösterreich","latitude":"48.3406","country":"Austria","longitude":"16.7175","id":14837},{"city":"Ganshoren, Brussels-Capital Region","latitude":"50.8667","country":"Belgium","longitude":"4.3167","id":14838},{"city":"Ganta, Nimba","id":14839,"country":"Liberia","longitude":"-8.9814","latitude":"7.2375"},{"latitude":"18.5333","country":"Haiti","longitude":"-72.0667","city":"Ganthier, Ouest","id":14840},{"latitude":"34.7837","city":"Gantt, South Carolina","longitude":"-82.4027","country":"United States","id":14841},{"latitude":"6.4667","id":14842,"city":"Ganvie, Atlantique","country":"Benin","longitude":"2.4167"},{"id":14843,"country":"China","latitude":"27.1274","longitude":"109.1755","city":"Ganxi, Hunan"},{"id":14844,"latitude":"-26.5908","country":"South Africa","longitude":"24.1594","city":"Ganyesa, North West"},{"longitude":"114.9330","id":14845,"city":"Ganzhou, Jiangxi","country":"China","latitude":"25.8310"},{"country":"China","longitude":"116.3714","latitude":"26.9483","id":14846,"city":"Ganzhu, Jiangxi"},{"city":"Gao, Gao","latitude":"16.2667","longitude":"-0.0500","country":"Mali","id":14847},{"city":"Gaobeidian, Hebei","id":14848,"latitude":"39.3270","longitude":"115.8740","country":"China"},{"city":"Gaocheng, Sichuan","country":"China","longitude":"100.2667","id":14849,"latitude":"30.0167"},{"longitude":"120.2178","latitude":"28.3367","city":"Gaohucun, Zhejiang","country":"China","id":14850},{"longitude":"114.9662","latitude":"40.8814","city":"Gaojiayingcun, Hebei","id":14851,"country":"China"},{"latitude":"40.6003","id":14852,"country":"China","city":"Gaolingcun, Beijing","longitude":"117.1072"},{"country":"China","id":14853,"latitude":"40.1578","city":"Gaoliying Ercun, Beijing","longitude":"116.4933"},{"id":14854,"city":"Gaomi, Shandong","country":"China","latitude":"36.3833","longitude":"119.7500"},{"city":"Gaoniang, Guizhou","id":14855,"latitude":"26.8394","country":"China","longitude":"109.1770"},{"latitude":"35.7980","country":"China","longitude":"112.9240","city":"Gaoping, Shanxi","id":14856},{"longitude":"106.1281","city":"Gaoping, Sichuan","latitude":"30.7824","country":"China","id":14857},{"city":"Gaoshu, Pingtung","latitude":"22.8202","id":14858,"country":"Taiwan","longitude":"120.5979"},{"latitude":"32.3227","country":"China","id":14859,"longitude":"108.3812","city":"Gaotan, Shaanxi"},{"longitude":"-3.1667","id":14860,"latitude":"10.3167","city":"Gaoua, Sud-Ouest","country":"Burkina Faso"},{"id":14861,"city":"Gaoua, Sud-Ouest","latitude":"10.3167","country":"Burkina Faso","longitude":"-3.1667"},{"latitude":"11.7540","country":"Guinea","longitude":"-13.2130","id":14862,"city":"Gaoual, Boké"},{"city":"Gaoya, Gansu","country":"China","latitude":"36.4609","longitude":"104.9936","id":14863},{"country":"China","latitude":"32.7847","longitude":"119.4432","id":14864,"city":"Gaoyou, Jiangsu"},{"latitude":"21.9244","longitude":"110.8422","city":"Gaozhou, Guangdong","country":"China","id":14865},{"id":14866,"longitude":"6.0786","country":"France","latitude":"44.5594","city":"Gap, Provence-Alpes-Côte d’Azur"},{"country":"Philippines","longitude":"120.9489","city":"Gapan, Nueva Ecija","id":14867,"latitude":"15.3122"},{"latitude":"32.1166","country":"China","longitude":"80.0583","id":14868,"city":"Gar, Tibet"},{"country":"India","longitude":"74.9297","latitude":"15.5750","city":"Garag, Karnātaka","id":14869},{"latitude":"5.0825","country":"Colombia","city":"Garagoa, Boyacá","id":14870,"longitude":"-73.3642"},{"city":"Garaimari, West Bengal","latitude":"24.0217","country":"India","id":14871,"longitude":"88.6263"},{"country":"Mali","longitude":"-7.4370","city":"Garalo, Sikasso","id":14872,"latitude":"10.9900"},{"latitude":"11.8000","city":"Garango, Centre-Est","country":"Burkina Faso","id":14873,"longitude":"-0.5500"},{"latitude":"-8.8903","city":"Garanhuns, Pernambuco","id":14874,"country":"Brazil","longitude":"-36.4928"},{"city":"Gararu, Sergipe","latitude":"-9.9678","country":"Brazil","longitude":"-37.0828","id":14875},{"city":"Garbagnate Milanese, Lombardy","country":"Italy","id":14876,"latitude":"45.5833","longitude":"9.0667"},{"latitude":"3.3500","city":"Garbahaarrey, Gedo","longitude":"42.2667","id":14877,"country":"Somalia"},{"latitude":"52.4183","city":"Garbsen, Lower Saxony","longitude":"9.5981","id":14878,"country":"Germany"},{"latitude":"-22.2153","city":"Garca, São Paulo","longitude":"-49.6511","id":14879,"country":"Brazil"},{"longitude":"2.1889","id":14880,"city":"Garches, Île-de-France","latitude":"48.8461","country":"France"},{"id":14881,"country":"Germany","longitude":"12.5833","city":"Garching an der Alz, Bavaria","latitude":"48.1167"},{"country":"Germany","city":"Garching bei Munchen, Bavaria","id":14882,"latitude":"48.2500","longitude":"11.6500"},{"latitude":"13.8800","longitude":"123.7000","city":"Garchitorena, Camarines Sur","country":"Philippines","id":14883},{"id":14884,"longitude":"124.2946","city":"Garcia Hernandez, Bohol","latitude":"9.6144","country":"Philippines"},{"latitude":"25.8167","id":14885,"country":"Mexico","city":"Garcia, Nuevo León","longitude":"-100.5833"},{"id":14886,"city":"Gardanne, Provence-Alpes-Côte d’Azur","country":"France","latitude":"43.4553","longitude":"5.4760"},{"longitude":"11.3925","id":14887,"city":"Gardelegen, Saxony-Anhalt","country":"Germany","latitude":"52.5264"},{"longitude":"-121.2296","country":"United States","latitude":"37.9637","city":"Garden Acres, California","id":14888},{"longitude":"-81.1773","id":14889,"latitude":"32.0867","country":"United States","city":"Garden City, Georgia"},{"longitude":"-116.2743","id":14890,"latitude":"43.6526","city":"Garden City, Idaho","country":"United States"},{"longitude":"-100° 52' 01\"","city":"Garden City, Kansas","country":"United States","id":14891,"latitude":" 37° 58' 01\""},{"latitude":"42.3244","country":"United States","longitude":"-83.3412","id":14892,"city":"Garden City, Michigan"},{"id":14893,"city":"Garden City, New York","longitude":"-73.6447","latitude":"40.7266","country":"United States"},{"country":"United States","city":"Garden City, South Carolina","longitude":"-79.0071","id":14894,"latitude":"33.5926"},{"id":14895,"city":"Garden Grove, California","latitude":" 33° 46' 29\"","longitude":"-117° 54' 46\"","country":"United States"},{"id":14896,"latitude":"33.8943","longitude":"-118.3072","country":"United States","city":"Gardena, California"},{"latitude":"33.6677","city":"Gardendale, Alabama","country":"United States","longitude":"-86.8069","id":14897},{"latitude":"30.3582","city":"Gardere, Louisiana","longitude":"-91.1346","id":14898,"country":"United States"},{"longitude":"69.2169","city":"Gardez, Paktiyā","latitude":"33.6000","country":"Afghanistan","id":14899},{"country":"Iceland","longitude":"-21.9264","city":"Gardhabaer, Garðabær","latitude":"64.0902","id":14900},{"latitude":"38.8122","longitude":"-94.9275","city":"Gardner, Kansas","country":"United States","id":14901},{"country":"United States","longitude":"-71.9868","latitude":"42.5845","city":"Gardner, Massachusetts","id":14902},{"city":"Gardnerville Ranchos, Nevada","country":"United States","longitude":"-119.7492","id":14903,"latitude":"38.8957"},{"latitude":"45.6833","country":"Italy","longitude":"10.1833","id":14904,"city":"Gardone Val Trompia, Lombardy"},{"latitude":"47.1973","city":"Gardony, Fejér","country":"Hungary","longitude":"18.6091","id":14905},{"latitude":"45.5667","id":14906,"city":"Garesnica, Bjelovarsko-Bilogorska Županija","country":"Croatia","longitude":"16.9333"},{"country":"United States","longitude":"-81.6038","city":"Garfield Heights, Ohio","id":14907,"latitude":"41.4199"},{"longitude":"-74.1085","id":14908,"city":"Garfield, New Jersey","latitude":"40.8791","country":"United States"},{"city":"Garforth, Leeds","longitude":"-1.3880","id":14909,"country":"United Kingdom","latitude":"53.7920"},{"city":"Garges-les-Gonesse, Île-de-France","country":"France","latitude":"48.9728","longitude":"2.4008","id":14910},{"id":14911,"latitude":"55.7128","country":"Lithuania","longitude":"21.4033","city":"Gargzdai, Klaipėda"},{"id":14912,"city":"Garh Sisai, Bihār","latitude":"25.6253","country":"India","longitude":"85.7887"},{"longitude":"79.1432","latitude":"23.7791","city":"Garhakota, Madhya Pradesh","country":"India","id":14913},{"id":14914,"city":"Garhara, Bihār","country":"India","longitude":"85.9983","latitude":"25.4407"},{"id":14915,"country":"India","city":"Garhi, Bihār","longitude":"86.0768","latitude":"24.7904"},{"country":"India","city":"Garhi, Madhya Pradesh","longitude":"79.6772","latitude":"25.0447","id":14916},{"id":14917,"city":"Garhi, Uttar Pradesh","country":"India","latitude":"28.6317","longitude":"77.3186"},{"city":"Garhpura, Bihār","id":14918,"country":"India","longitude":"86.1818","latitude":"25.6638"},{"latitude":"31.2154","city":"Garhshankar, Punjab","country":"India","longitude":"76.1415","id":14919},{"country":"India","longitude":"83.8075","city":"Garhwa, Jhārkhand","latitude":"24.1600","id":14920},{"id":14921,"country":"India","latitude":"21.5300","city":"Gariadhar, Gujarāt","longitude":"71.5800"},{"id":14922,"longitude":"-51.5642","country":"Brazil","latitude":"-29.2889","city":"Garibaldi, Rio Grande do Sul"},{"longitude":"-58.7500","city":"Garin, Buenos Aires","latitude":"-34.4167","country":"Argentina","id":14923},{"latitude":"-0.4569","country":"Kenya","id":14924,"city":"Garissa, Garissa","longitude":"39.6583"},{"latitude":"25.8293","city":"Garkha, Bihār","country":"India","id":14925,"longitude":"84.8617"},{"city":"Garland, Texas","id":14926,"country":"United States","latitude":" 32° 54' 29\"","longitude":"-96° 38' 12\""},{"latitude":" 41° 45' 00\"","city":"Garland, Utah","country":"USA","longitude":"-112° 10' 01\"","id":14927},{"longitude":"8.9167","country":"Italy","city":"Garlasco, Lombardy","id":14928,"latitude":"45.2000"},{"latitude":"54.8167","city":"Garliava, Kaunas","id":14929,"longitude":"23.8667","country":"Lithuania"},{"id":14930,"latitude":"35.7478","country":"Iran","longitude":"51.0678","city":"Garmdarreh, Alborz"},{"country":"Iran","latitude":"36.9864","id":14931,"longitude":"56.2881","city":"Garmeh, Khorāsān-e Shomālī"},{"latitude":"35.2206","country":"Iran","city":"Garmsar, Semnān","longitude":"52.3389","id":14932},{"longitude":"-78.6181","city":"Garner, North Carolina","country":"United States","id":14933,"latitude":"35.6936"},{"longitude":"48.4667","id":14934,"city":"Garoowe, Nugaal","country":"Somalia","latitude":"8.4000"},{"latitude":"-28.0233","longitude":"-48.6222","city":"Garopaba, Santa Catarina","id":14935,"country":"Brazil"},{"city":"Garot, Madhya Pradesh","country":"India","longitude":"75.6520","id":14936,"latitude":"24.3234"},{"longitude":"3.4739","city":"Garou, Atacora","country":"Benin","latitude":"11.8053","id":14937},{"longitude":"14.5500","id":14938,"city":"Garoua Boulai, Est","latitude":"5.8833","country":"Cameroon"},{"latitude":"9.3000","country":"Cameroon","longitude":"13.4000","city":"Garoua, Nord","id":14939},{"latitude":"52.9581","longitude":"8.0253","id":14940,"country":"Germany","city":"Garrel, Lower Saxony"},{"latitude":"39.4023","id":14941,"country":"United States","city":"Garrison, Maryland","longitude":"-76.7514"},{"city":"Garrison, North Dakota","latitude":" 47° 37' 58\"","id":14942,"longitude":"-101° 24' 00\"","country":"USA"},{"latitude":"37.1842","city":"Garrucha, Andalusia","longitude":"-1.8214","id":14943,"country":"Spain"},{"country":"India","city":"Garsekurti, Telangāna","longitude":"78.9774","latitude":"18.5083","id":14944},{"id":14945,"country":"South Africa","latitude":"-25.7913","city":"Garsfontein, Gauteng","longitude":"28.2935"},{"country":"Germany","city":"Gartringen, Baden-Württemberg","id":14946,"latitude":"48.6408","longitude":"8.9006"},{"longitude":"88.3700","latitude":"22.8200","city":"Garulia, West Bengal","id":14947,"country":"India"},{"latitude":"-27.4833","city":"Garupa, Misiones","country":"Argentina","longitude":"-55.8333","id":14948},{"country":"Indonesia","id":14949,"latitude":"-7.2167","city":"Garut, Jawa Barat","longitude":"107.9000"},{"latitude":"-26.0269","id":14950,"longitude":"-48.8550","city":"Garuva, Santa Catarina","country":"Brazil"},{"latitude":"51.9000","city":"Garwolin, Mazowieckie","id":14951,"country":"Poland","longitude":"21.6333"},{"longitude":"-87° 20' 18\"","latitude":" 41° 36' 11\"","city":"Gary, Indiana","id":14952,"country":"United States"},{"longitude":"-75.6578","city":"Garzon, Huila","country":"Colombia","latitude":"2.1819","id":14953},{"latitude":"27.9167","longitude":"89.6833","city":"Gasa, Gasa","id":14954,"country":"Bhutan"},{"latitude":"13.3200","city":"Gasan, Marinduque","longitude":"121.8500","country":"Philippines","id":14955},{"latitude":"12.8681","country":"Nigeria","longitude":"11.0464","id":14956,"city":"Gashua, Yobe"},{"longitude":"-70.2800","id":14957,"country":"Dominican Republic","latitude":"19.6200","city":"Gaspar Hernandez, Cibao Norte"},{"longitude":"-48.9667","country":"Brazil","latitude":"-26.9333","id":14958,"city":"Gaspar, Santa Catarina"},{"city":"Gasparillo, Couva\/Tabaquite\/Talparo","latitude":"10.3167","country":"Trinidad and Tobago","longitude":"-61.4167","id":14959},{"city":"Gaspe, Quebec","country":"Canada","latitude":" 48° 46' 48\"","longitude":"-64° 30' 36\"","id":14960},{"country":"USA","city":"Gassaway, West Virginia","longitude":"-80° 45' 00\"","id":14961,"latitude":" 38° 40' 01\""},{"latitude":"45.1333","city":"Gassino Torinese, Piedmont","country":"Italy","longitude":"7.8167","id":14962},{"latitude":" 35° 15' 54\"","id":14963,"longitude":"-81° 10' 54\"","country":"United States","city":"Gastonia, North Carolina"},{"latitude":"-42.2667","longitude":"-69.2167","city":"Gastre, Chubut","country":"Argentina","id":14964},{"country":"Poland","longitude":"18.4308","city":"Gaszowice, Śląskie","id":14965,"latitude":"50.1089"},{"city":"Gata, Lanao del Sur","id":14966,"latitude":"7.8500","longitude":"124.3500","country":"Philippines"},{"country":"India","city":"Gatada, Andhra Pradesh","longitude":"83.5041","latitude":"18.4144","id":14967},{"id":14968,"country":"Russia","latitude":"59.5833","longitude":"30.1333","city":"Gatchina, Leningradskaya Oblast’"},{"city":"Gates, New York","id":14969,"latitude":"43.1514","longitude":"-77.7130","country":"United States"},{"country":"United Kingdom","city":"Gateshead, Gateshead","longitude":"-1.6000","id":14970,"latitude":"54.9556"},{"longitude":"-97.7317","id":14971,"country":"United States","city":"Gatesville, Texas","latitude":"31.4445"},{"country":"United States","latitude":"26.5793","longitude":"-81.7446","id":14972,"city":"Gateway, Florida"},{"id":14973,"country":"Canada","city":"Gatineau, Quebec","latitude":" 45° 29' 00\"","longitude":"-75° 39' 00\""},{"longitude":"121.6453","id":14974,"country":"Philippines","latitude":"18.0611","city":"Gattaran, Cagayan"},{"latitude":"44.1000","id":14975,"city":"Gatteo, Emilia-Romagna","country":"Italy","longitude":"12.3833"},{"latitude":"-3.3333","longitude":"29.2500","country":"Burundi","id":14976,"city":"Gatumba, Bujumbura Rural"},{"longitude":"30.0211","latitude":"-1.4350","id":14977,"city":"Gatunda, Eastern Province","country":"Rwanda"},{"latitude":"22.5323","city":"Gauli Palasiya, Madhya Pradesh","country":"India","longitude":"75.7275","id":14978},{"country":"India","longitude":"85.0036","id":14979,"latitude":"26.3683","city":"Gaundra, Bihār"},{"latitude":"13.9756","id":14980,"country":"India","city":"Gaunivaripalle, Andhra Pradesh","longitude":"77.8768"},{"country":"India","id":14981,"longitude":"85.9709","city":"Gaura, Bihār","latitude":"25.4961"},{"longitude":"85.3900","country":"India","latitude":"26.4800","id":14982,"city":"Gaura, Bihār"},{"longitude":"86.3739","city":"Gaura, Bihār","latitude":"24.9643","country":"India","id":14983},{"country":"India","longitude":"80.6000","id":14984,"city":"Gauravaram, Telangāna","latitude":"17.1000"},{"longitude":"86.5570","latitude":"25.7097","country":"India","city":"Gaurdah, Bihār","id":14985},{"latitude":"25.9356","country":"India","longitude":"85.4671","id":14986,"city":"Gaurihar Khaliqnagar, Bihār"},{"latitude":"26.0800","city":"Gauripur, Assam","country":"India","id":14987,"longitude":"89.9700"},{"latitude":"22.9866","city":"Gautampura, Madhya Pradesh","id":14988,"longitude":"75.5192","country":"India"},{"city":"Gautier, Mississippi","latitude":"30.4106","country":"United States","id":14989,"longitude":"-88.6568"},{"country":"Germany","longitude":"11.3739","latitude":"48.0678","id":14990,"city":"Gauting, Bavaria"},{"country":"Spain","longitude":"2.0039","id":14991,"latitude":"41.3072","city":"Gava, Catalonia"},{"latitude":"45.5875","id":14992,"longitude":"10.4389","country":"Italy","city":"Gavardo, Lombardy"},{"latitude":"40.3589","id":14993,"city":"Gavarr, Geghark’unik’","country":"Armenia","longitude":"45.1267"},{"latitude":"50.9333","longitude":"3.6667","country":"Belgium","city":"Gavere, Flanders","id":14994},{"latitude":"15.1167","country":"Mali","city":"Gavimane, Kayes","id":14995,"longitude":"-9.9000"},{"latitude":"15.8378","country":"India","id":14996,"longitude":"80.4315","city":"Gavinivaripalem, Andhra Pradesh"},{"latitude":"45.8500","country":"Italy","id":14997,"city":"Gavirate, Lombardy","longitude":"8.7167"},{"latitude":"60.6747","id":14998,"city":"Gavle, Gävleborg","longitude":"17.1417","country":"Sweden"},{"country":"Russia","latitude":"57.3167","city":"Gavrilov-Yam, Yaroslavskaya Oblast’","id":14999,"longitude":"39.8500"},{"country":"India","id":15000,"city":"Gawan, Uttar Pradesh","longitude":"78.3500","latitude":"28.4300"},{"city":"Gawler, South Australia","longitude":"138.7450","id":15001,"country":"Australia","latitude":"-34.5981"},{"id":15002,"latitude":"51.4678","longitude":"58.4431","country":"Russia","city":"Gay, Orenburgskaya Oblast’"},{"city":"Gaya, Bihār","longitude":"85.0100","id":15003,"country":"India","latitude":"24.7500"},{"country":"Niger","latitude":"11.8878","city":"Gaya, Dosso","longitude":"3.4467","id":15004},{"id":15005,"longitude":"84.4399","latitude":"25.9217","country":"India","city":"Gayaspur, Bihār"},{"city":"Gayeri, Est","country":"Burkina Faso","id":15006,"longitude":"0.5000","latitude":"12.6500"},{"country":"Iran","latitude":"32.8061","longitude":"51.6206","city":"Gaz, Eşfahān","id":15007},{"country":"Gaza Strip","city":"Gaza, ","latitude":"31.5069","id":15008,"longitude":"34.4560"},{"longitude":"69.1333","id":15009,"latitude":"39.9667","city":"Gazantarak, Sughd","country":"Tajikistan"},{"latitude":"35.3250","longitude":"25.0667","city":"Gazi, Kríti","id":15010,"country":"Greece"},{"country":"Turkey","latitude":"37.0628","longitude":"37.3792","city":"Gaziantep, Gaziantep","id":15011},{"id":15012,"city":"Gaziemir, İzmir","country":"Turkey","latitude":"38.3214","longitude":"27.1275"},{"latitude":"36.2728","country":"Turkey","longitude":"32.3131","city":"Gazipasa, Antalya","id":15013},{"country":"Bangladesh","latitude":"23.9889","city":"Gazipura, Dhaka","longitude":"90.3750","id":15014},{"country":"Turkmenistan","id":15015,"city":"Gazojak, Lebap","longitude":"61.4000","latitude":"41.1833"},{"country":"India","longitude":"78.6176","id":15016,"latitude":"15.4036","city":"Gazulapalle, Andhra Pradesh"},{"id":15017,"latitude":"4.2833","country":"Congo (Kinshasa)","longitude":"21.0167","city":"Gbadolite, Nord-Ubangi"},{"id":15018,"latitude":"8.4497","city":"Gbanhi, Collines","country":"Benin","longitude":"2.4737"},{"longitude":"-9.4730","latitude":"6.9980","id":15019,"city":"Gbarnga, Bong","country":"Liberia"},{"country":"Ghana","city":"Gbawe, Greater Accra","longitude":"-0.3108","latitude":"5.5767","id":15020},{"longitude":"2.7333","id":15021,"country":"Benin","latitude":"10.5333","city":"Gberouboue, Borgou"},{"city":"Gdansk, Pomorskie","country":"Poland","latitude":"54.3475","id":15022,"longitude":"18.6453"},{"city":"Gdynia, Pomorskie","latitude":"54.5175","longitude":"18.5400","id":15023,"country":"Poland"},{"latitude":"9.8000","longitude":"38.4000","id":15024,"city":"Gebre Guracha, Oromīya","country":"Ethiopia"},{"latitude":"40.8000","city":"Gebze, Kocaeli","country":"Turkey","id":15025,"longitude":"29.4333"},{"country":"Sudan","longitude":"35.3833","latitude":"14.0333","id":15026,"city":"Gedaref, Gedaref"},{"longitude":"-76.2252","id":15027,"latitude":"43.0762","country":"United States","city":"Geddes, New York"},{"city":"Gedera, Central","country":"Israel","longitude":"34.7772","id":15028,"latitude":"31.8119"},{"city":"Gediz, Kütahya","latitude":"38.9939","id":15029,"country":"Turkey","longitude":"29.3914"},{"country":"Belgium","city":"Geel, Flanders","longitude":"5.0000","id":15030,"latitude":"51.1667"},{"longitude":"144.3500","country":"Australia","city":"Geelong, Victoria","id":15031,"latitude":"-38.1500"},{"id":15032,"latitude":"51.7000","city":"Geertruidenberg, Noord-Brabant","country":"Netherlands","longitude":"4.8586"},{"id":15033,"latitude":"53.4375","city":"Geesthacht, Schleswig-Holstein","country":"Germany","longitude":"10.3675"},{"country":"Germany","longitude":"9.6003","id":15034,"latitude":"52.3117","city":"Gehrden, Lower Saxony"},{"country":"Germany","longitude":"6.1194","city":"Geilenkirchen, North Rhine-Westphalia","id":15035,"latitude":"50.9653"},{"city":"Geiro, Morogoro","longitude":"36.8694","latitude":"-6.1428","id":15036,"country":"Tanzania"},{"city":"Geisenfeld, Bavaria","country":"Germany","longitude":"11.6000","id":15037,"latitude":"48.6667"},{"city":"Geisenheim, Rhineland-Palatinate","longitude":"7.9672","latitude":"49.9844","country":"Germany","id":15038},{"longitude":"9.8306","city":"Geislingen an der Steige, Baden-Württemberg","id":15039,"latitude":"48.6244","country":"Germany"},{"latitude":"-2.8714","id":15040,"city":"Geita, Geita","longitude":"32.2294","country":"Tanzania"},{"country":"Russia","longitude":"45.4725","latitude":"43.1636","city":"Gekhi, Chechnya","id":15041},{"id":15042,"city":"Gela, Sicilia","latitude":"37.0667","longitude":"14.2500","country":"Italy"},{"latitude":"43.2153","city":"Geldagana, Chechnya","country":"Russia","longitude":"46.0403","id":15043},{"longitude":"5.2833","country":"Netherlands","city":"Geldermalsen, Gelderland","id":15044,"latitude":"51.8833"},{"country":"Germany","longitude":"6.3325","id":15045,"city":"Geldern, North Rhine-Westphalia","latitude":"51.5197"},{"id":15046,"longitude":"5.5578","latitude":"51.4222","country":"Netherlands","city":"Geldrop, Noord-Brabant"},{"country":"Ethiopia","id":15047,"latitude":"8.8167","longitude":"40.5167","city":"Gelemso, Oromīya"},{"country":"Russia","id":15048,"city":"Gelendzhik, Krasnodarskiy Kray","longitude":"38.0725","latitude":"44.5750"},{"latitude":"50.2000","city":"Gelnhausen, Hesse","longitude":"9.1667","country":"Germany","id":15049},{"city":"Gelsenkirchen, North Rhine-Westphalia","country":"Germany","latitude":"51.5167","longitude":"7.1000","id":15050},{"id":15051,"latitude":"37.3333","longitude":"-6.0167","city":"Gelves, Andalusia","country":"Spain"},{"country":"Belgium","id":15052,"city":"Gembloux, Wallonia","longitude":"4.6833","latitude":"50.5667"},{"id":15053,"longitude":"19.7667","country":"Congo (Kinshasa)","city":"Gemena, Sud-Ubangi","latitude":"3.2500"},{"country":"Turkey","id":15054,"city":"Gemerek, Sivas","latitude":"39.1819","longitude":"36.0681"},{"country":"Netherlands","latitude":"51.5558","longitude":"5.6867","city":"Gemert, Noord-Brabant","id":15055},{"latitude":"40.4317","country":"Turkey","longitude":"29.1561","id":15056,"city":"Gemlik, Bursa"},{"country":"Italy","longitude":"13.1333","id":15057,"latitude":"46.2833","city":"Gemona del Friuli, Friuli Venezia Giulia"},{"longitude":"4.4500","country":"Belgium","latitude":"50.6000","city":"Genappe, Wallonia","id":15058},{"country":"France","longitude":"5.0022","id":15059,"latitude":"45.7314","city":"Genas, Auvergne-Rhône-Alpes"},{"longitude":"40.5560","latitude":"38.7500","city":"Genc, Bingöl","id":15060,"country":"Turkey"},{"country":"Mali","city":"Gendou, Ségou","longitude":"-6.4964","id":15061,"latitude":"12.8292"},{"id":15062,"latitude":"52.6244","city":"Genemuiden, Overijssel","longitude":"6.0397","country":"Netherlands"},{"country":"Argentina","longitude":"-64.6000","id":15063,"city":"General Acha, La Pampa","latitude":"-37.3833"},{"latitude":"-36.0333","country":"Argentina","city":"General Alvear, Buenos Aires","longitude":"-60.0167","id":15064},{"longitude":"-67.7000","id":15065,"latitude":"-34.9667","city":"General Alvear, Mendoza","country":"Argentina"},{"country":"Argentina","latitude":"-35.7667","city":"General Belgrano, Buenos Aires","longitude":"-58.5000","id":15066},{"country":"Argentina","id":15067,"latitude":"-32.7994","city":"General Cabrera, Córdoba","longitude":"-63.8683"},{"city":"General Carneiro, Paraná","longitude":"-51.3158","id":15068,"country":"Brazil","latitude":"-26.4278"},{"latitude":"-40.1000","city":"General Conesa, Río Negro","country":"Argentina","id":15069,"longitude":"-64.4167"},{"longitude":"-63.7889","id":15070,"city":"General Deheza, Córdoba","latitude":"-32.7564","country":"Argentina"},{"country":"Philippines","id":15071,"longitude":"120.8000","latitude":"14.1800","city":"General Emilio Aguinaldo, Cavite"},{"latitude":"-22.6000","country":"Argentina","longitude":"-63.8167","id":15072,"city":"General Enrique Mosconi, Salta"},{"longitude":"-62.2100","id":15073,"country":"Paraguay","latitude":"-20.5200","city":"General Eugenio A. Garay, Boquerón"},{"country":"Argentina","latitude":"-26.5375","city":"General Jose de San Martin, Chaco","id":15074,"longitude":"-59.3417"},{"city":"General Juan Madariaga, Buenos Aires","longitude":"-57.1333","latitude":"-37.0167","country":"Argentina","id":15075},{"city":"General Las Heras, Buenos Aires","latitude":"-34.9333","country":"Argentina","longitude":"-58.9500","id":15076},{"latitude":"13.6881","id":15077,"longitude":"122.1708","country":"Philippines","city":"General Luna, Quezon"},{"id":15078,"longitude":"126.1567","latitude":"9.7836","city":"General Luna, Surigao del Norte","country":"Philippines"},{"country":"Philippines","longitude":"125.5400","id":15079,"latitude":"11.2486","city":"General MacArthur, Eastern Samar"},{"latitude":"15.6030","city":"General Mamerto Natividad, Nueva Ecija","country":"Philippines","longitude":"121.0510","id":15080},{"city":"General Mariano Alvarez, Cavite","longitude":"121.0000","id":15081,"latitude":"14.3000","country":"Philippines"},{"latitude":"-24.6667","city":"General Martin Miguel de Guemes, Salta","id":15082,"country":"Argentina","longitude":"-65.0500"},{"city":"General Nakar, Quezon","country":"Philippines","latitude":"14.7631","longitude":"121.6350","id":15083},{"city":"General Pacheco, Buenos Aires","country":"Argentina","latitude":"-34.4500","longitude":"-58.6500","id":15084},{"latitude":"22.6650","country":"Mexico","id":15085,"longitude":"-102.1097","city":"General Panfilo Natera, Zacatecas"},{"latitude":"-35.6667","longitude":"-63.7333","country":"Argentina","city":"General Pico, La Pampa","id":15086},{"country":"Argentina","latitude":"-27.3167","longitude":"-61.2833","id":15087,"city":"General Pinedo, Chaco"},{"id":15088,"latitude":"-39.0333","city":"General Roca, Río Negro","longitude":"-67.5833","country":"Argentina"},{"city":"General Rodriguez, Buenos Aires","country":"Argentina","latitude":"-34.6167","longitude":"-58.9500","id":15089},{"city":"General Salgado, São Paulo","country":"Brazil","latitude":"-20.6478","longitude":"-50.3608","id":15090},{"latitude":"-34.5667","longitude":"-58.5333","city":"General San Martin, Buenos Aires","id":15091,"country":"Argentina"},{"id":15092,"city":"General Santos, General Santos","country":"Philippines","longitude":"125.1700","latitude":"6.1200"},{"latitude":"15.3500","city":"General Tinio, Nueva Ecija","longitude":"121.0500","country":"Philippines","id":15093},{"latitude":"14.3800","city":"General Trias, Cavite","country":"Philippines","id":15094,"longitude":"120.8800"},{"latitude":"-35.0000","city":"General Viamonte, Buenos Aires","longitude":"-61.0333","id":15095,"country":"Argentina"},{"id":15096,"city":"General Villegas, Buenos Aires","longitude":"-63.0167","latitude":"-35.0333","country":"Argentina"},{"id":15097,"city":"Geneseo, New York","country":"United States","latitude":"42.8038","longitude":"-77.7783"},{"city":"Genet, Oromīya","latitude":"9.0500","country":"Ethiopia","longitude":"38.5000","id":15098},{"city":"Geneva, Genève","longitude":"6.1469","id":15099,"country":"Switzerland","latitude":"46.2017"},{"longitude":"-88.3242","city":"Geneva, Illinois","id":15100,"latitude":"41.8833","country":"United States"},{"longitude":"-76.9826","city":"Geneva, New York","latitude":"42.8645","id":15101,"country":"United States"},{"longitude":"8.0167","city":"Gengenbach, Baden-Württemberg","id":15102,"latitude":"48.4000","country":"Germany"},{"latitude":"37.4453","id":15103,"city":"Gengzhuangqiaocun, Hebei","country":"China","longitude":"114.9804"},{"country":"China","longitude":"121.5167","id":15104,"latitude":"50.7833","city":"Genhe, Inner Mongolia"},{"longitude":"5.5000","latitude":"50.9667","id":15105,"city":"Genk, Flanders","country":"Belgium"},{"id":15106,"city":"Gennep, Limburg","longitude":"5.9667","latitude":"51.7000","country":"Netherlands"},{"longitude":"2.3000","id":15107,"latitude":"48.9333","city":"Gennevilliers, Île-de-France","country":"France"},{"id":15108,"latitude":"44.4111","city":"Genoa, Liguria","longitude":"8.9328","country":"Italy"},{"longitude":"-77.0194","id":15109,"latitude":"1.6442","city":"Genova, Nariño","country":"Colombia"},{"country":"Belgium","longitude":"3.7253","id":15110,"latitude":"51.0536","city":"Gent, Flanders"},{"id":15111,"city":"Gentbrugge, Flanders","longitude":"3.7642","latitude":"51.0314","country":"Belgium"},{"latitude":"52.4000","city":"Genthin, Saxony-Anhalt","country":"Germany","longitude":"12.1667","id":15112},{"id":15113,"city":"Gentilly, Île-de-France","country":"France","latitude":"48.8133","longitude":"2.3444"},{"longitude":"-42.5000","city":"Gentio do Ouro, Bahia","id":15114,"latitude":"-11.4167","country":"Brazil"},{"city":"Genzano di Roma, Lazio","longitude":"12.6833","id":15115,"country":"Italy","latitude":"41.7000"},{"city":"George Mason, Virginia","longitude":"-77.3186","country":"United States","id":15116,"latitude":"38.8356"},{"city":"George Town, ","longitude":"-81.3744","country":"Cayman Islands","id":15117,"latitude":"19.2866"},{"city":"George Town, Pulau Pinang","country":"Malaysia","longitude":"100.3292","id":15118,"latitude":"5.4144"},{"longitude":"22.4500","id":15119,"city":"George, Western Cape","country":"South Africa","latitude":"-33.9667"},{"id":15120,"longitude":"-75° 19' 58\"","latitude":" 38° 40' 01\"","country":"USA","city":"Georgetown, Delaware"},{"latitude":"6.8058","city":"Georgetown, Demerara-Mahaica","id":15121,"longitude":"-58.1508","country":"Guyana"},{"country":"United States","id":15122,"longitude":"-81.2260","latitude":"31.9849","city":"Georgetown, Georgia"},{"id":15123,"country":"United States","city":"Georgetown, Kentucky","longitude":"-84.5487","latitude":"38.2247"},{"country":"Canada","city":"Georgetown, Ontario","longitude":"-79.9281","id":15124,"latitude":"43.6526"},{"latitude":"-18.2922","city":"Georgetown, Queensland","country":"Australia","longitude":"143.5480","id":15125},{"city":"Georgetown, SH","latitude":"-7.9286","country":"Saint Helena","longitude":"-14.4119","id":15126},{"id":15127,"country":"United States","city":"Georgetown, Texas","latitude":"30.6660","longitude":"-97.6966"},{"city":"Georgian Bluffs, Ontario","latitude":"44.6500","id":15128,"country":"Canada","longitude":"-81.0333"},{"country":"Canada","longitude":"-79.4333","city":"Georgina, Ontario","id":15129,"latitude":"44.3000"},{"city":"Georgiyevsk, Stavropol’skiy Kray","country":"Russia","id":15130,"latitude":"44.1500","longitude":"43.4667"},{"latitude":"52.2000","country":"Germany","id":15131,"longitude":"8.0667","city":"Georgsmarienhutte, Lower Saxony"},{"city":"Gera, Thuringia","id":15132,"longitude":"12.0833","latitude":"50.8806","country":"Germany"},{"latitude":"50.7667","city":"Geraardsbergen, Flanders","id":15133,"longitude":"3.8667","country":"Belgium"},{"country":"Greece","latitude":"38.0333","longitude":"23.8500","city":"Gerakas, Attikí","id":15134},{"id":15135,"longitude":"-86° 57' 00\"","country":"Canada","city":"Geraldton, Ontario","latitude":" 49° 44' 00\""},{"longitude":"114.6089","latitude":"-28.7744","country":"Australia","id":15136,"city":"Geraldton, Western Australia"},{"id":15137,"latitude":"48.2950","city":"Gerasdorf bei Wien, Niederösterreich","country":"Austria","longitude":"16.4675"},{"city":"Gerash, Fārs","country":"Iran","longitude":"54.1411","id":15138,"latitude":"27.6667"},{"latitude":"31.9417","city":"Gerd Faramarz Shahediyeh, Yazd","country":"Iran","id":15139,"longitude":"54.2677"},{"city":"Gerede, Bolu","latitude":"40.8006","country":"Turkey","longitude":"32.1986","id":15140},{"latitude":"47.8667","longitude":"11.4667","id":15141,"city":"Geretsried, Bavaria","country":"Germany"},{"latitude":"41.8275","country":"United States","city":"Gering, Nebraska","id":15142,"longitude":"-103.6622"},{"country":"Argentina","city":"Gerli, Buenos Aires","longitude":"-58.3667","latitude":"-34.6833","id":15143},{"longitude":"9.0653","id":15144,"latitude":"48.8000","city":"Gerlingen, Baden-Württemberg","country":"Germany"},{"country":"United States","city":"German Flatts, New York","longitude":"-74.9804","latitude":"42.9868","id":15145},{"city":"Germantown, Maryland","longitude":"-77.2643","country":"United States","id":15146,"latitude":"39.1755"},{"id":15147,"city":"Germantown, Tennessee","country":"United States","longitude":"-89.7824","latitude":"35.0829"},{"country":"United States","latitude":"43.2343","longitude":"-88.1217","city":"Germantown, Wisconsin","id":15148},{"country":"Cyprus","longitude":"33.0856","city":"Germasogeia, Lemesós","id":15149,"latitude":"34.7181"},{"longitude":"27.6058","id":15150,"latitude":"37.8697","city":"Germencik, Aydın","country":"Turkey"},{"latitude":"48.1333","country":"Germany","longitude":"11.3667","id":15151,"city":"Germering, Bavaria"},{"country":"Germany","longitude":"8.3667","id":15152,"city":"Germersheim, Rhineland-Palatinate","latitude":"49.2167"},{"country":"Iran","latitude":"39.0297","longitude":"48.0803","id":15153,"city":"Germi, Ardabīl"},{"city":"Germiston, Gauteng","latitude":"-26.2178","longitude":"28.1672","id":15154,"country":"South Africa"},{"latitude":"48.7633","city":"Gernsbach, Baden-Württemberg","longitude":"8.3342","country":"Germany","id":15155},{"latitude":"49.7500","country":"Germany","city":"Gernsheim, Hesse","longitude":"8.4833","id":15156},{"id":15157,"longitude":"120.5986","latitude":"15.6069","country":"Philippines","city":"Gerona, Tarlac"},{"country":"Belgium","longitude":"4.5167","city":"Gerpinnes, Wallonia","latitude":"50.3333","id":15158},{"id":15159,"country":"Germany","latitude":"48.6225","city":"Gerstetten, Baden-Württemberg","longitude":"10.0206"},{"country":"Germany","id":15160,"city":"Gersthofen, Bavaria","longitude":"10.8667","latitude":"48.4167"},{"city":"Gerstungen, Thuringia","latitude":"50.9625","country":"Germany","id":15161,"longitude":"10.0597"},{"city":"Gerzat, Auvergne-Rhône-Alpes","id":15162,"longitude":"3.1456","latitude":"45.8267","country":"France"},{"city":"Gerze, Sinop","country":"Turkey","longitude":"35.1981","id":15163,"latitude":"41.8056"},{"latitude":"51.9569","city":"Gescher, North Rhine-Westphalia","country":"Germany","longitude":"7.0056","id":15164},{"id":15165,"latitude":"51.6500","longitude":"8.5167","country":"Germany","city":"Geseke, North Rhine-Westphalia"},{"id":15166,"city":"Gessate, Lombardy","latitude":"45.5500","longitude":"9.4333","country":"Italy"},{"latitude":"6.7242","city":"Gesuba, YeDebub Bihēroch Bihēreseboch na Hizboch","id":15167,"longitude":"37.5567","country":"Ethiopia"},{"country":"Philippines","longitude":"124.1500","city":"Getafe, Bohol","latitude":"10.1500","id":15168},{"id":15169,"city":"Getafe, Madrid","latitude":"40.3047","country":"Spain","longitude":"-3.7311"},{"country":"India","longitude":"87.7092","latitude":"25.6879","city":"Gethaura, Bihār","id":15170},{"city":"Getulina, São Paulo","latitude":"-21.7986","country":"Brazil","id":15171,"longitude":"-49.9286"},{"city":"Getulio Vargas, Rio Grande do Sul","latitude":"-27.8900","country":"Brazil","id":15172,"longitude":"-52.2278"},{"country":"Turkey","id":15173,"city":"Gevas, Van","latitude":"38.2978","longitude":"43.1056"},{"longitude":"7.3333","id":15174,"city":"Gevelsberg, North Rhine-Westphalia","latitude":"51.3167","country":"Germany"},{"id":15175,"longitude":"22.5025","country":"North Macedonia","latitude":"41.1392","city":"Gevgelija, Gevgelija"},{"longitude":"6.0578","latitude":"46.3333","city":"Gex, Auvergne-Rhône-Alpes","country":"France","id":15176},{"city":"Gexianzhuang, Hebei","country":"China","latitude":"37.0694","longitude":"115.6591","id":15177},{"latitude":"26.8706","city":"Geylegphug, Sarpang","id":15178,"longitude":"90.4856","country":"Bhutan"},{"latitude":"40.5089","city":"Geyve, Sakarya","country":"Turkey","id":15179,"longitude":"30.2900"},{"city":"Ghabaghib, Dar‘ā","latitude":"33.1839","id":15180,"longitude":"36.2264","country":"Syria"},{"id":15181,"country":"Syria","latitude":"34.5378","city":"Ghabrah, Dayr az Zawr","longitude":"40.9125"},{"longitude":"9.5000","id":15182,"city":"Ghadamis, Nālūt","latitude":"30.1333","country":"Libya"},{"latitude":"40.2200","longitude":"69.7300","id":15183,"city":"Ghafurov, Sughd","country":"Tajikistan"},{"latitude":"30.0198","id":15184,"city":"Ghagga, Punjab","country":"India","longitude":"76.1041"},{"country":"Malta","id":15185,"latitude":"36.0269","city":"Ghajnsielem, Għajnsielem","longitude":"14.2903"},{"id":15186,"latitude":"30.8189","country":"India","longitude":"75.1063","city":"Ghal Kalan, Punjab"},{"latitude":"18.3000","country":"India","id":15187,"longitude":"78.5833","city":"Ghambiraopet, Telangāna"},{"id":15188,"city":"Ghandinagar, Gujarāt","country":"India","longitude":"72.6500","latitude":"23.2231"},{"city":"Ghanipur Bejha, Bihār","longitude":"85.5548","id":15189,"latitude":"25.9281","country":"India"},{"longitude":"78.2225","id":15190,"latitude":"17.4989","country":"India","city":"Ghanpur, Telangāna"},{"city":"Ghanzi, Ghanzi","id":15191,"longitude":"21.6500","country":"Botswana","latitude":"-21.7000"},{"country":"Malta","longitude":"14.2092","city":"Gharb, Għarb","id":15192,"latitude":"36.0611"},{"country":"India","city":"Gharbara, Uttar Pradesh","longitude":"77.5100","id":15193,"latitude":"28.4700"},{"city":"Gharbia, Tanger-Tétouan-Al Hoceïma","longitude":"-5.9306","latitude":"35.5153","id":15194,"country":"Morocco"},{"id":15195,"latitude":"32.4833","longitude":"3.6667","country":"Algeria","city":"Ghardaia, Ghardaïa"},{"latitude":"36.4500","city":"Ghardimaou, Jendouba","longitude":"8.4333","id":15196,"country":"Tunisia"},{"latitude":"18.6160","city":"Ghargaon, Mahārāshtra","country":"India","longitude":"74.6980","id":15197},{"id":15198,"city":"Gharghur, Għargħur","latitude":"35.9241","country":"Malta","longitude":"14.4534"},{"longitude":"36.2233","latitude":"32.6828","id":15199,"country":"Syria","city":"Ghariyah al Gharbiyah, Dar‘ā"},{"city":"Gharyala, Punjab","country":"India","longitude":"74.7352","id":15200,"latitude":"31.2294"},{"longitude":"13.0167","latitude":"32.1697","city":"Gharyan, Al Jabal al Gharbī","country":"Libya","id":15201},{"latitude":"36.0583","city":"Ghasri, Għasri","id":15202,"country":"Malta","longitude":"14.2278"},{"country":"India","city":"Ghat Borul, Karnātaka","latitude":"17.7700","longitude":"77.1400","id":15203},{"country":"Libya","longitude":"10.1781","id":15204,"city":"Ghat, Ghāt","latitude":"24.9644"},{"city":"Ghatal, West Bengal","longitude":"87.7200","country":"India","id":15205,"latitude":"22.6700"},{"latitude":"25.8146","id":15206,"country":"India","city":"Ghataro Chaturbhuj, Bihār","longitude":"85.1862"},{"id":15207,"longitude":"83.7266","city":"Ghatawan, Bihār","latitude":"25.0968","country":"India"},{"id":15208,"city":"Ghatkesar, Telangāna","latitude":"17.4494","country":"India","longitude":"78.6853"},{"city":"Ghattu, Andhra Pradesh","longitude":"78.3331","id":15209,"latitude":"13.6602","country":"India"},{"city":"Ghattupal, Telangāna","latitude":"17.0725","id":15210,"country":"India","longitude":"78.9239"},{"country":"India","id":15211,"latitude":"24.5059","city":"Ghaura, Madhya Pradesh","longitude":"79.0781"},{"country":"Malta","city":"Ghaxaq, Għaxaq","latitude":"35.8483","id":15212,"longitude":"14.5172"},{"latitude":"35.1000","longitude":"-1.8500","city":"Ghazaouet, Tlemcen","country":"Algeria","id":15213},{"longitude":"77.4200","latitude":"28.6700","id":15214,"city":"Ghaziabad, Uttar Pradesh","country":"India"},{"id":15215,"longitude":"83.5700","city":"Ghazipur, Uttar Pradesh","country":"India","latitude":"25.5800"},{"id":15216,"city":"Ghazni, Ghaznī","country":"Afghanistan","longitude":"68.4233","latitude":"33.5492"},{"latitude":"45.4000","country":"Italy","longitude":"10.2833","id":15217,"city":"Ghedi, Lombardy"},{"latitude":"46.7200","id":15218,"longitude":"25.5900","city":"Gheorgheni, Harghita","country":"Romania"},{"longitude":"23.9000","city":"Gherla, Cluj","id":15219,"country":"Romania","latitude":"47.0200"},{"city":"Ghinda'e, Semienawi K’eyyĭḥ Baḥri","longitude":"39.0833","id":15220,"country":"Eritrea","latitude":"15.4500"},{"latitude":"21.9100","city":"Ghogaon, Madhya Pradesh","longitude":"75.7000","id":15221,"country":"India"},{"country":"India","latitude":"26.2799","city":"Ghogardiha, Bihār","longitude":"86.4700","id":15222},{"id":15223,"country":"India","city":"Ghogha, Gujarāt","latitude":"21.6800","longitude":"72.2800"},{"longitude":"75.1800","city":"Gholia Kalan, Punjab","id":15224,"latitude":"30.6726","country":"India"},{"longitude":"10.3400","city":"Ghomrassen, Tataouine","country":"Tunisia","latitude":"33.0592","id":15225},{"country":"Tajikistan","city":"Ghonchi, Sughd","longitude":"69.1369","id":15226,"latitude":"39.9589"},{"country":"Pakistan","latitude":"33.8833","longitude":"73.3833","city":"Ghora Gali, Punjab","id":15227},{"latitude":"22.0519","city":"Ghoradal, West Bengal","id":15228,"longitude":"88.3594","country":"India"},{"city":"Ghoradongri, Madhya Pradesh","country":"India","id":15229,"latitude":"22.1228","longitude":"78.0025"},{"city":"Ghorahi, ","longitude":"82.4833","country":"Nepal","latitude":"28.0333","id":15230},{"longitude":"86.0484","city":"Ghorbanki, Bihār","latitude":"26.5697","id":15231,"country":"India"},{"longitude":"86.6120","country":"India","city":"Ghordaur, Bihār","latitude":"25.7089","id":15232},{"latitude":"34.3400","country":"Afghanistan","longitude":"61.4700","city":"Ghoriyan, Herāt","id":15233},{"country":"India","longitude":"87.0304","latitude":"25.5562","city":"Ghosai, Bihār","id":15234},{"longitude":"85.5780","latitude":"25.0910","id":15235,"city":"Ghosrawan, Bihār","country":"India"},{"latitude":" 51° 12' 00\"","id":15236,"longitude":"-114° 46' 00\"","city":"Ghost Lake, Alberta","country":"Canada"},{"city":"Ghoswari, Bihār","longitude":"85.4964","id":15237,"country":"India","latitude":"25.4687"},{"city":"Ghota Fatehgarh, Punjab","country":"Pakistan","latitude":"32.0900","id":15238,"longitude":"74.7800"},{"latitude":"19.7167","city":"Ghoti Budrukh, Mahārāshtra","id":15239,"country":"India","longitude":"73.6333"},{"city":"Ghotki, Sindh","id":15240,"latitude":"28.1000","longitude":"69.1900","country":"Pakistan"},{"latitude":"34.4667","city":"Ghouazi, Fès-Meknès","id":15241,"country":"Morocco","longitude":"-5.3000"},{"longitude":"0.1667","latitude":"35.2500","city":"Ghriss, Mascara","country":"Algeria","id":15242},{"city":"Ghuenke, Punjab","id":15243,"country":"Pakistan","longitude":"74.4603","latitude":"32.4244"},{"country":"Tajikistan","city":"Ghulakandoz, Sughd","longitude":"69.4678","id":15244,"latitude":"40.1617"},{"id":15245,"latitude":"43.9000","city":"Ghulja, Xinjiang","country":"China","longitude":"81.3500"},{"id":15246,"city":"Ghusiya, Bihār","latitude":"25.1832","country":"India","longitude":"84.2486"},{"id":15247,"latitude":"11.9833","country":"Vietnam","longitude":"107.7000","city":"Gia Nghia, Đắk Nông"},{"longitude":"105.4170","latitude":"9.2500","country":"Vietnam","id":15248,"city":"Gia Rai, Bạc Liêu"},{"longitude":"22.4000","city":"Giannitsa, Kentrikí Makedonía","country":"Greece","id":15249,"latitude":"40.7833"},{"country":"Greece","id":15250,"latitude":"39.6667","city":"Giannouli, Thessalía","longitude":"22.4000"},{"country":"Italy","longitude":"15.2833","id":15251,"city":"Giardini, Sicilia","latitude":"37.8333"},{"city":"Giarre, Sicilia","latitude":"37.7333","longitude":"15.1833","country":"Italy","id":15252},{"longitude":"7.3500","latitude":"45.0333","city":"Giaveno, Piedmont","country":"Italy","id":15253},{"city":"Gibara, Holguín","id":15254,"country":"Cuba","latitude":"21.1072","longitude":"-76.1367"},{"city":"Gibraleon, Andalusia","latitude":"37.3753","country":"Spain","longitude":"-6.9694","id":15255},{"city":"Gibraltar, ","id":15256,"country":"Gibraltar","longitude":"-5.3500","latitude":"36.1400"},{"id":15257,"country":"Canada","longitude":"-123.5036","latitude":"49.4028","city":"Gibsons, British Columbia"},{"country":"United States","longitude":"-82.3761","latitude":"27.8260","city":"Gibsonton, Florida","id":15258},{"city":"Gibsonville, North Carolina","id":15259,"country":"United States","latitude":"36.0993","longitude":"-79.5415"},{"latitude":"14.0131","longitude":"5.3185","country":"Niger","id":15260,"city":"Gidan Ider, Tahoua"},{"country":"India","latitude":"15.3764","longitude":"78.9251","id":15261,"city":"Giddalur, Andhra Pradesh"},{"city":"Giddarbaha, Punjab","longitude":"74.6700","id":15262,"latitude":"30.2000","country":"India"},{"longitude":"86.8176","id":15263,"latitude":"26.0507","city":"Gidha, Bihār","country":"India"},{"city":"Gidi, Jhārkhand","longitude":"85.3641","id":15264,"latitude":"23.6909","country":"India"},{"id":15265,"longitude":"75.8623","country":"India","latitude":"30.8461","city":"Gidri, Punjab"},{"country":"France","longitude":"2.6300","id":15266,"latitude":"47.6897","city":"Gien, Centre-Val de Loire"},{"latitude":"48.6217","country":"Germany","city":"Giengen an der Brenz, Baden-Württemberg","id":15267,"longitude":"10.2450"},{"country":"Poland","city":"Gieraltowice, Śląskie","longitude":"18.7167","latitude":"50.2167","id":15268},{"latitude":"52.2000","longitude":"9.8833","country":"Germany","city":"Giesen, Lower Saxony","id":15269},{"id":15270,"city":"Giessen, Hesse","country":"Germany","latitude":"50.5833","longitude":"8.6667"},{"latitude":"48.7018","id":15271,"country":"France","longitude":"2.1339","city":"Gif-sur-Yvette, Île-de-France"},{"city":"Giffnock, East Renfrewshire","id":15272,"latitude":"55.8051","country":"United Kingdom","longitude":"-4.2946"},{"latitude":"40.7167","country":"Italy","longitude":"14.9333","city":"Giffoni Valle Piana, Campania","id":15273},{"id":15274,"city":"Gifhorn, Lower Saxony","latitude":"52.4886","country":"Germany","longitude":"10.5464"},{"country":"Canada","latitude":" 55° 53' 00\"","city":"Gift Lake, Alberta","id":15275,"longitude":"-115° 49' 00\""},{"country":"Japan","id":15276,"latitude":"35.4232","longitude":"136.7608","city":"Gifu, Gifu"},{"country":"United States","longitude":"-122.5964","id":15277,"latitude":"47.3352","city":"Gig Harbor, Washington"},{"city":"Gigante, Huila","id":15278,"latitude":"2.3867","longitude":"-75.5461","country":"Colombia"},{"latitude":"9.5947","longitude":"125.6975","city":"Gigaquit, Surigao del Norte","country":"Philippines","id":15279},{"id":15280,"latitude":"13.7800","longitude":"124.3800","city":"Gigmoto, Catanduanes","country":"Philippines"},{"longitude":"5.2356","id":15281,"country":"France","city":"Gignac-la-Nerthe, Provence-Alpes-Côte d’Azur","latitude":"43.3932"},{"id":15282,"latitude":"43.5333","country":"Spain","longitude":"-5.7000","city":"Gijon, Asturias"},{"country":"Rwanda","id":15283,"city":"Gikongoro, Southern Province","longitude":"29.5815","latitude":"-2.4723"},{"latitude":"30.8469","longitude":"75.8636","id":15284,"country":"India","city":"Gil, Punjab"},{"id":15285,"latitude":" 32° 58' 58\"","city":"Gila Bend, Arizona","longitude":"-112° 40' 58\"","country":"USA"},{"city":"Gilan-e Gharb, Kermānshāh","latitude":"34.1406","id":15286,"country":"Iran","longitude":"45.9183"},{"latitude":"22.0703","city":"Gilarchat, West Bengal","country":"India","longitude":"88.4455","id":15287},{"longitude":"-111.7463","country":"United States","id":15288,"latitude":"33.3100","city":"Gilbert, Arizona"},{"latitude":"-9.8333","country":"Brazil","id":15289,"city":"Gilbues, Piauí","longitude":"-45.3500"},{"id":15290,"longitude":"11.3000","country":"Germany","city":"Gilching, Bavaria","latitude":"48.1167"},{"longitude":"74.3083","id":15291,"city":"Gilgit, Gilgit-Baltistan","latitude":"35.9208","country":"Pakistan"},{"longitude":"-105° 30' 07\"","latitude":" 44° 17' 35\"","id":15292,"city":"Gillette, Wyoming","country":"United States"},{"id":15293,"latitude":"51.0375","city":"Gillingham, Dorset","longitude":"-2.2748","country":"United Kingdom"},{"country":"United Kingdom","longitude":"0.5500","id":15294,"city":"Gillingham, Medway","latitude":"51.3850"},{"id":15295,"city":"Gillitts, KwaZulu-Natal","country":"South Africa","latitude":"-29.7972","longitude":"30.7944"},{"longitude":"-121.5854","country":"United States","id":15296,"city":"Gilroy, California","latitude":"37.0046"},{"longitude":"35.8333","country":"Ethiopia","latitude":"9.1667","id":15297,"city":"Gimbi, Oromīya"},{"city":"Gimli, Manitoba","country":"Canada","longitude":"-96° 59' 24\"","id":15298,"latitude":" 50° 38' 01\""},{"id":15299,"city":"Gimpo, KOR","longitude":"126.6000","country":"Korea","latitude":"37.7000"},{"country":"Japan","city":"Ginan, Gifu","latitude":"35.3896","longitude":"136.7825","id":15300},{"latitude":"9.6000","longitude":"123.3500","id":15301,"city":"Ginatilan, Cebu","country":"Philippines"},{"id":15302,"country":"Colombia","longitude":"-76.2672","city":"Ginebra, Valle del Cauca","latitude":"3.7244"},{"country":"Spain","latitude":"37.3875","id":15303,"longitude":"-6.0781","city":"Gines, Andalusia"},{"latitude":"12.2528","city":"Gingee, Tamil Nādu","country":"India","longitude":"79.4173","id":15304},{"country":"Australia","longitude":"115.9100","latitude":"-31.3400","id":15305,"city":"Gingin, Western Australia"},{"longitude":"125.1000","latitude":"8.8200","city":"Gingoog, Misamis Oriental","country":"Philippines","id":15306},{"city":"Ginir, Oromīya","id":15307,"latitude":"7.1333","country":"Ethiopia","longitude":"40.7000"},{"country":"Italy","latitude":"40.5000","city":"Ginosa, Puglia","id":15308,"longitude":"16.7500"},{"country":"Japan","city":"Ginowan, Okinawa","latitude":"26.2817","longitude":"127.7783","id":15309},{"longitude":"8.3333","city":"Ginsheim-Gustavsburg, Hesse","id":15310,"latitude":"49.9833","country":"Germany"},{"city":"Gioia Tauro, Calabria","latitude":"38.4333","longitude":"15.9000","id":15311,"country":"Italy"},{"city":"Gioia del Colle, Puglia","country":"Italy","id":15312,"latitude":"40.8000","longitude":"16.9333"},{"country":"Italy","longitude":"16.6667","id":15313,"latitude":"41.1833","city":"Giovinazzo, Puglia"},{"id":15314,"longitude":"125.4494","latitude":"11.1208","city":"Giporlos, Eastern Samar","country":"Philippines"},{"country":"United States","longitude":"-80.6963","id":15315,"latitude":"41.1665","city":"Girard, Ohio"},{"id":15316,"latitude":"4.3050","longitude":"-74.8017","city":"Girardot, Cundinamarca","country":"Colombia"},{"country":"Colombia","id":15317,"latitude":"6.3764","city":"Girardota, Antioquia","longitude":"-75.4473"},{"city":"Girau do Ponciano, Alagoas","id":15318,"latitude":"-9.8839","longitude":"-36.8289","country":"Brazil"},{"id":15319,"city":"Giresun, Giresun","longitude":"38.3894","latitude":"40.9153","country":"Turkey"},{"country":"India","city":"Giria, West Bengal","id":15320,"longitude":"88.0767","latitude":"24.5167"},{"id":15321,"latitude":"7.0708","country":"Colombia","city":"Giron, Santander","longitude":"-73.1731"},{"city":"Girona, Catalonia","longitude":"2.8211","id":15322,"country":"Spain","latitude":"41.9844"},{"id":15323,"country":"Brazil","latitude":"-28.0278","longitude":"-54.3500","city":"Girua, Rio Grande do Sul"},{"city":"Gisborne, Gisborne","latitude":"-38.6625","country":"New Zealand","longitude":"178.0178","id":15324},{"city":"Gisborne, Victoria","longitude":"144.5889","id":15325,"country":"Australia","latitude":"-37.4900"},{"country":"Rwanda","city":"Gisenyi, Western Province","id":15326,"latitude":"-1.7000","longitude":"29.2500"},{"latitude":"57.3000","id":15327,"country":"Sweden","city":"Gislaved, Jönköping","longitude":"13.5333"},{"longitude":"1.7772","latitude":"49.2811","city":"Gisors, Normandie","country":"France","id":15328},{"id":15329,"longitude":"2.9667","city":"Gistel, Flanders","country":"Belgium","latitude":"51.1500"},{"latitude":"50.2236","city":"Giszowiec, Śląskie","country":"Poland","longitude":"19.0694","id":15330},{"longitude":"124.4054","city":"Gitagum, Misamis Oriental","latitude":"8.5956","country":"Philippines","id":15331},{"city":"Gitarama, Southern Province","country":"Rwanda","id":15332,"longitude":"29.7600","latitude":"-2.0696"},{"city":"Gitega, Gitega","latitude":"-3.4283","country":"Burundi","longitude":"29.9250","id":15333},{"country":"Burundi","latitude":"-3.4260","longitude":"29.8436","id":15334,"city":"Gitega, Mwaro"},{"id":15335,"city":"Giugliano in Campania, Campania","country":"Italy","longitude":"14.2000","latitude":"40.9333"},{"country":"Italy","city":"Giulianova, Abruzzo","longitude":"13.9500","latitude":"42.7500","id":15336},{"longitude":"25.9739","id":15337,"country":"Romania","city":"Giurgiu, Giurgiu","latitude":"43.9008"},{"country":"Italy","id":15338,"longitude":"9.2167","latitude":"45.7000","city":"Giussano, Lombardy"},{"city":"Giv`at Shemu'el, Central","country":"Israel","longitude":"34.8475","latitude":"32.0781","id":15339},{"longitude":"34.8100","latitude":"32.0714","city":"Givatayim, Tel Aviv","id":15340,"country":"Israel"},{"latitude":"45.5914","id":15341,"longitude":"4.7694","city":"Givors, Auvergne-Rhône-Alpes","country":"France"},{"latitude":"-23.3100","country":"South Africa","longitude":"30.7064","id":15342,"city":"Giyani, Limpopo"},{"country":"Ethiopia","city":"Giyon, Oromīya","longitude":"37.9667","latitude":"8.5333","id":15343},{"city":"Giza, Al Jīzah","longitude":"31.2118","latitude":"29.9870","country":"Egypt","id":15344},{"longitude":"156.8389","id":15345,"latitude":"-8.1056","country":"Solomon Islands","city":"Gizo, Western"},{"country":"Poland","longitude":"21.7589","city":"Gizycko, Warmińsko-Mazurskie","id":15346,"latitude":"54.0400"},{"country":"Kosovo","longitude":"20.4333","latitude":"42.3833","city":"Gjakove, Gjakovë","id":15347},{"country":"Kosovo","longitude":"21.4669","latitude":"42.4647","city":"Gjilan, Gjilan","id":15348},{"id":15349,"country":"Albania","longitude":"20.1333","city":"Gjirokaster, Gjirokastër","latitude":"40.0667"},{"city":"Gjovik, Innlandet","longitude":"10.6915","latitude":"60.7957","id":15350,"country":"Norway"},{"id":15351,"country":"Canada","latitude":"46.2000","city":"Glace Bay, Nova Scotia","longitude":"-59.9667"},{"city":"Gladbeck, North Rhine-Westphalia","country":"Germany","id":15352,"longitude":"6.9667","latitude":"51.5667"},{"id":15353,"longitude":"8.5828","country":"Germany","latitude":"50.7681","city":"Gladenbach, Hesse"},{"city":"Gladeview, Florida","country":"United States","latitude":"25.8395","longitude":"-80.2368","id":15354},{"id":15355,"longitude":"-98° 57' 00\"","latitude":" 50° 13' 33\"","city":"Gladstone, Manitoba","country":"Canada"},{"id":15356,"country":"United States","longitude":"-94.5592","city":"Gladstone, Missouri","latitude":"39.2134"},{"id":15357,"city":"Gladstone, Oregon","latitude":"45.3864","country":"United States","longitude":"-122.5934"},{"city":"Gladstone, Queensland","latitude":"-23.8427","country":"Australia","longitude":"151.2555","id":15358},{"id":15359,"country":"Philippines","longitude":"125.2000","city":"Glan, Sarangani","latitude":"5.8200"},{"id":15360,"latitude":"46.4200","city":"Gland, Vaud","country":"Switzerland","longitude":"6.2700"},{"city":"Glanerbrug, Overijssel","longitude":"6.9742","id":15361,"country":"Netherlands","latitude":"52.2150"},{"latitude":"51.9167","city":"Glanmire, Cork","longitude":"-8.4000","id":15362,"country":"Ireland"},{"latitude":"47.0333","city":"Glarus, Glarus","country":"Switzerland","longitude":"9.0667","id":15363},{"latitude":"39.6015","longitude":"-75.7473","city":"Glasgow, Delaware","country":"United States","id":15364},{"longitude":"-4.2500","country":"United Kingdom","id":15365,"latitude":"55.8611","city":"Glasgow, Glasgow City"},{"id":15366,"city":"Glasgow, Kentucky","country":"United States","longitude":"-85° 55' 01\"","latitude":" 37° 00' 00\""},{"city":"Glassboro, New Jersey","country":"United States","latitude":"39.7014","longitude":"-75.1113","id":15367},{"latitude":"38.8181","city":"Glassmanor, Maryland","country":"United States","longitude":"-76.9833","id":15368},{"city":"Glastonbury, Somerset","longitude":"-2.7140","latitude":"51.1485","id":15369,"country":"United Kingdom"},{"id":15370,"country":"Germany","latitude":"50.8233","city":"Glauchau, Saxony","longitude":"12.5444"},{"latitude":"7.9736","city":"Glazoue, Collines","country":"Benin","longitude":"2.2400","id":15371},{"latitude":"58.1333","country":"Russia","longitude":"52.6667","id":15372,"city":"Glazov, Udmurtiya"},{"id":15373,"country":"Austria","latitude":"47.1039","longitude":"15.7083","city":"Gleisdorf, Steiermark"},{"city":"Glen Allen, Virginia","latitude":"37.6660","country":"United States","longitude":"-77.4838","id":15374},{"latitude":"39.1560","longitude":"-76.6071","country":"United States","city":"Glen Burnie, Maryland","id":15375},{"latitude":"38.7580","city":"Glen Carbon, Illinois","country":"United States","longitude":"-89.9822","id":15376},{"country":"United States","city":"Glen Cove, New York","latitude":"40.8709","longitude":"-73.6287","id":15377},{"country":"United States","city":"Glen Ellyn, Illinois","id":15378,"latitude":"41.8666","longitude":"-88.0629"},{"country":"United Kingdom","longitude":"-1.1617","latitude":"52.5867","id":15379,"city":"Glen Parva, Leicestershire"},{"country":"United States","city":"Glen Rock, New Jersey","longitude":"-74.1250","latitude":"40.9601","id":15380},{"country":"United States","latitude":"42.1347","city":"Glencoe, Illinois","longitude":"-87.7641","id":15381},{"country":"South Africa","id":15382,"longitude":"30.1500","latitude":"-28.1833","city":"Glencoe, KwaZulu-Natal"},{"country":"New Zealand","latitude":"-46.1833","city":"Glencoe, Southland","longitude":"168.6833","id":15383},{"country":"United States","longitude":"-88.0785","id":15384,"latitude":"41.9196","city":"Glendale Heights, Illinois"},{"latitude":" 33° 32' 17\"","city":"Glendale, Arizona","longitude":"-112° 10' 55\"","id":15385,"country":"United States"},{"latitude":" 34° 08' 30\"","country":"United States","city":"Glendale, California","longitude":"-118° 14' 49\"","id":15386},{"city":"Glendale, Wisconsin","longitude":"-87.9277","country":"United States","id":15387,"latitude":"43.1287"},{"latitude":" 34° 07' 00\"","country":"United States","longitude":"-117° 50' 59\"","id":15388,"city":"Glendora, California"},{"longitude":"-1.2062","country":"United Kingdom","id":15389,"latitude":"52.6491","city":"Glenfield, Leicestershire"},{"city":"Glenmont, Maryland","id":15390,"latitude":"39.0698","longitude":"-77.0467","country":"United States"},{"id":15391,"city":"Glenn Dale, Maryland","country":"United States","latitude":"38.9833","longitude":"-76.8040"},{"id":15392,"latitude":"32.5506","longitude":"-96.8548","country":"United States","city":"Glenn Heights, Texas"},{"country":"USA","longitude":"-115° 20' 59\"","city":"Glenns Ferry, Idaho","id":15393,"latitude":" 42° 58' 01\""},{"longitude":"125.4361","latitude":"-8.7239","country":"Timor-Leste","id":15394,"city":"Gleno, Ermera"},{"latitude":"35.9488","country":"United States","id":15395,"city":"Glenpool, Oklahoma","longitude":"-96.0052"},{"city":"Glenrothes, Fife","country":"United Kingdom","id":15396,"latitude":"56.1980","longitude":"-3.1780"},{"city":"Glens Falls North, New York","longitude":"-73.6832","id":15397,"country":"United States","latitude":"43.3350"},{"longitude":"-73° 38' 44\"","country":"United States","id":15398,"latitude":" 43° 18' 40\"","city":"Glens Falls, New York"},{"city":"Glenshaw, Pennsylvania","longitude":"-79.9735","country":"United States","id":15399,"latitude":"40.5391"},{"city":"Glenvar Heights, Florida","country":"United States","longitude":"-80.3155","id":15400,"latitude":"25.7090"},{"country":"United States","id":15401,"city":"Glenview, Illinois","longitude":"-87.8214","latitude":"42.0825"},{"city":"Glenville, New York","longitude":"-73.9925","latitude":"42.8869","country":"United States","id":15402},{"country":"United States","latitude":" 39° 34' 58\"","city":"Glenwood Springs, Colorado","longitude":"-107° 19' 58\"","id":15403},{"country":"United States","latitude":"41.5410","city":"Glenwood, Illinois","longitude":"-87.6118","id":15404},{"country":"USA","city":"Glenwood, Minnesota","longitude":"-95° 22' 58\"","id":15405,"latitude":" 45° 38' 59\""},{"id":15406,"city":"Glew, Buenos Aires","latitude":"-34.8833","country":"Argentina","longitude":"-58.3833"},{"longitude":"10.2111","city":"Glinde, Schleswig-Holstein","id":15407,"latitude":"53.5406","country":"Germany"},{"id":15408,"latitude":"50.2833","longitude":"18.6667","city":"Gliwice, Śląskie","country":"Poland"},{"longitude":"20.8939","id":15409,"country":"Kosovo","city":"Gllogovc, Gllogovc","latitude":"42.6236"},{"city":"Glocester, Rhode Island","longitude":"-71.6889","id":15410,"latitude":"41.8934","country":"United States"},{"id":15411,"latitude":"47.7667","city":"Glodeni, Glodeni","longitude":"27.5167","country":"Moldova"},{"id":15412,"country":"Poland","city":"Glogow Malopolski, Podkarpackie","longitude":"21.9667","latitude":"50.1667"},{"country":"Poland","longitude":"16.0803","city":"Glogow, Dolnośląskie","id":15413,"latitude":"51.6589"},{"city":"Gloria do Goita, Pernambuco","longitude":"-35.2928","latitude":"-8.0019","id":15414,"country":"Brazil"},{"latitude":"-9.3389","country":"Brazil","id":15415,"city":"Gloria, Bahia","longitude":"-38.2569"},{"latitude":"12.9722","country":"Philippines","longitude":"121.4778","city":"Gloria, Oriental Mindoro","id":15416},{"country":"United Kingdom","id":15417,"latitude":"53.4430","longitude":"-1.9490","city":"Glossop, Derbyshire"},{"latitude":"39.8924","id":15418,"country":"United States","city":"Gloucester City, New Jersey","longitude":"-75.1172"},{"latitude":"37.2767","longitude":"-76.5043","id":15419,"country":"United States","city":"Gloucester Point, Virginia"},{"city":"Gloucester, Gloucestershire","longitude":"-2.2500","country":"United Kingdom","latitude":"51.8667","id":15420},{"latitude":"42.6260","country":"United States","longitude":"-70.6897","city":"Gloucester, Massachusetts","id":15421},{"city":"Gloucester, New Jersey","country":"United States","latitude":"39.7924","id":15422,"longitude":"-75.0363"},{"longitude":"-74.3465","id":15423,"latitude":"43.0491","city":"Gloversville, New York","country":"United States"},{"latitude":" 48° 41' 00\"","city":"Glovertown, Newfoundland","longitude":"-54° 02' 00\"","id":15424,"country":"Canada"},{"id":15425,"latitude":"51.9642","city":"Glowno, Łódzkie","longitude":"19.7117","country":"Poland"},{"latitude":"50.2011","city":"Glubczyce, Opolskie","longitude":"17.8247","id":15426,"country":"Poland"},{"city":"Glucholazy, Opolskie","country":"Poland","id":15427,"longitude":"17.3742","latitude":"50.3131"},{"longitude":"9.4219","id":15428,"latitude":"53.7917","city":"Gluckstadt, Schleswig-Holstein","country":"Germany"},{"id":15429,"country":"Greece","city":"Glyfada, Attikí","latitude":"37.8667","longitude":"23.7500"},{"latitude":"37.9917","longitude":"23.8483","country":"Greece","id":15430,"city":"Glyka Nera, Attikí"},{"city":"Gmunden, Oberösterreich","country":"Austria","latitude":"47.9181","longitude":"13.7994","id":15431},{"country":"Germany","latitude":"53.3864","city":"Gnarrenburg, Lower Saxony","id":15432,"longitude":"9.0050"},{"id":15433,"longitude":"17.5958","latitude":"52.5358","city":"Gniezno, Wielkopolskie","country":"Poland"},{"latitude":"10.3667","longitude":"106.6667","country":"Vietnam","city":"Go Cong, Tiền Giang","id":15434},{"longitude":"123.4889","id":15435,"country":"Philippines","latitude":"13.6983","city":"Goa, Camarines Sur"},{"latitude":"26.1700","city":"Goalpara, Assam","country":"India","longitude":"90.6200","id":15436},{"id":15437,"city":"Goalundo Ghat, Dhaka","country":"Bangladesh","latitude":"23.7333","longitude":"89.7617"},{"longitude":"87.4155","latitude":"25.7643","country":"India","city":"Goasi, Bihār","id":15438},{"id":15439,"longitude":"-2.5167","country":"Ghana","latitude":"6.8000","city":"Goaso, Ahafo"},{"id":15440,"latitude":"7.0000","longitude":"39.9833","country":"Ethiopia","city":"Goba, Oromīya"},{"id":15441,"country":"Namibia","city":"Gobabis, Omaheke","longitude":"18.9667","latitude":"-22.4333"},{"city":"Gobardanga, West Bengal","country":"India","latitude":"22.8700","longitude":"88.7600","id":15442},{"latitude":"25.0682","city":"Gobardhanpur Kanap, Bihār","country":"India","id":15443,"longitude":"84.5241"},{"country":"Argentina","city":"Gobernador Galvez, Santa Fe","latitude":"-33.0256","longitude":"-60.6336","id":15444},{"city":"Gobernador Gregores, Santa Cruz","id":15445,"country":"Argentina","latitude":"-48.7667","longitude":"-70.2500"},{"city":"Gobernador Virasora, Corrientes","country":"Argentina","longitude":"-56.0333","id":15446,"latitude":"-28.0500"},{"latitude":"30.6709","country":"India","id":15447,"city":"Gobindgarh, Punjab","longitude":"76.3019"},{"longitude":"85.6943","city":"Gobindpur, Bihār","id":15448,"latitude":"24.7820","country":"India"},{"country":"India","city":"Gobindpura, Punjab","longitude":"75.0187","latitude":"30.2805","id":15449},{"city":"Gobo, Wakayama","longitude":"135.1500","id":15450,"country":"Japan","latitude":"33.8833"},{"latitude":"51.6839","city":"Goch, North Rhine-Westphalia","longitude":"6.1619","country":"Germany","id":15451},{"country":"Hungary","city":"God, Pest","id":15452,"latitude":"47.6906","longitude":"19.1344"},{"longitude":"-0.6155","id":15453,"country":"United Kingdom","city":"Godalming, Surrey","latitude":"51.1855"},{"city":"Godawari, Sudūrpashchim","country":"Nepal","longitude":"80.5900","id":15454,"latitude":"28.9100"},{"city":"Godda, Jhārkhand","longitude":"87.2125","country":"India","id":15455,"latitude":"24.8270"},{"id":15456,"country":"Ethiopia","latitude":"5.9527","longitude":"43.5516","city":"Gode, Sumalē"},{"city":"Godella, Valencia","longitude":"-0.4114","latitude":"39.5200","country":"Spain","id":15457},{"country":"Canada","longitude":"-81° 43' 00\"","city":"Goderich, Ontario","id":15458,"latitude":" 43° 45' 00\""},{"country":"United States","city":"Godfrey, Illinois","latitude":"38.9577","longitude":"-90.2156","id":15459},{"country":"Greenland","latitude":"69.2472","id":15460,"city":"Godhavn, Qeqertalik","longitude":"-53.5333"},{"longitude":"73.6203","id":15461,"latitude":"22.7772","city":"Godhra, Gujarāt","country":"India"},{"country":"India","longitude":"70.9214","latitude":"20.9231","id":15462,"city":"Godhra, Gujarāt"},{"city":"Godinlabe, Galguduud","id":15463,"longitude":"46.6308","latitude":"5.8794","country":"Somalia"},{"country":"Japan","id":15464,"latitude":"35.4174","city":"Godo, Gifu","longitude":"136.6252"},{"country":"Benin","id":15465,"city":"Godohou, Couffo","latitude":"7.0333","longitude":"1.7833"},{"country":"Hungary","longitude":"19.3667","city":"Godollo, Pest","id":15466,"latitude":"47.6000"},{"longitude":"2.3500","latitude":"6.3667","city":"Godome, Atlantique","country":"Benin","id":15467},{"longitude":"-68.8333","country":"Argentina","latitude":"-32.9167","city":"Godoy Cruz, Mendoza","id":15468},{"country":"Netherlands","id":15469,"longitude":"3.8833","latitude":"51.5000","city":"Goes, Zeeland"},{"country":"United States","id":15470,"longitude":"-71.5680","latitude":"43.0190","city":"Goffstown, New Hampshire"},{"id":15471,"latitude":" 47° 40' 00\"","country":"Canada","longitude":"-81° 43' 00\"","city":"Gogama, Ontario"},{"latitude":"-24.2667","id":15472,"longitude":"44.8000","city":"Gogogogo, Toliara","country":"Madagascar"},{"latitude":"10.8386","country":"Benin","city":"Gogounou, Alibori","longitude":"2.8361","id":15473},{"city":"Gogrial, Warrap","country":"South Sudan","id":15474,"longitude":"28.1000","latitude":"8.5300"},{"id":15475,"latitude":"15.6833","longitude":"-9.3333","country":"Mali","city":"Gogui, Kayes"},{"latitude":"24.9845","city":"Goh, Bihār","country":"India","longitude":"84.6498","id":15476},{"id":15477,"longitude":"78.4420","latitude":"26.4328","city":"Gohadi, Madhya Pradesh","country":"India"},{"id":15478,"city":"Gohi Bishunpur, Bihār","latitude":"25.9275","country":"India","longitude":"85.8626"},{"latitude":"29.1300","country":"India","city":"Gohna, Haryāna","longitude":"76.9000","id":15479},{"city":"Gohpur, Assam","longitude":"93.6156","id":15480,"country":"India","latitude":"26.8818"},{"city":"Gohuma Bairia, Bihār","country":"India","latitude":"26.3938","id":15481,"longitude":"86.3976"},{"id":15482,"city":"Goiana, Pernambuco","longitude":"-35.0028","country":"Brazil","latitude":"-7.5608"},{"city":"Goianapolis, Goiás","country":"Brazil","longitude":"-49.0214","latitude":"-16.5050","id":15483},{"city":"Goianesia, Goiás","id":15484,"country":"Brazil","longitude":"-49.1189","latitude":"-15.3239"},{"latitude":"-16.6667","country":"Brazil","city":"Goiania, Goiás","longitude":"-49.2500","id":15485},{"longitude":"-35.2100","latitude":"-6.2669","city":"Goianinha, Rio Grande do Norte","id":15486,"country":"Brazil"},{"latitude":"-16.5067","city":"Goianira, Goiás","country":"Brazil","longitude":"-49.4239","id":15487},{"city":"Goias, Goiás","country":"Brazil","longitude":"-50.1400","id":15488,"latitude":"-15.9339"},{"city":"Goiatins, Tocantins","latitude":"-7.7000","country":"Brazil","id":15489,"longitude":"-47.1833"},{"longitude":"-49.3569","country":"Brazil","latitude":"-18.0111","id":15490,"city":"Goiatuba, Goiás"},{"country":"Brazil","longitude":"-53.0278","id":15491,"latitude":"-24.1850","city":"Goio-Ere, Paraná"},{"city":"Goirle, Noord-Brabant","longitude":"5.0667","country":"Netherlands","latitude":"51.5167","id":15492},{"latitude":"45.2500","id":15493,"longitude":"10.6667","city":"Goito, Lombardy","country":"Italy"},{"longitude":"135.6964","country":"Japan","id":15494,"latitude":"34.3486","city":"Gojo, Nara"},{"country":"Pakistan","city":"Gojra, Punjab","longitude":"72.6833","id":15495,"latitude":"31.1500"},{"latitude":"27.1065","city":"Gok, West Bengal","country":"India","id":15496,"longitude":"88.2459"},{"city":"Gokak, Karnātaka","longitude":"74.8333","id":15497,"country":"India","latitude":"16.1667"},{"id":15498,"latitude":"14.5500","longitude":"74.3167","country":"India","city":"Gokarn, Karnātaka"},{"id":15499,"city":"Gokarna, West Bengal","latitude":"24.0541","longitude":"88.1176","country":"India"},{"latitude":"17.2667","city":"Gokavaram, Andhra Pradesh","longitude":"81.8500","country":"India","id":15500},{"longitude":"40.6970","latitude":"37.2070","city":"Gokce, Mardin","country":"Turkey","id":15501},{"city":"Gokceada, Çanakkale","longitude":"25.8444","latitude":"40.1608","country":"Turkey","id":15502},{"longitude":"32.1417","id":15503,"country":"Turkey","latitude":"41.3081","city":"Gokcebey, Zonguldak"},{"city":"Gokdepe, Ahal","latitude":"38.1578","longitude":"57.9664","country":"Turkmenistan","id":15504},{"latitude":"26.2479","id":15505,"country":"India","longitude":"87.1137","city":"Gokhulapur, Bihār"},{"latitude":"16.9228","country":"India","longitude":"79.7827","id":15506,"city":"Gokinepalle, Telangāna"},{"latitude":"38.0211","country":"Turkey","longitude":"36.4917","id":15507,"city":"Goksun, Kahramanmaraş"},{"longitude":"76.6176","country":"India","id":15508,"latitude":"28.2468","city":"Gokulgarh, Haryāna"},{"latitude":"35.4872","country":"Iran","longitude":"51.5650","city":"Gol Tappeh, Tehrān","id":15509},{"latitude":"26.5200","id":15510,"country":"India","longitude":"93.9700","city":"Golaghat, Assam"},{"country":"India","longitude":"85.0728","id":15511,"city":"Golakpur, Bihār","latitude":"25.1777"},{"latitude":"29.8828","longitude":"57.7322","country":"Iran","id":15512,"city":"Golbaf, Kermān"},{"city":"Golbasi, Adıyaman","country":"Turkey","latitude":"37.7839","id":15513,"longitude":"37.6444"},{"id":15514,"city":"Golbasi, Ankara","latitude":"39.7953","country":"Turkey","longitude":"32.8028"},{"city":"Golbey, Grand Est","latitude":"48.1967","country":"France","id":15515,"longitude":"6.4381"},{"latitude":"53.4758","country":"United Kingdom","id":15516,"longitude":"-2.5943","city":"Golborne, Wigan"},{"latitude":"40.7172","longitude":"29.8228","country":"Turkey","id":15517,"city":"Golcuk, Kocaeli"},{"longitude":"-111.4230","id":15518,"latitude":"33.3639","country":"United States","city":"Gold Canyon, Arizona"},{"country":"Australia","latitude":"-28.0167","longitude":"153.4000","city":"Gold Coast, Queensland","id":15519},{"latitude":" 49° 41' 00\"","city":"Gold River, British Columbia","country":"Canada","longitude":"-126° 07' 00\"","id":15520},{"id":15521,"latitude":"33.5874","country":"India","city":"Gold, Jammu and Kashmīr","longitude":"74.1445"},{"city":"Goldach, Sankt Gallen","longitude":"9.4667","id":15522,"country":"Switzerland","latitude":"47.4833"},{"latitude":"54.3161","id":15523,"longitude":"22.3094","city":"Goldap, Warmińsko-Mazurskie","country":"Poland"},{"country":"Iran","longitude":"51.4386","city":"Goldasht, Eşfahān","id":15524,"latitude":"32.6269"},{"longitude":"9.1864","city":"Goldbach, Bavaria","country":"Germany","id":15525,"latitude":"49.9889"},{"country":"United States","longitude":"-81.7031","latitude":"26.1844","city":"Golden Gate, Florida","id":15526},{"country":"United States","latitude":"25.9129","longitude":"-80.2013","id":15527,"city":"Golden Glades, Florida"},{"city":"Golden Hills, California","longitude":"-118.4968","latitude":"35.1409","id":15528,"country":"United States"},{"city":"Golden Valley, Minnesota","longitude":"-93.3591","latitude":"44.9901","country":"United States","id":15529},{"country":"Canada","id":15530,"city":"Golden, British Columbia","longitude":"-116° 58' 00\"","latitude":" 51° 18' 00\""},{"longitude":"-105.2118","latitude":"39.7406","city":"Golden, Colorado","id":15531,"country":"United States"},{"country":"United States","longitude":"-81.2916","id":15532,"latitude":"28.6114","city":"Goldenrod, Florida"},{"latitude":"52.7833","id":15533,"longitude":"8.4167","city":"Goldenstedt, Lower Saxony","country":"Germany"},{"id":15534,"latitude":" 37° 42' 00\"","city":"Goldfield, Nevada","country":"USA","longitude":"-117° 15' 00\""},{"id":15535,"city":"Goldsboro, North Carolina","country":"United States","latitude":" 35° 22' 58\"","longitude":"-77° 58' 58\""},{"city":"Goldstone, California","longitude":"-116° 52' 58\"","latitude":" 35° 21' 00\"","country":"USA","id":15536},{"latitude":"40.7928","longitude":"42.6086","country":"Turkey","id":15537,"city":"Gole, Ardahan"},{"longitude":"14.8281","city":"Goleniow, Zachodniopomorskie","latitude":"53.5636","id":15538,"country":"Poland"},{"id":15539,"country":"India","city":"Golet, Telangāna","latitude":"19.2390","longitude":"79.3891"},{"country":"United States","latitude":"34.4361","longitude":"-119.8594","id":15540,"city":"Goleta, California"},{"latitude":"8.6526","longitude":"-83.1733","id":15541,"country":"Costa Rica","city":"Golfito, Puntarenas"},{"latitude":"37.1408","longitude":"29.5075","country":"Turkey","city":"Golhisar, Burdur","id":15542},{"country":"Russia","longitude":"36.9872","city":"Golitsyno, Moskovskaya Oblast’","latitude":"55.6147","id":15543},{"country":"Turkey","latitude":"40.6875","longitude":"37.6178","city":"Golkoy, Ordu","id":15544},{"id":15545,"country":"India","city":"Gollalagunta, Andhra Pradesh","longitude":"82.2847","latitude":"17.1672"},{"city":"Gollapudi, Andhra Pradesh","country":"India","longitude":"80.5784","id":15546,"latitude":"16.5412"},{"id":15547,"city":"Golmarmara, Manisa","longitude":"27.9167","latitude":"38.7167","country":"Turkey"},{"country":"China","longitude":"94.9283","id":15548,"latitude":"36.4072","city":"Golmud, Qinghai"},{"latitude":"6.5403","city":"Golo-Djigbe, Atlantique","country":"Benin","longitude":"2.3253","id":15549},{"latitude":"33.4508","city":"Golpayegan, Eşfahān","longitude":"50.2817","country":"Iran","id":15550},{"country":"Turkey","id":15551,"city":"Golpazari, Bilecik","longitude":"30.3172","latitude":"40.2847"},{"city":"Golub-Dobrzyn, Kujawsko-Pomorskie","longitude":"19.0500","latitude":"53.1000","country":"Poland","id":15552},{"latitude":"44.6500","city":"Golubac, Golubac","country":"Serbia","longitude":"21.6333","id":15553},{"country":"Montenegro","longitude":"19.2253","id":15554,"latitude":"42.3344","city":"Golubovci, Zeta"},{"latitude":"51.8494","city":"Goluchow, Wielkopolskie","longitude":"17.9314","country":"Poland","id":15555},{"longitude":"14.7667","city":"Golungo Alto, Cuanza-Norte","latitude":"-9.1333","country":"Angola","id":15556},{"city":"Goluwali, Rājasthān","id":15557,"latitude":"29.6300","longitude":"74.0600","country":"India"},{"country":"Turkey","city":"Golyaka, Düzce","longitude":"30.9958","latitude":"40.7769","id":15558},{"longitude":"68.3715","id":15559,"country":"Russia","city":"Golyshmanovo, Tyumenskaya Oblast’","latitude":"56.3819"},{"city":"Goma, Nord-Kivu","latitude":"-1.6794","country":"Congo (Kinshasa)","id":15560,"longitude":"29.2336"},{"latitude":"48.4520","city":"Gomaringen, Baden-Württemberg","id":15561,"country":"Germany","longitude":"9.1000"},{"id":15562,"city":"Gombe, Butambala","country":"Uganda","latitude":"0.1811","longitude":"32.1142"},{"city":"Gombe, Gombe","longitude":"11.1700","latitude":"10.2904","country":"Nigeria","id":15563},{"id":15564,"longitude":"109.5167","latitude":"-7.6000","city":"Gombong, Jawa Tengah","country":"Indonesia"},{"latitude":"11.4333","city":"Gomboussougou, Centre-Sud","country":"Burkina Faso","longitude":"-0.7667","id":15565},{"longitude":"26.8400","latitude":"39.3911","city":"Gomec, Balıkesir","id":15566,"country":"Turkey"},{"longitude":"-103.4983","id":15567,"city":"Gomez Palacio, Durango","latitude":"25.5611","country":"Mexico"},{"id":15568,"latitude":"37.0700","longitude":"54.0769","city":"Gomishan, Golestān","country":"Iran"},{"country":"Germany","longitude":"11.8333","city":"Gommern, Saxony-Anhalt","id":15569,"latitude":"52.0667"},