{"cities":[{"id":34752,"city":"Qa'em Shahr, Māzandarān","country":"Iran","longitude":"52.8581","latitude":"36.4636"},{"id":34753,"longitude":"51.5842","country":"Iran","city":"Qa'emiyeh, Fārs","latitude":"29.8525"},{"latitude":"33.7333","city":"Qa'en, Khorāsān-e Jonūbī","longitude":"59.1811","id":34754,"country":"Iran"},{"id":34755,"country":"Greenland","city":"Qaanaaq, Avannaata","latitude":"77.4667","longitude":"-69.2306"},{"latitude":"40.9825","id":34756,"city":"Qabala, Qəbələ","country":"Azerbaijan","longitude":"47.8491"},{"city":"Qabatiyah, ","country":"West Bank","latitude":"32.4097","longitude":"35.2808","id":34757},{"id":34758,"country":"Lebanon","latitude":"33.7986","longitude":"35.8250","city":"Qabb Elias, Béqaa"},{"city":"Qabqa, Qinghai","longitude":"100.6167","country":"China","latitude":"36.2667","id":34759},{"city":"Qabr as Sitt, Rīf Dimashq","country":"Syria","longitude":"36.3361","latitude":"33.4472","id":34760},{"latitude":"-30.1167","country":"Lesotho","longitude":"28.6833","city":"Qacha's Nek, Qacha’s Nek","id":34761},{"id":34762,"city":"Qadian, Punjab","latitude":"31.8192","country":"India","longitude":"75.3764"},{"longitude":"85.5926","latitude":"24.9138","city":"Qadirganj, Bihār","country":"India","id":34763},{"longitude":"36.2167","id":34764,"city":"Qadsayya, Rīf Dimashq","country":"Syria","latitude":"33.5333"},{"latitude":"36.3972","longitude":"98.0122","id":34765,"city":"Qagan Us, Qinghai","country":"China"},{"country":"Egypt","id":34766,"latitude":"30.2833","longitude":"31.2000","city":"Qaha, Al Qalyūbīyah"},{"latitude":"32.5772","city":"Qahderijan, Eşfahān","longitude":"51.4539","country":"Iran","id":34767},{"latitude":"32.7017","city":"Qahjavarestan, Eşfahān","country":"Iran","longitude":"51.8358","id":34768},{"longitude":"68.6017","city":"Qahramon, Sirdaryo","id":34769,"latitude":"40.3050","country":"Uzbekistan"},{"longitude":"69.6833","latitude":"40.1333","id":34770,"city":"Qal'acha, Sughd","country":"Tajikistan"},{"city":"Qal'at Mgouna, Drâa-Tafilalet","latitude":"31.2414","id":34771,"country":"Morocco","longitude":"-6.1283"},{"city":"Qal`ah-ye Now, Bādghīs","country":"Afghanistan","latitude":"34.9867","id":34772,"longitude":"63.1292"},{"latitude":"37.0150","country":"Afghanistan","longitude":"68.4672","id":34773,"city":"Qal`ah-ye Zal, Kunduz"},{"city":"Qal`at Bishah, ‘Asīr","country":"Saudi Arabia","longitude":"42.6000","id":34774,"latitude":"20.0000"},{"latitude":"31.8589","longitude":"46.0772","id":34775,"city":"Qal`at Sukkar, Dhī Qār","country":"Iraq"},{"city":"Qal`at al Madiq, Ḩamāh","longitude":"36.3900","id":34776,"country":"Syria","latitude":"35.4100"},{"city":"Qal`at an Nakhl, Shamāl Sīnā’","longitude":"33.7500","latitude":"29.9000","country":"Egypt","id":34777},{"id":34778,"latitude":"31.2403","city":"Qal`eh Chan`an, Khūzestān","longitude":"48.7011","country":"Iran"},{"latitude":"27.5250","id":34779,"longitude":"57.8800","country":"Iran","city":"Qal`eh Ganj, Kermān"},{"longitude":"49.8897","country":"Iran","city":"Qal`eh Tall, Khūzestān","latitude":"31.6331","id":34780},{"id":34781,"city":"Qala, Qala","latitude":"36.0353","country":"Malta","longitude":"14.3103"},{"city":"Qaladizay, As Sulaymānīyah","longitude":"45.1278","country":"Iraq","latitude":"36.1833","id":34782},{"latitude":"32.2822","city":"Qalansuwa, Central","country":"Israel","longitude":"34.9833","id":34783},{"city":"Qalat, Zābul","latitude":"32.1061","country":"Afghanistan","longitude":"66.9069","id":34784},{"latitude":"32.1903","city":"Qalqilyah, ","longitude":"34.9686","id":34785,"country":"West Bank"},{"id":34786,"country":"Egypt","longitude":"31.2053","city":"Qalyub, Al Qalyūbīyah","latitude":"30.1997"},{"longitude":"97.1700","id":34787,"city":"Qamdo, Tibet","country":"China","latitude":"31.1430"},{"country":"Libya","longitude":"20.0144","latitude":"31.6572","city":"Qaminis, Banghāzī","id":34788},{"longitude":"35.2992","id":34789,"country":"Lebanon","city":"Qana, Liban-Sud","latitude":"33.2092"},{"city":"Qandala, Bari","country":"Somalia","latitude":"11.4711","longitude":"49.8739","id":34790},{"longitude":"59.0000","latitude":"42.8333","country":"Uzbekistan","id":34791,"city":"Qanliko`l, Qoraqalpog‘iston"},{"latitude":"30.8000","longitude":"31.8333","id":34792,"country":"Egypt","city":"Qantir, Ash Sharqīyah"},{"longitude":"81.1581","country":"China","city":"Qapqal, Xinjiang","id":34793,"latitude":"43.8340"},{"longitude":"77.0687","country":"Kazakhstan","city":"Qapshaghay, Almaty","id":34794,"latitude":"43.8844"},{"id":34795,"city":"Qaqortoq, Kujalleq","country":"Greenland","latitude":"60.7222","longitude":"-46.0403"},{"city":"Qara, Al Jawf","latitude":"29.8833","country":"Saudi Arabia","id":34796,"longitude":"40.2167"},{"longitude":"62.0502","city":"Qarabalyq, Qostanay","country":"Kazakhstan","latitude":"53.7506","id":34797},{"city":"Qarabulaq, Türkistan","id":34798,"longitude":"69.8000","latitude":"42.5167","country":"Kazakhstan"},{"longitude":"78.4922","city":"Qarabulaq, Zhetisū","id":34799,"country":"Kazakhstan","latitude":"44.9089"},{"city":"Qaracuxur, Bakı","country":"Azerbaijan","latitude":"40.3967","longitude":"49.9736","id":34800},{"country":"Kazakhstan","city":"Qaraghandy, Qaraghandy","latitude":"49.8028","longitude":"73.1056","id":34801},{"id":34802,"latitude":"38.8900","city":"Qarah Zia' od Din, Āz̄arbāyjān-e Gharbī","country":"Iran","longitude":"45.0283"},{"country":"Syria","id":34803,"latitude":"34.1542","longitude":"36.7442","city":"Qarah, Rīf Dimashq"},{"latitude":"43.1667","city":"Qaratau, Zhambyl","country":"Kazakhstan","longitude":"70.4500","id":34804},{"id":34805,"longitude":"68.2833","country":"Tajikistan","city":"Qaratog, Nohiyahoi Tobei Jumhurí","latitude":"38.5500"},{"latitude":"48.0253","id":34806,"longitude":"70.7999","city":"Qarazhal, Ulytaū","country":"Kazakhstan"},{"longitude":"51.5842","id":34807,"city":"Qarchak, Tehrān","latitude":"35.4267","country":"Iran"},{"city":"Qardho, Bari","longitude":"49.0833","country":"Somalia","latitude":"9.5000","id":34808},{"latitude":"36.4917","id":34809,"city":"Qari Kola-ye Arateh, Māzandarān","longitude":"52.9531","country":"Iran"},{"country":"China","latitude":"38.1338","id":34810,"longitude":"85.5333","city":"Qarqan, Xinjiang"},{"latitude":"49.4167","id":34811,"country":"Kazakhstan","city":"Qarqaraly, Qaraghandy","longitude":"75.4167"},{"country":"Afghanistan","longitude":"66.0472","id":34812,"city":"Qarqin, Jowzjān","latitude":"37.4128"},{"id":34813,"city":"Qarshi, Qashqadaryo","latitude":"38.8667","country":"Uzbekistan","longitude":"65.8000"},{"city":"Qaryat Suluq, Banghāzī","latitude":"31.6686","id":34814,"country":"Libya","longitude":"20.2503"},{"id":34815,"city":"Qaryat al Qi`an, Nālūt","latitude":"32.0167","country":"Libya","longitude":"11.5000"},{"longitude":"-6.2667","latitude":"32.6000","country":"Morocco","city":"Qasbat Tadla, Béni Mellal-Khénifra","id":34816},{"id":34817,"country":"Kazakhstan","longitude":"76.0900","city":"Qashyr, Pavlodar","latitude":"53.0804"},{"country":"Greenland","id":34818,"longitude":"-51.1932","latitude":"68.8201","city":"Qasigiannguit, Qeqertalik"},{"city":"Qaskeleng, Almaty","country":"Kazakhstan","latitude":"43.2000","longitude":"76.6200","id":34819},{"country":"Egypt","longitude":"27.9700","city":"Qasr al Farafirah, Al Wādī al Jadīd","latitude":"27.0583","id":34820},{"country":"Libya","latitude":"32.7500","city":"Qasr al Qarabulli, Ţarābulus","longitude":"13.7167","id":34821},{"latitude":"26.2356","id":34822,"city":"Qasr-e Qand, Sīstān va Balūchestān","longitude":"60.7408","country":"Iran"},{"city":"Qasr-e Qomsheh, Fārs","latitude":"29.7756","longitude":"52.4417","country":"Iran","id":34823},{"city":"Qasr-e Shirin, Kermānshāh","country":"Iran","id":34824,"longitude":"45.5772","latitude":"34.5158"},{"latitude":"33.4333","country":"Syria","city":"Qatana, Rīf Dimashq","longitude":"36.0833","id":34825},{"latitude":"28.7733","country":"India","city":"Qatlupur, Delhi","id":34826,"longitude":"77.1593"},{"city":"Qax, Qax","country":"Azerbaijan","longitude":"46.9242","id":34827,"latitude":"41.4225"},{"longitude":"62.1000","latitude":"45.7667","city":"Qazaly, Qyzylorda","country":"Kazakhstan","id":34828},{"country":"Azerbaijan","latitude":"41.0933","longitude":"45.3661","id":34829,"city":"Qazax, Qazax"},{"country":"Pakistan","latitude":"26.4083","city":"Qazi Ahmad, Sindh","id":34830,"longitude":"68.1564"},{"id":34831,"longitude":"75.1654","latitude":"33.5921","country":"India","city":"Qazigund, Jammu and Kashmīr"},{"id":34832,"country":"Azerbaijan","longitude":"47.8458","latitude":"40.9814","city":"Qazmalar, Qəbələ"},{"id":34833,"latitude":"36.2894","longitude":"50.0086","country":"Iran","city":"Qazvin, Qazvīn"},{"id":34834,"longitude":"47.6767","latitude":"40.4425","city":"Qazyan, Ucar","country":"Azerbaijan"},{"city":"Qazyqurt, Türkistan","latitude":"41.7598","country":"Kazakhstan","id":34835,"longitude":"69.3880"},{"country":"Iran","id":34836,"latitude":"26.9494","city":"Qeshm, Hormozgān","longitude":"56.2681"},{"longitude":"77.3399","city":"Qia'erbagecun, Xinjiang","country":"China","id":34837,"latitude":"37.9724"},{"longitude":"118.7010","id":34838,"latitude":"39.9990","country":"China","city":"Qian'an, Hebei"},{"latitude":"23.6157","id":34839,"city":"Qianjiang Shequ, Guangxi","country":"China","longitude":"108.9603"},{"city":"Qianshanhong Nongchang, Hunan","longitude":"112.4347","country":"China","latitude":"29.1442","id":34840},{"country":"China","longitude":"116.9150","id":34841,"city":"Qiantangcun, Guangdong","latitude":"23.6742"},{"latitude":"29.2283","id":34842,"longitude":"121.3483","country":"China","city":"Qianwangcun, Zhejiang"},{"id":34843,"city":"Qianwu, Guangdong","country":"China","latitude":"22.1635","longitude":"113.2217"},{"city":"Qianxi, Guizhou","country":"China","latitude":"27.0087","longitude":"106.0323","id":34844},{"latitude":"37.8360","longitude":"116.6708","id":34845,"city":"Qianxucun, Shandong","country":"China"},{"id":34846,"longitude":"109.7120","country":"China","latitude":"28.2760","city":"Qianzhou, Hunan"},{"latitude":"39.7866","country":"China","longitude":"113.8239","city":"Qiaomaichuan, Shanxi","id":34847},{"longitude":"101.6736","country":"China","city":"Qiaotou, Qinghai","latitude":"36.9350","id":34848},{"latitude":"33.8116","id":34849,"longitude":"104.8493","country":"China","city":"Qiaotouba, Gansu"},{"latitude":"28.4114","longitude":"112.9270","country":"China","city":"Qiaotouyi, Hunan","id":34850},{"id":34851,"longitude":"104.1846","city":"Qiaoyang, Gansu","latitude":"35.0716","country":"China"},{"city":"Qiblai, Nohiyahoi Tobei Jumhurí","country":"Tajikistan","id":34852,"longitude":"68.8333","latitude":"38.6167"},{"id":34853,"city":"Qibray, Toshkent","longitude":"69.4650","country":"Uzbekistan","latitude":"41.3897"},{"country":"Egypt","longitude":"32.8158","id":34854,"latitude":"25.9956","city":"Qift, Qinā"},{"country":"China","city":"Qigexingcun, Xinjiang","latitude":"42.0200","longitude":"86.3031","id":34855},{"country":"Egypt","longitude":"30.8546","id":34856,"city":"Qillin, Kafr ash Shaykh","latitude":"31.0464"},{"longitude":"27.6319","country":"Lesotho","latitude":"-29.3625","id":34857,"city":"Qiloane, Maseru"},{"id":34858,"city":"Qiman al `Arus, Banī Suwayf","latitude":"29.3005","longitude":"31.1683","country":"Egypt"},{"latitude":"26.1667","id":34859,"longitude":"32.7167","city":"Qina, Qinā","country":"Egypt"},{"id":34860,"latitude":"35.7278","longitude":"107.6400","country":"China","city":"Qinbaling, Gansu"},{"longitude":"105.7311","latitude":"34.5809","country":"China","id":34861,"city":"Qincheng, Gansu"},{"latitude":"46.8719","country":"China","id":34862,"city":"Qingan, Heilongjiang","longitude":"127.5118"},{"longitude":"120.3827","country":"China","city":"Qingdao, Shandong","latitude":"36.0669","id":34863},{"id":34864,"country":"China","longitude":"126.1000","city":"Qinggang, Heilongjiang","latitude":"46.6900"},{"city":"Qingnian, Shandong","id":34865,"longitude":"115.7061","latitude":"36.8494","country":"China"},{"city":"Qingping, Henan","id":34866,"country":"China","latitude":"34.5390","longitude":"113.3910"},{"city":"Qingquan, Gansu","longitude":"101.0826","id":34867,"country":"China","latitude":"38.7823"},{"country":"China","id":34868,"city":"Qingshan, Yunnan","longitude":"105.0200","latitude":"27.3500"},{"country":"China","longitude":"116.5904","latitude":"24.5300","city":"Qingxicun, Guangdong","id":34869},{"longitude":"118.5517","id":34870,"latitude":"24.7816","country":"China","city":"Qingyang, Fujian"},{"longitude":"113.4313","id":34871,"latitude":"36.1985","city":"Qingyang, Shanxi","country":"China"},{"id":34872,"country":"China","longitude":"113.0560","city":"Qingyuan, Guangdong","latitude":"23.6820"},{"city":"Qingyuan, Guangxi","country":"China","latitude":"24.5004","id":34873,"longitude":"108.6667"},{"latitude":"26.5704","longitude":"106.4687","id":34874,"country":"China","city":"Qingzhen, Guizhou"},{"id":34875,"city":"Qingzhou, Shandong","longitude":"118.4796","country":"China","latitude":"36.6853"},{"country":"China","city":"Qinhe, Shanxi","latitude":"36.5014","longitude":"112.3247","id":34876},{"longitude":"119.5202","latitude":"39.8882","id":34877,"city":"Qinhuangdao, Hebei","country":"China"},{"country":"China","latitude":"21.9810","longitude":"108.6540","city":"Qinzhou, Guangxi","id":34878},{"country":"China","id":34879,"latitude":"28.9450","longitude":"112.5980","city":"Qionghu, Hunan"},{"country":"China","latitude":"47.3549","longitude":"123.9182","city":"Qiqihar, Heilongjiang","id":34880},{"country":"Israel","id":34881,"longitude":"35.1000","city":"Qiryat Ata, Haifa","latitude":"32.8000"},{"longitude":"35.0833","id":34882,"latitude":"32.8333","country":"Israel","city":"Qiryat Bialik, Haifa"},{"longitude":"34.7717","id":34883,"country":"Israel","city":"Qiryat Gat, Southern","latitude":"31.6061"},{"latitude":"31.7292","id":34884,"longitude":"34.7461","country":"Israel","city":"Qiryat Mal'akhi, Southern"},{"latitude":"32.8333","city":"Qiryat Mozqin, Haifa","country":"Israel","longitude":"35.0833","id":34885},{"country":"Israel","longitude":"34.8553","city":"Qiryat Ono, Tel Aviv","latitude":"32.0636","id":34886},{"longitude":"35.5697","id":34887,"city":"Qiryat Shemona, Northern","latitude":"33.2075","country":"Israel"},{"city":"Qiryat Yam, Haifa","id":34888,"longitude":"35.0667","country":"Israel","latitude":"32.8333"},{"latitude":"24.9232","city":"Qishe, Guizhou","longitude":"104.7218","country":"China","id":34889},{"city":"Qitai, Inner Mongolia","latitude":"41.5494","id":34890,"country":"China","longitude":"113.5339"},{"longitude":"104.8983","city":"Qiushanxiang, Gansu","id":34891,"latitude":"34.3562","country":"China"},{"longitude":"45.1131","city":"Qivraq, Kəngərli","country":"Azerbaijan","id":34892,"latitude":"39.3997"},{"country":"Azerbaijan","latitude":"40.5808","longitude":"46.8503","city":"Qizilhacili, Goranboy","id":34893},{"city":"Qiziltepa, Navoiy","id":34894,"country":"Uzbekistan","latitude":"40.0361","longitude":"64.8503"},{"latitude":"41.5333","longitude":"60.3500","country":"Uzbekistan","id":34895,"city":"Qo'shko'pir, Xorazm"},{"country":"Uzbekistan","latitude":"43.0497","longitude":"58.8542","city":"Qo`ng`irot Shahri, Qoraqalpog‘iston","id":34896},{"city":"Qo`qon, Farg‘ona","id":34897,"latitude":"40.5286","longitude":"70.9425","country":"Uzbekistan"},{"city":"Qo`rg`ontepa, Andijon","country":"Uzbekistan","longitude":"72.7583","latitude":"40.7336","id":34898},{"longitude":"49.4158","city":"Qobustan, Bakı","country":"Azerbaijan","id":34899,"latitude":"40.0842"},{"country":"Azerbaijan","latitude":"40.5367","id":34900,"longitude":"48.9328","city":"Qobustan, Qobustan"},{"city":"Qom, Qom","longitude":"50.8764","country":"Iran","id":34901,"latitude":"34.6400"},{"id":34902,"city":"Qoorlugud, Togdheer","country":"Somalia","latitude":"8.5500","longitude":"46.2333"},{"id":34903,"city":"Qorako`l Shahri, Buxoro","country":"Uzbekistan","latitude":"39.5028","longitude":"63.8556"},{"latitude":"43.0275","longitude":"60.0125","id":34904,"country":"Uzbekistan","city":"Qorao`zak, Qoraqalpog‘iston"},{"longitude":"66.5619","city":"Qorashina, Qashqadaryo","id":34905,"latitude":"38.3394","country":"Uzbekistan"},{"longitude":"72.8872","country":"Uzbekistan","latitude":"40.7222","city":"Qorasuv, Andijon","id":34906},{"longitude":"14.4722","city":"Qormi, Qormi","id":34907,"latitude":"35.8794","country":"Malta"},{"country":"Lebanon","latitude":"33.9200","city":"Qornet Chahouane, Mont-Liban","longitude":"35.6700","id":34908},{"longitude":"60.5914","country":"Uzbekistan","latitude":"41.5569","id":34909,"city":"Qorovul, Xorazm"},{"city":"Qorovulbozor, Buxoro","longitude":"64.8000","id":34910,"latitude":"39.5000","country":"Uzbekistan"},{"city":"Qorveh, Kordestān","latitude":"35.1678","id":34911,"longitude":"47.8008","country":"Iran"},{"latitude":"1.7833","longitude":"44.5333","id":34912,"city":"Qoryooley, Shabeellaha Hoose","country":"Somalia"},{"country":"Kazakhstan","id":34913,"latitude":"53.2000","city":"Qostanay, Qostanay","longitude":"63.6200"},{"city":"Qoubaiyat, Aakkâr","country":"Lebanon","latitude":"34.5683","id":34914,"longitude":"36.2764"},{"country":"Azerbaijan","id":34915,"latitude":"40.9419","city":"Qovlar, Tovuz","longitude":"45.7358"},{"country":"Malta","latitude":"35.8342","city":"Qrendi, Qrendi","id":34916,"longitude":"14.4589"},{"id":34917,"latitude":"52.6772","longitude":"7.9575","city":"Quakenbruck, Lower Saxony","country":"Germany"},{"city":"Quakers Hill, New South Wales","id":34918,"country":"Australia","longitude":"150.8778","latitude":"-33.7361"},{"longitude":"-75° 22' 19\"","latitude":" 40° 27' 55\"","id":34919,"country":"United States","city":"Quakertown, Pennsylvania"},{"country":"Italy","latitude":"40.9167","id":34920,"city":"Qualiano, Campania","longitude":"14.1500"},{"country":"Canada","latitude":"49.3500","longitude":"-124.4333","id":34921,"city":"Qualicum Beach, British Columbia"},{"country":"China","longitude":"114.2646","city":"Quan'ancun, Guangdong","id":34922,"latitude":"25.1345"},{"id":34923,"country":"Vietnam","city":"Quang Ha, Quảng Nam","latitude":"15.9333","longitude":"108.2667"},{"longitude":"108.8000","id":34924,"latitude":"15.1167","country":"Vietnam","city":"Quang Ngai, Quảng Ngãi"},{"city":"Quang Tri, Quảng Trị","country":"Vietnam","latitude":"16.7469","longitude":"107.1940","id":34925},{"longitude":"106.8330","id":34926,"city":"Quang Yen, Quảng Ninh","latitude":"20.9170","country":"Vietnam"},{"latitude":"35.6613","city":"Quanzhang, Shanxi","longitude":"111.1049","id":34927,"country":"China"},{"country":"China","latitude":"24.8744","longitude":"118.6757","city":"Quanzhou, Fujian","id":34928},{"id":34929,"city":"Quarai, Rio Grande do Sul","latitude":"-30.3875","country":"Brazil","longitude":"-56.4514"},{"city":"Quaregnon, Wallonia","country":"Belgium","latitude":"50.4333","id":34930,"longitude":"3.8500"},{"id":34931,"longitude":"10.9833","city":"Quarrata, Tuscany","country":"Italy","latitude":"43.8475"},{"country":"Portugal","id":34932,"longitude":"-8.1030","city":"Quarteira, Faro","latitude":"37.0690"},{"city":"Quartier Militaire, Moka","country":"Mauritius","longitude":"57.5500","id":34933,"latitude":"-20.2500"},{"longitude":"-72.1500","id":34934,"latitude":"19.7000","country":"Haiti","city":"Quartier Morin, Nord"},{"longitude":"9.1833","latitude":"39.2333","id":34935,"city":"Quartu Sant'Elena, Sardegna","country":"Italy"},{"latitude":"39.2528","longitude":"9.1778","id":34936,"city":"Quartucciu, Sardegna","country":"Italy"},{"country":"United States","latitude":"34.6527","city":"Quartz Hill, California","longitude":"-118.2163","id":34937},{"country":"Brazil","city":"Quata, São Paulo","longitude":"-50.6983","id":34938,"latitude":"-22.2475"},{"latitude":"-0.8667","country":"Brazil","city":"Quatipuru, Pará","id":34939,"longitude":"-46.9833"},{"id":34940,"country":"Brazil","city":"Quatis, Rio de Janeiro","longitude":"-44.2578","latitude":"-22.4069"},{"city":"Quatre Bornes, Plaines Wilhems","latitude":"-20.2654","id":34941,"country":"Mauritius","longitude":"57.4791"},{"latitude":"-25.3667","country":"Brazil","id":34942,"city":"Quatro Barras, Paraná","longitude":"-49.0833"},{"id":34943,"latitude":"44.6333","city":"Quattro Castella, Emilia-Romagna","longitude":"10.4667","country":"Italy"},{"country":"Azerbaijan","longitude":"48.5125","id":34944,"latitude":"41.3597","city":"Quba, Quba"},{"city":"Qubadli, Qubadlı","latitude":"39.3439","country":"Azerbaijan","id":34945,"longitude":"46.5797"},{"latitude":"37.1060","longitude":"58.5095","city":"Quchan, Khorāsān-e Raẕavī","country":"Iran","id":34946},{"id":34947,"country":"Australia","city":"Queanbeyan, New South Wales","latitude":"-35.3533","longitude":"149.2342"},{"longitude":"-71.2081","city":"Quebec City, Quebec","id":34948,"latitude":"46.8139","country":"Canada"},{"city":"Quebec, Quebec","latitude":" 46° 45' 00\"","id":34949,"country":"Canada","longitude":"-71° 10' 12\""},{"id":34950,"city":"Quebrangulo, Alagoas","country":"Brazil","longitude":"-36.4710","latitude":"-9.3190"},{"city":"Quedgeley, Gloucestershire","latitude":"51.8250","id":34951,"longitude":"-2.2800","country":"United Kingdom"},{"id":34952,"country":"Germany","longitude":"11.1472","city":"Quedlinburg, Saxony-Anhalt","latitude":"51.7917"},{"latitude":"33.2454","longitude":"-111.6173","id":34953,"city":"Queen Creek, Arizona","country":"United States"},{"country":"United States","city":"Queens, New York","longitude":"-73.7976","latitude":"40.7498","id":34954},{"id":34955,"country":"Canada","longitude":"-64.7167","city":"Queens, Nova Scotia","latitude":"44.0333"},{"city":"Queensburgh, KwaZulu-Natal","id":34956,"latitude":"-29.8667","country":"South Africa","longitude":"30.9333"},{"longitude":"-1.8453","country":"United Kingdom","latitude":"53.7683","id":34957,"city":"Queensbury, Calderdale"},{"city":"Queensbury, New York","latitude":"43.3568","longitude":"-73.6765","id":34958,"country":"United States"},{"latitude":"55.9900","city":"Queensferry, Edinburgh","country":"United Kingdom","id":34959,"longitude":"-3.3980"},{"country":"South Africa","city":"Queenstown, Eastern Cape","longitude":"26.8833","id":34960,"latitude":"-31.9000"},{"country":"Australia","longitude":"145.5556","latitude":"-42.0806","id":34961,"city":"Queenstown, Tasmania"},{"city":"Queimada Nova, Piauí","latitude":"-8.5789","longitude":"-41.4189","country":"Brazil","id":34962},{"city":"Queimadas, Bahia","longitude":"-39.6239","latitude":"-10.9778","country":"Brazil","id":34963},{"latitude":"-9.3833","id":34964,"city":"Quela, Malanje","longitude":"17.0500","country":"Angola"},{"country":"Mozambique","longitude":"36.8872","latitude":"-17.8764","city":"Quelimane, Zambézia","id":34965},{"country":"Chile","city":"Quellon, Los Lagos","id":34966,"longitude":"-73.5961","latitude":"-43.0992"},{"id":34967,"latitude":"38.7514","longitude":"-9.2664","country":"Portugal","city":"Queluz, Lisboa"},{"country":"Brazil","city":"Queluz, São Paulo","id":34968,"latitude":"-22.5372","longitude":"-44.7742"},{"latitude":"22.7900","country":"Cuba","city":"Quemado de Guines, Villa Clara","id":34969,"longitude":"-80.2561"},{"longitude":"-84.1387","latitude":"9.4571","id":34970,"city":"Quepos, Puntarenas","country":"Costa Rica"},{"city":"Querencia do Norte, Paraná","latitude":"-23.0000","longitude":"-53.4667","country":"Brazil","id":34971},{"latitude":"20.5875","longitude":"-100.3928","city":"Queretaro, Querétaro","country":"Mexico","id":34972},{"country":"Germany","latitude":"51.3833","city":"Querfurt, Saxony-Anhalt","id":34973,"longitude":"11.6000"},{"longitude":"-84.4199","city":"Quesada, Alajuela","country":"Costa Rica","id":34974,"latitude":"10.3441"},{"id":34975,"longitude":"-90.0333","country":"Guatemala","city":"Quesada, Jutiapa","latitude":"14.2667"},{"latitude":" 53° 00' 00\"","id":34976,"country":"Canada","city":"Quesnel, British Columbia","longitude":"-122° 30' 00\""},{"id":34977,"longitude":"5.1069","country":"France","city":"Quetigny, Bourgogne-Franche-Comté","latitude":"47.3153"},{"longitude":"67.0000","id":34978,"country":"Pakistan","city":"Quetta, Balochistan","latitude":"30.1833"},{"country":"Guatemala","latitude":"14.8333","city":"Quetzaltenango, Quetzaltenango","id":34979,"longitude":"-91.5167"},{"id":34980,"country":"Ecuador","longitude":"-79.4500","city":"Quevedo, Los Ríos","latitude":"-1.0333"},{"city":"Queven, Bretagne","country":"France","latitude":"47.7894","longitude":"-3.4139","id":34981},{"longitude":"-86.9033","country":"Nicaragua","latitude":"12.5061","id":34982,"city":"Quezalguaque, León"},{"latitude":"14.6333","city":"Quezaltepeque, Chiquimula","longitude":"-89.4500","id":34983,"country":"Guatemala"},{"country":"El Salvador","latitude":"13.8333","id":34984,"longitude":"-89.2667","city":"Quezaltepeque, La Libertad"},{"latitude":"14.6500","longitude":"121.0475","id":34985,"city":"Quezon City, Quezon","country":"Philippines"},{"city":"Quezon, Bukidnon","latitude":"7.7306","country":"Philippines","longitude":"125.1000","id":34986},{"id":34987,"city":"Quezon, Isabela","latitude":"17.3119","longitude":"121.6050","country":"Philippines"},{"longitude":"120.8111","id":34988,"country":"Philippines","city":"Quezon, Nueva Ecija","latitude":"15.5542"},{"longitude":"121.2639","id":34989,"country":"Philippines","city":"Quezon, Nueva Vizcaya","latitude":"16.4894"},{"latitude":"9.2350","country":"Philippines","city":"Quezon, Palawan","longitude":"117.9967","id":34990},{"country":"Philippines","latitude":"14.0500","id":34991,"longitude":"122.1300","city":"Quezon, Quezon"},{"country":"Egypt","city":"Qufadah, Al Minyā","longitude":"30.7554","id":34992,"latitude":"28.5812"},{"latitude":"35.5819","id":34993,"city":"Qufu, Shandong","longitude":"116.9862","country":"China"},{"id":34994,"country":"Philippines","latitude":"14.6000","longitude":"120.9830","city":"Quiapo, Manila"},{"country":"Angola","city":"Quibala, Cuanza-Sul","latitude":"-10.7333","longitude":"14.9833","id":34995},{"longitude":"14.5833","id":34996,"latitude":"-8.5000","country":"Angola","city":"Quibaxi, Bengo"},{"city":"Quibdo, Chocó","id":34997,"country":"Colombia","longitude":"-76.6581","latitude":"5.6922"},{"city":"Quibor, Lara","latitude":"9.9311","longitude":"-69.6247","id":34998,"country":"Venezuela"},{"longitude":"15.3167","city":"Quiculungo, Cuanza-Norte","id":34999,"latitude":"-8.5167","country":"Angola"},{"longitude":"7.0333","country":"Germany","id":35000,"city":"Quierschied, Saarland","latitude":"49.3167"},{"id":35001,"city":"Quiindy, Paraguarí","country":"Paraguay","latitude":"-25.9730","longitude":"-57.2370"},{"longitude":"-39.2000","id":35002,"latitude":"-10.7500","city":"Quijingue, Bahia","country":"Brazil"},{"city":"Quilali, Nueva Segovia","latitude":"13.5667","id":35003,"longitude":"-86.0333","country":"Nicaragua"},{"longitude":"75.6950","latitude":"11.4390","country":"India","city":"Quilandi, Kerala","id":35004},{"city":"Quilenda, Cuanza-Sul","latitude":"-10.6333","country":"Angola","longitude":"14.3333","id":35005},{"country":"Angola","latitude":"-14.0814","longitude":"14.0931","city":"Quilengues, Huíla","id":35006},{"country":"Angola","latitude":"-7.6167","longitude":"15.0500","city":"Quilevo, Uíge","id":35007},{"id":35008,"city":"Quilicura, Región Metropolitana","country":"Chile","latitude":"-33.3667","longitude":"-70.7333"},{"latitude":"-12.8681","city":"Quillabamba, Cusco","longitude":"-72.6931","id":35009,"country":"Peru"},{"latitude":"-17.4000","city":"Quillacollo, Cochabamba","country":"Bolivia","longitude":"-66.2833","id":35010},{"longitude":"-71.2500","id":35011,"city":"Quillota, Valparaíso","country":"Chile","latitude":"-32.8667"},{"latitude":"-34.7167","longitude":"-58.2667","id":35012,"country":"Argentina","city":"Quilmes, Buenos Aires"},{"longitude":"-52.7208","latitude":"-26.7258","city":"Quilombo, Santa Catarina","country":"Brazil","id":35013},{"id":35014,"latitude":"8.8932","country":"India","longitude":"76.6141","city":"Quilon, Kerala"},{"country":"Australia","longitude":"144.2675","city":"Quilpie, Queensland","id":35015,"latitude":"-26.6161"},{"country":"Chile","longitude":"-71.4500","id":35016,"city":"Quilpue, Valparaíso","latitude":"-33.0500"},{"latitude":"-7.6200","id":35017,"longitude":"13.0300","country":"Angola","city":"Quimavango, Zaire"},{"longitude":"-75.7500","country":"Colombia","city":"Quimbaya, Quindío","latitude":"4.6333","id":35018},{"latitude":"-6.5167","country":"Angola","city":"Quimbele, Uíge","longitude":"16.2167","id":35019},{"country":"Bolivia","latitude":"-16.9817","longitude":"-67.2167","id":35020,"city":"Quime, La Paz"},{"longitude":"-62.4167","city":"Quimili, Santiago del Estero","country":"Argentina","latitude":"-27.6333","id":35021},{"id":35022,"latitude":"47.9967","longitude":"-4.0964","country":"France","city":"Quimper, Bretagne"},{"latitude":"47.8736","country":"France","city":"Quimperle, Bretagne","longitude":"-3.5486","id":35023},{"country":"Philippines","latitude":"11.1578","id":35024,"longitude":"125.5208","city":"Quinapundan, Eastern Samar"},{"longitude":"-75.7296","country":"Colombia","city":"Quinchia, Risaralda","id":35025,"latitude":"5.3379"},{"city":"Quincy, Illinois","country":"United States","longitude":"-91.3799","latitude":"39.9336","id":35026},{"longitude":"-71° 00' 06\"","city":"Quincy, Massachusetts","id":35027,"latitude":" 42° 15' 06\"","country":"United States"},{"longitude":"2.5407","city":"Quincy-sous-Senart, Île-de-France","latitude":"48.6714","country":"France","id":35028},{"id":35029,"city":"Quinhamel, Biombo","longitude":"-15.8500","country":"Guinea-Bissau","latitude":"11.8833"},{"latitude":"-34.3547","country":"Chile","city":"Quinta de Tilcoco, Libertador General Bernardo O’Higgins","longitude":"-70.9636","id":35030},{"id":35031,"longitude":"-3.0428","latitude":"39.5906","city":"Quintanar de la Orden, Castille-La Mancha","country":"Spain"},{"country":"Canada","id":35032,"city":"Quinte West, Ontario","latitude":"44.1833","longitude":"-77.5667"},{"city":"Quintero, Valparaíso","id":35033,"latitude":"-32.7833","longitude":"-71.5333","country":"Chile"},{"longitude":"12.1667","country":"Italy","latitude":"45.6500","id":35034,"city":"Quinto di Treviso, Veneto"},{"id":35035,"city":"Quipapa, Pernambuco","country":"Brazil","latitude":"-8.8333","longitude":"-36.0333"},{"city":"Quipungo, Huíla","country":"Angola","latitude":"-14.8167","longitude":"14.5500","id":35036},{"city":"Quirihue, Ñuble","id":35037,"country":"Chile","latitude":"-36.2833","longitude":"-72.5333"},{"latitude":"-10.9000","city":"Quirima, Malanje","longitude":"18.0833","country":"Angola","id":35038},{"id":35039,"country":"Philippines","longitude":"120.6764","city":"Quirino, Ilocos Sur","latitude":"17.1383"},{"latitude":"17.1356","country":"Philippines","id":35040,"city":"Quirino, Isabela","longitude":"121.7350"},{"latitude":"-18.4481","longitude":"-50.4464","id":35041,"city":"Quirinopolis, Goiás","country":"Brazil"},{"city":"Quiroga, Michoacán","longitude":"-101.5333","id":35042,"country":"Mexico","latitude":"19.6667"},{"latitude":"45.4322","id":35043,"longitude":"-65.9462","city":"Quispamsis, New Brunswick","country":"Canada"},{"country":"Dominican Republic","latitude":"18.5542","longitude":"-69.4056","id":35044,"city":"Quisqueya, Higuamo"},{"city":"Quissama, Rio de Janeiro","latitude":"-22.1069","id":35045,"longitude":"-41.4719","country":"Brazil"},{"country":"Brazil","city":"Quitandinha, Paraná","longitude":"-49.4978","latitude":"-25.8719","id":35046},{"country":"Argentina","latitude":"-26.8667","city":"Quitilipi, Chaco","longitude":"-60.2167","id":35047},{"longitude":"-78.5125","city":"Quito, Pichincha","latitude":"-0.2200","country":"Ecuador","id":35048},{"longitude":"-82.3558","id":35049,"latitude":"22.8247","city":"Quivican, Mayabeque","country":"Cuba"},{"country":"Brazil","longitude":"-40.1278","id":35050,"latitude":"-11.4119","city":"Quixabeira, Bahia"},{"city":"Quixada, Ceará","latitude":"-4.9690","longitude":"-39.0130","country":"Brazil","id":35051},{"city":"Quixelo, Ceará","id":35052,"country":"Brazil","longitude":"-39.2019","latitude":"-6.2539"},{"longitude":"-39.2833","latitude":"-5.2000","city":"Quixeramobim, Ceará","country":"Brazil","id":35053},{"longitude":"-37.9833","id":35054,"city":"Quixere, Ceará","latitude":"-5.0833","country":"Brazil"},{"longitude":"103.7960","id":35055,"latitude":"25.4910","city":"Qujing, Yunnan","country":"China"},{"id":35056,"city":"Qujingpu, Ningxia","country":"China","longitude":"106.0489","latitude":"38.0814"},{"city":"Qulan, Zhambyl","country":"Kazakhstan","latitude":"42.9100","longitude":"72.7150","id":35057},{"longitude":"107.8022","id":35058,"country":"China","latitude":"22.5650","city":"Qulicun, Guangxi"},{"id":35059,"latitude":"46.9833","city":"Qulsary, Atyraū","country":"Kazakhstan","longitude":"54.0167"},{"latitude":"37.8278","country":"Uzbekistan","id":35060,"city":"Qumqo`rg`on, Surxondaryo","longitude":"67.5972"},{"longitude":"58.9067","latitude":"43.0758","city":"Qunghirot, Qoraqalpog‘iston","country":"Uzbekistan","id":35061},{"latitude":"23.3200","longitude":"58.9080","city":"Qurayyat, Masqaţ","country":"Oman","id":35062},{"id":35063,"city":"Qusar, Qusar","latitude":"41.4264","longitude":"48.4356","country":"Azerbaijan"},{"longitude":"64.6000","city":"Qusmuryn, Qostanay","latitude":"52.4580","country":"Kazakhstan","id":35064},{"city":"Quthing, Quthing","country":"Lesotho","latitude":"-30.4001","longitude":"27.7002","id":35065},{"longitude":"85.3684","city":"Qutubpur, Bihār","id":35066,"country":"India","latitude":"25.6279"},{"country":"Egypt","city":"Qutur, Al Gharbīyah","id":35067,"longitude":"30.9563","latitude":"30.9735"},{"id":35068,"city":"Quva, Farg‘ona","country":"Uzbekistan","latitude":"40.5247","longitude":"72.0700"},{"id":35069,"city":"Quvasoy, Farg‘ona","latitude":"40.3000","country":"Uzbekistan","longitude":"71.9667"},{"id":35070,"longitude":"109.2333","country":"Vietnam","city":"Quy Nhon, Bình Định","latitude":"13.7667"},{"longitude":"109.7008","city":"Quyang, Hunan","id":35071,"country":"China","latitude":"26.5755"},{"latitude":"40.1600","longitude":"47.1722","country":"Azerbaijan","city":"Quzanli, Ağdam","id":35072},{"country":"China","latitude":"28.9702","longitude":"118.8593","id":35073,"city":"Quzhou, Zhejiang"},{"country":"Kazakhstan","latitude":"44.8500","longitude":"65.5167","city":"Qyzylorda, Qyzylorda","id":35074},{"id":35075,"latitude":"28.3597","country":"Egypt","city":"Ra's Gharib, Al Baḩr al Aḩmar","longitude":"33.0775"},{"city":"Ra's al Khafji, Ash Sharqīyah","latitude":"28.4211","country":"Saudi Arabia","longitude":"48.4956","id":35076},{"country":"United Arab Emirates","latitude":"25.7667","id":35077,"city":"Ra's al Khaymah, Ra’s al Khaymah","longitude":"55.9500"},{"id":35078,"city":"Ra's al Ma`arrah, Rīf Dimashq","latitude":"34.0008","longitude":"36.5628","country":"Syria"},{"id":35079,"city":"Ra's al `Ayn, Al Ḩasakah","country":"Syria","latitude":"36.8503","longitude":"40.0706"},{"country":"Israel","latitude":"32.1833","longitude":"34.8667","id":35080,"city":"Ra`ananna, Central"},{"longitude":"24.4667","id":35081,"latitude":"64.6833","country":"Finland","city":"Raahe, Pohjois-Pohjanmaa"},{"city":"Raalte, Overijssel","country":"Netherlands","latitude":"52.3833","longitude":"6.2667","id":35082},{"id":35083,"longitude":"4.8667","latitude":"51.6833","city":"Raamsdonksveer, Noord-Brabant","country":"Netherlands"},{"id":35084,"country":"Indonesia","longitude":"118.7469","city":"Raba, Nusa Tenggara Barat","latitude":"-8.4614"},{"longitude":"32.7440","id":35085,"city":"Rabak, White Nile","country":"Sudan","latitude":"13.1850"},{"country":"Malta","id":35086,"city":"Rabat, Rabat","longitude":"14.3989","latitude":"35.8817"},{"latitude":"34.0209","id":35087,"country":"Morocco","longitude":"-6.8416","city":"Rabat, Rabat-Salé-Kénitra"},{"latitude":"-4.2000","longitude":"152.1833","city":"Rabaul, East New Britain","id":35088,"country":"Papua New Guinea"},{"longitude":"-90.4890","city":"Rabinal, Baja Verapaz","country":"Guatemala","id":35089,"latitude":"15.0680"},{"longitude":"-25.5861","city":"Rabo de Peixe, Azores","country":"Portugal","id":35090,"latitude":"37.8103"},{"city":"Rabor, Kermān","country":"Iran","id":35091,"latitude":"29.2903","longitude":"56.9133"},{"latitude":"38.6167","country":"Tajikistan","id":35092,"city":"Rabot, Nohiyahoi Tobei Jumhurí","longitude":"68.1833"},{"id":35093,"city":"Rabta, Bordj Bou Arréridj","country":"Algeria","longitude":"4.7500","latitude":"35.9167"},{"country":"Serbia","longitude":"20.9833","latitude":"44.2333","city":"Raca, Rača","id":35094},{"city":"Racale, Puglia","id":35095,"latitude":"39.9667","country":"Italy","longitude":"18.1000"},{"id":35096,"city":"Racconigi, Piedmont","country":"Italy","longitude":"7.6833","latitude":"44.7667"},{"longitude":"15.6812","latitude":"46.4529","country":"Slovenia","id":35097,"city":"Race, Rače-Fram"},{"city":"Raceland, Louisiana","latitude":"29.7282","country":"United States","longitude":"-90.6362","id":35098},{"longitude":"105.0833","country":"Vietnam","latitude":"10.0167","city":"Rach Gia, Kiến Giang","id":35099},{"latitude":"50.0833","longitude":"18.2333","country":"Poland","city":"Raciborz, Śląskie","id":35100},{"latitude":" 42° 43' 49\"","city":"Racine, Wisconsin","longitude":"-87° 47' 12\"","id":35101,"country":"United States"},{"id":35102,"latitude":"47.1608","longitude":"18.9456","city":"Rackeve, Pest","country":"Hungary"},{"id":35103,"longitude":"-67.5333","country":"Argentina","city":"Rada Tilly, Chubut","latitude":"-45.9333"},{"longitude":"44.8371","country":"Yemen","latitude":"14.4151","id":35104,"city":"Rada`, Al Bayḑā’"},{"city":"Radauti, Suceava","country":"Romania","latitude":"47.8425","id":35105,"longitude":"25.9192"},{"city":"Radcliff, Kentucky","longitude":"-85.9365","id":35106,"latitude":"37.8204","country":"United States"},{"country":"United Kingdom","latitude":"53.5615","id":35107,"longitude":"-2.3268","city":"Radcliffe, Bury"},{"longitude":"13.9167","country":"Germany","id":35108,"latitude":"51.1167","city":"Radeberg, Saxony"},{"city":"Radebeul, Saxony","latitude":"51.1000","country":"Germany","id":35109,"longitude":"13.6500"},{"latitude":"46.0658","city":"Radece, Radeče","longitude":"15.1728","country":"Slovenia","id":35110},{"id":35111,"city":"Radekhiv, Lvivska Oblast","country":"Ukraine","latitude":"50.2828","longitude":"24.6375"},{"city":"Radenci, Radenci","country":"Slovenia","longitude":"16.0453","id":35112,"latitude":"46.6428"},{"longitude":"10.2833","city":"Rades, Ben Arous","country":"Tunisia","latitude":"36.7667","id":35113},{"longitude":"7.3500","country":"Germany","city":"Radevormwald, North Rhine-Westphalia","latitude":"51.2000","id":35114},{"city":"Radford, Virginia","longitude":"-80.5587","id":35115,"country":"United States","latitude":"37.1229"},{"country":"India","longitude":"71.6000","id":35116,"latitude":"23.8300","city":"Radhanpur, Gujarāt"},{"latitude":" 53° 46' 59\"","id":35117,"country":"Canada","city":"Radisson, Quebec","longitude":"-77° 37' 01\""},{"id":35118,"city":"Radlett, Hertfordshire","latitude":"51.6850","longitude":"-0.3180","country":"United Kingdom"},{"latitude":"46.6152","id":35119,"longitude":"15.2264","city":"Radlje ob Dravi, Radlje ob Dravi","country":"Slovenia"},{"longitude":"25.9333","city":"Radnevo, Stara Zagora","id":35120,"country":"Bulgaria","latitude":"42.3000"},{"latitude":"40.0287","longitude":"-75.3675","id":35121,"country":"United States","city":"Radnor, Pennsylvania"},{"id":35122,"city":"Radolfzell am Bodensee, Baden-Württemberg","longitude":"8.9667","country":"Germany","latitude":"47.7333"},{"country":"Poland","latitude":"51.4036","longitude":"21.1567","id":35123,"city":"Radom, Mazowieckie"},{"longitude":"22.9500","id":35124,"country":"Bulgaria","city":"Radomir, Pernik","latitude":"42.5500"},{"latitude":"51.0667","longitude":"19.4500","city":"Radomsko, Łódzkie","id":35125,"country":"Poland"},{"latitude":"50.4947","id":35126,"longitude":"29.2333","city":"Radomyshl, Zhytomyrska Oblast","country":"Ukraine"},{"city":"Radovis, Radoviš","latitude":"41.6381","longitude":"22.4644","country":"North Macedonia","id":35127},{"country":"Slovenia","longitude":"14.1721","latitude":"46.3425","city":"Radovljica, Radovljica","id":35128},{"latitude":"51.2930","longitude":"-2.4480","id":35129,"country":"United Kingdom","city":"Radstock, Bath and North East Somerset"},{"longitude":"77.4667","latitude":"62.1333","country":"Russia","city":"Raduzhnyy, Khanty-Mansiyskiy Avtonomnyy Okrug-Yugra","id":35130},{"city":"Radviliskis, Radviliškis","country":"Lithuania","latitude":"55.8000","id":35131,"longitude":"23.5500"},{"country":"Ukraine","latitude":"50.1286","longitude":"25.2644","id":35132,"city":"Radyvyliv, Rivnenska Oblast"},{"longitude":"18.8833","id":35133,"latitude":"50.3833","city":"Radzionkow Nowy, Śląskie","country":"Poland"},{"latitude":"52.4167","city":"Radzymin, Mazowieckie","country":"Poland","longitude":"21.1833","id":35134},{"latitude":"51.7828","country":"Poland","longitude":"22.6242","city":"Radzyn Podlaski, Lubelskie","id":35135},{"longitude":"81.2403","city":"Rae Bareli, Uttar Pradesh","id":35136,"country":"India","latitude":"26.2236"},{"latitude":"50.6833","country":"Belgium","id":35137,"longitude":"6.1167","city":"Raeren, Wallonia"},{"country":"Germany","city":"Raesfeld, North Rhine-Westphalia","longitude":"6.8333","id":35138,"latitude":"51.7667"},{"latitude":"-34.7833","id":35139,"country":"Argentina","city":"Rafael Calzada, Buenos Aires","longitude":"-58.3667"},{"latitude":"-34.7167","country":"Argentina","city":"Rafael Castillo, Buenos Aires","longitude":"-58.6167","id":35140},{"country":"Mexico","id":35141,"longitude":"-97.0667","city":"Rafael Delgado, Veracruz","latitude":"18.8167"},{"latitude":"-31.2667","country":"Argentina","longitude":"-61.4833","id":35142,"city":"Rafaela, Santa Fe"},{"country":"Gaza Strip","city":"Rafah, ","id":35143,"latitude":"31.2725","longitude":"34.2586"},{"latitude":"31.2808","country":"Egypt","id":35144,"longitude":"34.2414","city":"Rafah, Shamāl Sīnā’"},{"country":"Central African Republic","latitude":"4.9731","id":35145,"city":"Rafai, Mbomou","longitude":"23.9319"},{"latitude":"-23.0117","longitude":"-47.5269","id":35146,"country":"Brazil","city":"Rafard, São Paulo"},{"city":"Rafelbunol, Valencia","latitude":"39.5922","longitude":"-0.3342","country":"Spain","id":35147},{"latitude":"37.4047","id":35148,"city":"Raffadali, Sicilia","country":"Italy","longitude":"13.5339"},{"id":35149,"latitude":"29.6386","city":"Rafha, Al Ḩudūd ash Shamālīyah","longitude":"43.5014","country":"Saudi Arabia"},{"longitude":"84.6500","id":35150,"city":"Rafiganj, Bihār","country":"India","latitude":"24.8200"},{"latitude":"38.0167","city":"Rafina, Attikí","longitude":"24.0000","id":35151,"country":"Greece"},{"city":"Rafsanjan, Kermān","latitude":"30.4111","country":"Iran","longitude":"55.9911","id":35152},{"country":"India","city":"Ragampet, Telangāna","latitude":"18.6383","longitude":"79.1441","id":35153},{"city":"Ragan Sur, Isabela","country":"Philippines","latitude":"17.3200","longitude":"121.7800","id":35154},{"latitude":"13.8217","id":35155,"longitude":"122.7897","country":"Philippines","city":"Ragay, Camarines Sur"},{"id":35156,"country":"India","city":"Raghogarh, Madhya Pradesh","longitude":"77.1986","latitude":"24.4442"},{"city":"Raghopur, Bihār","latitude":"26.1785","id":35157,"longitude":"86.0892","country":"India"},{"country":"India","latitude":"25.5323","city":"Raghopur, Bihār","longitude":"85.3809","id":35158},{"city":"Raghopur, Bihār","country":"India","longitude":"87.0080","id":35159,"latitude":"25.3180"},{"longitude":"88.2000","city":"Raghudebbati, West Bengal","id":35160,"country":"India","latitude":"22.5300"},{"country":"India","latitude":"26.1145","longitude":"87.1590","city":"Raghunathpur, Bihār","id":35161},{"city":"Raghunathpur, Bihār","country":"India","latitude":"25.8440","longitude":"86.9697","id":35162},{"city":"Raghunathpur, Bihār","latitude":"25.5615","country":"India","longitude":"84.3050","id":35163},{"city":"Raghunathpur, Bihār","country":"India","latitude":"26.6418","id":35164,"longitude":"84.8938"},{"city":"Raghunathpur, Bihār","longitude":"84.9211","latitude":"26.3448","country":"India","id":35165},{"longitude":"84.2753","id":35166,"country":"India","city":"Raghunathpur, Bihār","latitude":"26.0019"},{"longitude":"86.6700","id":35167,"latitude":"23.5500","city":"Raghunathpur, West Bengal","country":"India"},{"longitude":"14.7500","id":35168,"latitude":"36.9333","city":"Ragusa, Sicilia","country":"Italy"},{"city":"Raha Tiga, Sulawesi Tenggara","latitude":"-4.8311","id":35169,"longitude":"122.7239","country":"Indonesia"},{"longitude":"122.7209","city":"Raha, Sulawesi Tenggara","country":"Indonesia","latitude":"-4.8380","id":35170},{"latitude":"53.1000","country":"Belarus","longitude":"30.0500","id":35171,"city":"Rahachow, Homyel’skaya Voblasts’"},{"id":35172,"latitude":"24.8194","city":"Raharpur, Rājshāhi","longitude":"88.3250","country":"Bangladesh"},{"country":"Israel","id":35173,"city":"Rahat, Southern","latitude":"31.3925","longitude":"34.7544"},{"country":"India","latitude":"19.7167","longitude":"74.4833","id":35174,"city":"Rahata, Mahārāshtra"},{"longitude":"78.3700","city":"Rahatgarh, Madhya Pradesh","country":"India","latitude":"23.7800","id":35175},{"city":"Rahden, North Rhine-Westphalia","latitude":"52.4167","country":"Germany","longitude":"8.6167","id":35176},{"id":35177,"city":"Rahiar Kunchi, Bihār","country":"India","latitude":"25.8627","longitude":"86.0924"},{"id":35178,"country":"India","longitude":"86.0204","city":"Rahika, Bihār","latitude":"26.3803"},{"city":"Rahimpur, Bihār","country":"India","id":35179,"latitude":"25.4894","longitude":"86.4774"},{"id":35180,"longitude":"70.3000","latitude":"28.4200","country":"Pakistan","city":"Rahimyar Khan, Punjab"},{"longitude":"76.1191","city":"Rahon, Punjab","latitude":"31.0527","country":"India","id":35181},{"country":"Kosovo","city":"Rahovec, Rahovec","latitude":"42.3994","id":35182,"longitude":"20.6547"},{"id":35183,"latitude":"25.9213","city":"Rahta, Bihār","country":"India","longitude":"86.9734"},{"country":"India","id":35184,"city":"Rahui, Bihār","longitude":"85.5555","latitude":"25.2728"},{"country":"India","id":35185,"latitude":"19.3800","longitude":"74.6500","city":"Rahuri, Mahārāshtra"},{"longitude":"-74.2807","id":35186,"latitude":"40.6077","country":"United States","city":"Rahway, New Jersey"},{"longitude":"73.8089","id":35187,"latitude":"15.4969","country":"India","city":"Raia, Goa"},{"id":35188,"longitude":"84.2963","country":"India","latitude":"27.0980","city":"Raibari Mahuawa, Bihār"},{"latitude":"25.9978","id":35189,"city":"Raibhir, Bihār","country":"India","longitude":"86.8781"},{"latitude":"16.2000","city":"Raichur, Karnātaka","id":35190,"country":"India","longitude":"77.3700"},{"id":35191,"latitude":"26.7800","city":"Raiganj Bazar, Uttar Pradesh","country":"India","longitude":"82.1430"},{"city":"Raiganj, West Bengal","latitude":"25.6200","longitude":"88.1200","id":35192,"country":"India"},{"latitude":"21.8974","id":35193,"longitude":"83.3950","country":"India","city":"Raigarh, Chhattīsgarh"},{"city":"Raikal, Telangāna","latitude":"18.9000","longitude":"78.8000","country":"India","id":35194},{"country":"India","id":35195,"longitude":"75.6000","latitude":"30.6500","city":"Raikot, Punjab"},{"city":"Rain, Bavaria","country":"Germany","id":35196,"latitude":"48.6833","longitude":"10.9167"},{"id":35197,"latitude":"33.9336","city":"Rainbow City, Alabama","longitude":"-86.0922","country":"United States"},{"country":"United Kingdom","latitude":"51.3600","longitude":"0.6100","city":"Rainham, Medway","id":35198},{"latitude":"53.4157","city":"Rainhill, St. Helens","country":"United Kingdom","longitude":"-2.7625","id":35199},{"country":"Canada","latitude":" 48° 43' 00\"","id":35200,"longitude":"-94° 34' 00\"","city":"Rainy River, Ontario"},{"city":"Raiparthi, Telangāna","longitude":"79.6081","country":"India","latitude":"17.7042","id":35201},{"latitude":"25.7118","id":35202,"longitude":"85.6956","city":"Raipur Buzurg, Bihār","country":"India"},{"country":"India","city":"Raipur, Bihār","latitude":"25.4226","longitude":"86.8498","id":35203},{"longitude":"81.6306","id":35204,"city":"Raipur, Chhattīsgarh","latitude":"21.2444","country":"India"},{"country":"India","latitude":"26.0500","longitude":"74.0200","id":35205,"city":"Raipur, Rājasthān"},{"id":35206,"country":"India","latitude":"32.7880","city":"Raipura, Jammu and Kashmīr","longitude":"74.7785"},{"country":"India","longitude":"87.0238","id":35207,"latitude":"26.1319","city":"Raisari, Bihār"},{"city":"Raisen, Madhya Pradesh","id":35208,"latitude":"23.3300","longitude":"77.8000","country":"India"},{"city":"Raisinghnagar, Rājasthān","country":"India","id":35209,"longitude":"73.4477","latitude":"29.5342"},{"longitude":"22.1692","city":"Raisio, Varsinais-Suomi","id":35210,"country":"Finland","latitude":"60.4858"},{"latitude":"50.3897","longitude":"3.4867","city":"Raismes, Hauts-de-France","country":"France","id":35211},{"city":"Raita, Himāchal Pradesh","country":"India","id":35212,"latitude":"32.5495","longitude":"76.2390"},{"id":35213,"longitude":"85.5366","city":"Raitar, Bihār","country":"India","latitude":"25.0577"},{"country":"India","latitude":"26.2702","longitude":"86.2071","city":"Raiyam, Bihār","id":35214},{"city":"Raja Pakar, Bihār","latitude":"25.7350","country":"India","longitude":"85.3376","id":35215},{"latitude":"16.9800","city":"Rajahmundry, Andhra Pradesh","longitude":"81.7800","id":35216,"country":"India"},{"longitude":"78.7852","city":"Rajakheri, Madhya Pradesh","country":"India","latitude":"23.8593","id":35217},{"country":"India","latitude":"28.0300","city":"Rajaldesar, Rājasthān","longitude":"74.4700","id":35218},{"id":35219,"city":"Rajanagaram, Andhra Pradesh","country":"India","latitude":"17.0833","longitude":"81.9000"},{"latitude":"33.3767","city":"Rajaori, Jammu and Kashmīr","country":"India","id":35220,"longitude":"74.3122"},{"id":35221,"longitude":"77.5800","latitude":"9.4204","city":"Rajapalaiyam, Tamil Nādu","country":"India"},{"city":"Rajapudi, Andhra Pradesh","country":"India","latitude":"17.1830","longitude":"82.0500","id":35222},{"id":35223,"city":"Rajapur, Mahārāshtra","latitude":"16.6700","longitude":"73.5200","country":"India"},{"latitude":"26.2861","longitude":"83.1306","id":35224,"city":"Rajapur, Uttar Pradesh","country":"India"},{"longitude":"79.0844","city":"Rajaram, Telangāna","country":"India","id":35225,"latitude":"18.9870"},{"country":"India","id":35226,"latitude":"17.8600","longitude":"76.9500","city":"Rajasur, Karnātaka"},{"id":35227,"longitude":"78.4223","city":"Rajaudha, Madhya Pradesh","country":"India","latitude":"26.7046"},{"country":"India","latitude":"24.6449","city":"Rajauli, Bihār","longitude":"85.5003","id":35228},{"latitude":"22.7758","country":"India","longitude":"88.0054","city":"Rajbalhai, West Bengal","id":35229},{"longitude":"86.1454","latitude":"26.2216","id":35230,"city":"Raje, Bihār","country":"India"},{"country":"India","latitude":"17.3198","id":35231,"city":"Rajendranagar, Telangāna","longitude":"78.4031"},{"country":"India","latitude":"25.5377","city":"Rajepur, Bihār","longitude":"85.6228","id":35232},{"id":35233,"longitude":"87.9333","city":"Rajgadh, ","latitude":"26.5000","country":"Nepal"},{"country":"India","latitude":"24.0300","city":"Rajgarh, Madhya Pradesh","longitude":"76.8800","id":35234},{"city":"Rajgarh, Madhya Pradesh","longitude":"74.9500","id":35235,"latitude":"22.6800","country":"India"},{"city":"Rajgarh, Rājasthān","longitude":"75.3800","country":"India","latitude":"28.6400","id":35236},{"country":"India","latitude":"27.2360","city":"Rajgarh, Rājasthān","longitude":"76.6220","id":35237},{"city":"Rajghat Garail, Bihār","latitude":"25.7618","id":35238,"longitude":"87.2126","country":"India"},{"latitude":"25.0300","country":"India","city":"Rajgir, Bihār","id":35239,"longitude":"85.4200"},{"country":"India","latitude":"25.7885","longitude":"86.4647","city":"Rajhanpur, Bihār","id":35240},{"latitude":"20.9650","id":35241,"country":"India","longitude":"81.8817","city":"Rajim, Chhattīsgarh"},{"id":35242,"country":"Korea","latitude":"42.3444","city":"Rajin, PRK","longitude":"130.3844"},{"longitude":"70.7833","country":"India","id":35243,"latitude":"22.3000","city":"Rajkot, Gujarāt"},{"id":35244,"country":"India","city":"Rajmahal, West Bengal","latitude":"25.0500","longitude":"87.8400"},{"latitude":"24.8893","longitude":"79.9118","city":"Rajnagar, Madhya Pradesh","country":"India","id":35245},{"city":"Rajnagar, West Bengal","country":"India","latitude":"23.9500","longitude":"87.3200","id":35246},{"country":"India","longitude":"86.9772","latitude":"25.8132","city":"Rajni, Bihār","id":35247},{"latitude":"22.9501","country":"India","longitude":"75.0640","id":35248,"city":"Rajod, Madhya Pradesh"},{"id":35249,"latitude":"25.6792","city":"Rajpur Kalan, Bihār","country":"India","longitude":"84.1259"},{"latitude":"25.0768","longitude":"84.2055","country":"India","id":35250,"city":"Rajpur, Bihār"},{"latitude":"22.3053","country":"India","longitude":"74.3525","id":35251,"city":"Rajpur, Madhya Pradesh"},{"city":"Rajpur, Madhya Pradesh","latitude":"21.9402","country":"India","longitude":"75.1361","id":35252},{"city":"Rajpura, Punjab","longitude":"76.5940","id":35253,"country":"India","latitude":"30.4840"},{"city":"Rajsamand, Rājasthān","latitude":"25.0700","id":35254,"longitude":"73.8800","country":"India"},{"latitude":"24.3667","id":35255,"longitude":"88.6000","city":"Rajshahi, Rājshāhi","country":"Bangladesh"},{"id":35256,"country":"India","latitude":"21.0500","longitude":"71.4300","city":"Rajula, Gujarāt"},{"country":"India","city":"Rajupalem, Andhra Pradesh","latitude":"15.1385","longitude":"79.9960","id":35257},{"latitude":"-0.7100","id":35258,"city":"Rakai, Rakai","country":"Uganda","longitude":"31.4050"},{"longitude":"24.2000","city":"Rakhiv, Zakarpatska Oblast","country":"Ukraine","latitude":"48.0500","id":35259},{"city":"Rakhwari, Bihār","country":"India","latitude":"26.3603","longitude":"86.2882","id":35260},{"city":"Rakitovo, Pazardzhik","country":"Bulgaria","latitude":"41.9833","id":35261,"longitude":"24.0833"},{"country":"Czechia","city":"Rakovnik, Středočeský Kraj","latitude":"50.1039","longitude":"13.7333","id":35262},{"latitude":"42.3000","country":"Bulgaria","longitude":"24.9667","id":35263,"city":"Rakovski, Plovdiv"},{"longitude":"83.6873","country":"India","city":"Raksaha, Uttar Pradesh","latitude":"25.4444","id":35264},{"id":35265,"latitude":"59.3500","city":"Rakvere, Rakvere","country":"Estonia","longitude":"26.3500"},{"longitude":"-78° 38' 21\"","city":"Raleigh, North Carolina","id":35266,"country":"United States","latitude":" 35° 46' 37\""},{"id":35267,"latitude":"30.1200","longitude":"75.4320","country":"India","city":"Ralla, Punjab"},{"latitude":"18.5000","id":35268,"city":"Ramabhadrapuram, Andhra Pradesh","country":"India","longitude":"83.2833"},{"longitude":"27.6139","id":35269,"country":"Lesotho","latitude":"-29.7625","city":"Ramabitsa, Maseru"},{"country":"Italy","city":"Ramacca, Sicilia","longitude":"14.7000","id":35270,"latitude":"37.3833"},{"country":"India","latitude":"16.8500","id":35271,"city":"Ramachandrapuram, Andhra Pradesh","longitude":"82.0200"},{"id":35272,"latitude":"16.5689","city":"Ramachandrapuram, Andhra Pradesh","country":"India","longitude":"81.6645"},{"latitude":"17.4944","country":"India","id":35273,"longitude":"78.2942","city":"Ramachandrapuran, Telangāna"},{"latitude":"38.8040","id":35274,"city":"Ramada, Lisboa","country":"Portugal","longitude":"-9.1910"},{"latitude":"19.1619","city":"Ramagiri Udayagiri, Odisha","longitude":"84.1440","country":"India","id":35275},{"city":"Ramain, Lanao del Sur","latitude":"7.9700","longitude":"124.3500","country":"Philippines","id":35276},{"country":"Madagascar","city":"Ramainandro, Antananarivo","id":35277,"latitude":"-19.3000","longitude":"47.0000"},{"longitude":"35.2000","city":"Ramallah, ","country":"West Bank","id":35278,"latitude":"31.9000"},{"country":"Argentina","latitude":"-33.3167","id":35279,"city":"Ramallo, Buenos Aires","longitude":"-60.2000"},{"city":"Ramamangalam, Kerala","longitude":"76.5000","latitude":"9.9333","id":35280,"country":"India"},{"id":35281,"country":"India","latitude":"29.9504","longitude":"74.9619","city":"Raman Mandi, Punjab"},{"latitude":"29.9504","id":35282,"city":"Raman, Punjab","longitude":"74.9785","country":"India"},{"longitude":"78.8395","city":"Ramanathapuram, Tamil Nādu","latitude":"9.3639","id":35283,"country":"India"},{"id":35284,"city":"Ramanayakkanpalaiyam, Tamil Nādu","country":"India","longitude":"78.5624","latitude":"11.6291"},{"latitude":"17.3203","country":"India","city":"Ramanayyapeta, Andhra Pradesh","longitude":"82.1014","id":35285},{"longitude":"79.0859","country":"India","latitude":"17.2833","id":35286,"city":"Ramannapeta, Telangāna"},{"latitude":"12.0500","longitude":"75.1833","city":"Ramantali, Kerala","country":"India","id":35287},{"country":"India","latitude":"10.7106","id":35288,"longitude":"76.9183","city":"Ramapattanam, Tamil Nādu"},{"latitude":"41.1404","longitude":"-74.1072","country":"United States","city":"Ramapo, New York","id":35289},{"longitude":"-79.2167","country":"Canada","city":"Ramara, Ontario","latitude":"44.6333","id":35290},{"longitude":"78.3674","latitude":"18.4110","id":35291,"city":"Ramareddi, Telangāna","country":"India"},{"longitude":"81.1083","latitude":"16.8863","id":35292,"city":"Ramasingavaram, Andhra Pradesh","country":"India"},{"longitude":"34.8236","country":"Israel","latitude":"32.0700","id":35293,"city":"Ramat Gan, Tel Aviv"},{"city":"Ramat HaSharon, Tel Aviv","country":"Israel","id":35294,"latitude":"32.1500","longitude":"34.8333"},{"latitude":"18.1166","city":"Ramayampet, Telangāna","longitude":"78.4298","country":"India","id":35295},{"id":35296,"country":"India","city":"Ramayipatti, Tamil Nādu","latitude":"11.4720","longitude":"78.2109"},{"longitude":"84.9881","city":"Rambha, Odisha","country":"India","latitude":"19.4433","id":35297},{"country":"India","city":"Rambilli, Andhra Pradesh","longitude":"82.9314","latitude":"17.4644","id":35298},{"latitude":"48.6444","id":35299,"country":"France","city":"Rambouillet, Île-de-France","longitude":"1.8308"},{"city":"Ramchandarpur, Bihār","longitude":"86.1459","latitude":"25.2365","country":"India","id":35300},{"longitude":"87.9446","id":35301,"city":"Ramchandrapur, West Bengal","country":"India","latitude":"24.0154"},{"id":35302,"latitude":"22.8910","country":"India","city":"Ramchandrapur, West Bengal","longitude":"88.4730"},{"city":"Ramdeora, Rājasthān","id":35303,"latitude":"27.0100","country":"India","longitude":"71.9200"},{"longitude":"86.1023","id":35304,"latitude":"25.3118","country":"India","city":"Ramdiri, Bihār"},{"city":"Ramdurg, Karnātaka","country":"India","latitude":"15.9500","longitude":"75.3000","id":35305},{"id":35306,"country":"Nepal","latitude":"27.3260","longitude":"86.0870","city":"Ramechhap, "},{"id":35307,"city":"Ramena, Antsiranana","country":"Madagascar","longitude":"49.3500","latitude":"-12.2333"},{"id":35308,"latitude":"55.5667","city":"Ramenskoye, Moskovskaya Oblast’","longitude":"38.2167","country":"Russia"},{"id":35309,"country":"India","longitude":"79.3130","city":"Rameswaram, Tamil Nādu","latitude":"9.2880"},{"country":"India","city":"Ramewadi, Mahārāshtra","latitude":"16.0333","id":35310,"longitude":"74.3500"},{"latitude":"24.6472","longitude":"75.9444","id":35311,"country":"India","city":"Ramganj Mandi, Rājasthān"},{"country":"India","latitude":"25.2889","longitude":"83.6535","id":35312,"city":"Ramgarh, Bihār"},{"country":"India","id":35313,"latitude":"25.7983","city":"Ramgarha, Bihār","longitude":"84.9592"},{"id":35314,"city":"Ramgundam, Telangāna","latitude":"18.7639","country":"India","longitude":"79.4750"},{"id":35315,"longitude":"49.6044","latitude":"31.2753","city":"Ramhormoz, Khūzestān","country":"Iran"},{"city":"Ramiriqui, Boyacá","latitude":"5.4000","id":35316,"longitude":"-73.3333","country":"Colombia"},{"country":"India","latitude":"22.8300","longitude":"87.6200","id":35317,"city":"Ramjibanpur, West Bengal"},{"id":35318,"city":"Ramkali, West Bengal","latitude":"22.4322","country":"India","longitude":"88.3285"},{"longitude":"34.8625","city":"Ramla, Central","country":"Israel","latitude":"31.9275","id":35319},{"latitude":"26.7595","longitude":"84.6122","city":"Ramnagar Bankat, Bihār","country":"India","id":35320},{"city":"Ramnagar Farsahi, Bihār","country":"India","longitude":"87.1284","id":35321,"latitude":"25.8904"},{"latitude":"27.1700","id":35322,"longitude":"84.3200","city":"Ramnagar, Bihār","country":"India"},{"id":35323,"longitude":"86.8387","country":"India","city":"Ramnagar, Bihār","latitude":"26.0773"},{"longitude":"75.3112","id":35324,"city":"Ramnagar, Jammu and Kashmīr","latitude":"32.8073","country":"India"},{"latitude":"25.2800","id":35325,"city":"Ramnagar, Uttar Pradesh","longitude":"83.0300","country":"India"},{"city":"Ramnagar, Uttarākhand","latitude":"29.3950","longitude":"79.1264","country":"India","id":35326},{"city":"Ramnagar, West Bengal","latitude":"22.3245","longitude":"88.4940","id":35327,"country":"India"},{"country":"Romania","latitude":"45.3800","longitude":"27.0600","city":"Ramnicu Sarat, Buzău","id":35328},{"id":35329,"longitude":"24.3756","city":"Ramnicu Valcea, Vâlcea","country":"Romania","latitude":"45.1047"},{"city":"Ramon Magsaysay, Zamboanga del Sur","latitude":"8.0053","longitude":"123.4869","id":35330,"country":"Philippines"},{"latitude":"18.5500","longitude":"-69.1833","id":35331,"city":"Ramon Santana, Higuamo","country":"Dominican Republic"},{"city":"Ramon, Isabela","longitude":"121.5300","id":35332,"country":"Philippines","latitude":"16.7800"},{"country":"United States","latitude":"33.0474","longitude":"-116.8766","id":35333,"city":"Ramona, California"},{"country":"France","longitude":"1.4787","id":35334,"latitude":"43.5434","city":"Ramonville-Saint-Agne, Occitanie"},{"country":"Mexico","longitude":"-100.9667","latitude":"25.5500","city":"Ramos Arizpe, Coahuila","id":35335},{"country":"Argentina","latitude":"-34.6500","longitude":"-58.5667","id":35336,"city":"Ramos Mejia, Buenos Aires"},{"country":"Philippines","latitude":"15.6667","id":35337,"city":"Ramos, Tarlac","longitude":"120.6417"},{"city":"Ramotswa, South East","longitude":"25.8167","id":35338,"latitude":"-24.8667","country":"Botswana"},{"latitude":"26.3333","country":"India","longitude":"86.1500","id":35339,"city":"Rampatti, Bihār"},{"country":"India","latitude":"26.0028","longitude":"86.8014","id":35340,"city":"Rampatti, Bihār"},{"longitude":"87.7800","latitude":"24.1700","city":"Rampur Hat, West Bengal","id":35341,"country":"India"},{"longitude":"85.8606","latitude":"25.6712","id":35342,"country":"India","city":"Rampur Jalalpur, Bihār"},{"latitude":"26.1649","longitude":"77.4691","country":"India","id":35343,"city":"Rampur Kalan, Madhya Pradesh"},{"country":"India","city":"Rampur Khajuriya, Bihār","latitude":"26.3923","longitude":"84.7688","id":35344},{"country":"India","latitude":"26.0672","longitude":"87.4795","city":"Rampur Kudarkatti, Bihār","id":35345},{"id":35346,"latitude":"25.5916","longitude":"87.1622","city":"Rampur Parhat, Bihār","country":"India"},{"country":"India","id":35347,"longitude":"86.1781","latitude":"25.7057","city":"Rampur Rajwa, Bihār"},{"longitude":"85.3289","country":"India","latitude":"25.5664","id":35348,"city":"Rampur Shamchand, Bihār"},{"latitude":"25.8513","city":"Rampur Tilak, Bihār","country":"India","longitude":"87.0930","id":35349},{"latitude":"26.2126","longitude":"87.2491","city":"Rampur, Bihār","country":"India","id":35350},{"latitude":"25.8864","longitude":"86.9547","id":35351,"city":"Rampur, Bihār","country":"India"},{"country":"India","longitude":"86.1465","city":"Rampur, Bihār","id":35352,"latitude":"25.1826"},{"longitude":"84.7468","city":"Rampur, Bihār","id":35353,"country":"India","latitude":"25.9256"},{"id":35354,"city":"Rampur, Odisha","longitude":"84.3409","country":"India","latitude":"21.0735"},{"longitude":"79.0000","id":35355,"city":"Rampur, Uttar Pradesh","latitude":"28.8000","country":"India"},{"city":"Rampur, West Bengal","longitude":"89.8038","country":"India","id":35356,"latitude":"26.4424"},{"latitude":"14.8810","country":"India","longitude":"76.7814","city":"Rampura, Karnātaka","id":35357},{"id":35358,"city":"Rampura, Madhya Pradesh","country":"India","latitude":"24.4670","longitude":"75.4400"},{"city":"Rampurwa, Bihār","country":"India","latitude":"26.7544","longitude":"84.7114","id":35359},{"id":35360,"latitude":"19.0833","city":"Ramree, Rakhine State","country":"Burma","longitude":"93.8667"},{"city":"Ramsar, Māzandarān","latitude":"36.9225","country":"Iran","id":35361,"longitude":"50.6431"},{"latitude":"53.6483","id":35362,"longitude":"-2.3167","country":"United Kingdom","city":"Ramsbottom, Bury"},{"city":"Ramsey, Minnesota","longitude":"-93.4494","latitude":"45.2617","id":35363,"country":"United States"},{"latitude":"41.0595","city":"Ramsey, New Jersey","country":"United States","longitude":"-74.1454","id":35364},{"longitude":"1.4160","latitude":"51.3360","city":"Ramsgate, Kent","country":"United Kingdom","id":35365},{"longitude":"49.4086","latitude":"30.8936","city":"Ramshir, Khūzestān","id":35366,"country":"Iran"},{"longitude":"41.2203","country":"Kenya","latitude":"3.9375","id":35367,"city":"Ramu, Mandera"},{"country":"India","id":35368,"longitude":"88.5800","city":"Ranaghat, West Bengal","latitude":"23.1800"},{"city":"Ranai, Kepulauan Riau","latitude":"3.9333","country":"Indonesia","id":35369,"longitude":"108.3833"},{"latitude":"22.6470","country":"India","longitude":"74.5212","id":35370,"city":"Ranapur, Madhya Pradesh"},{"city":"Ranavav, Gujarāt","latitude":"21.6800","country":"India","id":35371,"longitude":"69.7500"},{"longitude":"74.7293","country":"India","id":35372,"city":"Ranbirsinghpura, Jammu and Kashmīr","latitude":"32.6079"},{"latitude":"-34.1667","id":35373,"longitude":"-70.7500","city":"Rancagua, Libertador General Bernardo O’Higgins","country":"Chile"},{"city":"Rancharia, São Paulo","latitude":"-22.2292","longitude":"-50.8931","id":35374,"country":"Brazil"},{"country":"Philippines","city":"Rancheria Payau, Zamboanga del Sur","id":35375,"longitude":"123.1542","latitude":"7.8509"},{"city":"Ranchi, Jhārkhand","country":"India","latitude":"23.3600","longitude":"85.3300","id":35376},{"city":"Rancho Arriba, Valdesia","longitude":"-70.4618","latitude":"18.7147","id":35377,"country":"Dominican Republic"},{"id":35378,"longitude":"-121.2527","city":"Rancho Cordova, California","country":"United States","latitude":"38.5737"},{"longitude":"-117.5667","city":"Rancho Cucamonga, California","latitude":"34.1247","id":35379,"country":"United States"},{"country":"Nicaragua","longitude":"-85.5528","id":35380,"city":"Rancho Grande, Matagalpa","latitude":"13.2536"},{"longitude":"-116.4271","country":"United States","city":"Rancho Mirage, California","latitude":"33.7635","id":35381},{"longitude":"-117.5618","id":35382,"country":"United States","latitude":"33.5140","city":"Rancho Mission Viejo, California"},{"city":"Rancho Palos Verdes, California","longitude":"-118° 24' 10\"","id":35383,"country":"United States","latitude":" 33° 46' 02\""},{"country":"United States","longitude":"-116.9197","id":35384,"latitude":"32.7624","city":"Rancho San Diego, California"},{"id":35385,"city":"Rancho Santa Margarita, California","country":"United States","latitude":"33.6318","longitude":"-117.5988"},{"id":35386,"country":"Argentina","city":"Ranchos, Buenos Aires","latitude":"-35.5333","longitude":"-58.2833"},{"city":"Ranchuelo, Villa Clara","longitude":"-80.1510","country":"Cuba","latitude":"22.3764","id":35387},{"id":35388,"latitude":"59.0017","country":"Norway","longitude":"5.6153","city":"Randaberg, Rogaland"},{"id":35389,"city":"Randallstown, Maryland","country":"United States","latitude":"39.3723","longitude":"-76.8024"},{"latitude":"37.8833","id":35390,"longitude":"14.9500","country":"Italy","city":"Randazzo, Sicilia"},{"country":"South Africa","longitude":"28.0064","city":"Randburg, Gauteng","latitude":"-26.0936","id":35391},{"city":"Randers, Midtjylland","country":"Denmark","latitude":"56.4570","longitude":"10.0390","id":35392},{"city":"Randfontein, Gauteng","id":35393,"latitude":"-26.1797","longitude":"27.7042","country":"South Africa"},{"city":"Randolph, Massachusetts","longitude":"-71.0539","country":"United States","id":35394,"latitude":"42.1778"},{"city":"Randolph, New Jersey","id":35395,"country":"United States","latitude":"40.8434","longitude":"-74.5819"},{"latitude":" 43° 55' 01\"","longitude":"-72° 40' 01\"","city":"Randolph, Vermont","id":35396,"country":"USA"},{"latitude":"24.0311","country":"India","id":35397,"city":"Raneswar, Jhārkhand","longitude":"87.4197"},{"longitude":"89.4572","id":35398,"country":"India","city":"Rangamati, West Bengal","latitude":"26.8076"},{"id":35399,"longitude":"92.6688","latitude":"26.8377","city":"Rangapara, Assam","country":"India"},{"id":35400,"country":"Bangladesh","longitude":"89.2500","city":"Rangapukur, Rangpur","latitude":"25.5600"},{"latitude":"15.4092","city":"Rangapuram, Andhra Pradesh","id":35401,"longitude":"78.0746","country":"India"},{"city":"Rangasamudram, Andhra Pradesh","id":35402,"latitude":"14.9852","longitude":"78.9765","country":"India"},{"latitude":"13.7140","longitude":"78.2645","id":35403,"country":"India","city":"Rangasamudram, Andhra Pradesh"},{"country":"USA","city":"Rangeley, Maine","longitude":"-70° 25' 01\"","id":35404,"latitude":" 45° 00' 00\""},{"country":"Canada","longitude":"-83° 35' 00\"","id":35405,"city":"Ranger Lake, Ontario","latitude":" 46° 52' 00\""},{"city":"Rangewala, Punjab","longitude":"74.2611","id":35406,"country":"Pakistan","latitude":"30.8222"},{"city":"Rangia, Assam","country":"India","longitude":"91.6300","latitude":"26.4700","id":35407},{"country":"Indonesia","city":"Rangkasbitung, Banten","longitude":"106.2500","id":35408,"latitude":"-6.3667"},{"latitude":"16.7950","longitude":"96.1600","city":"Rangoon, Yangon","id":35409,"country":"Burma"},{"city":"Rangpur, Rangpur","longitude":"89.2444","id":35410,"country":"Bangladesh","latitude":"25.7500"},{"longitude":"87.1866","id":35411,"city":"Rangra, Bihār","country":"India","latitude":"25.3803"},{"latitude":"52.2833","country":"Germany","id":35412,"longitude":"13.4333","city":"Rangsdorf, Brandenburg"},{"id":35413,"longitude":"75.7886","latitude":"22.6435","city":"Rangvasa, Madhya Pradesh","country":"India"},{"city":"Rangwasa, Madhya Pradesh","country":"India","latitude":"22.6419","id":35414,"longitude":"75.7893"},{"id":35415,"city":"Rani Sagar, Bihār","country":"India","latitude":"25.6079","longitude":"84.3626"},{"country":"India","latitude":"18.9655","longitude":"76.7493","city":"Rani Sawargaon, Mahārāshtra","id":35416},{"city":"Rani Shakarpura, Bihār","longitude":"86.2992","id":35417,"latitude":"25.5534","country":"India"},{"city":"Rani, Bihār","latitude":"25.5564","country":"India","id":35418,"longitude":"85.9021"},{"id":35419,"country":"India","city":"Rani, Kerala","latitude":"9.3667","longitude":"76.7667"},{"city":"Rania, Haryāna","id":35420,"latitude":"29.5300","country":"India","longitude":"74.8300"},{"country":"India","longitude":"75.6167","latitude":"14.6167","id":35421,"city":"Ranibennur, Karnātaka"},{"longitude":"74.4167","id":35422,"country":"India","city":"Ranigaon, Rājasthān","latitude":"27.1000"},{"longitude":"21.5590","city":"Ranillug, Ranillug","country":"Kosovo","latitude":"42.4920","id":35423},{"country":"India","city":"Ranipet, Tamil Nādu","latitude":"12.9247","longitude":"79.3333","id":35424},{"longitude":"68.5044","latitude":"27.2889","id":35425,"city":"Ranipur, Sindh","country":"Pakistan"},{"latitude":"24.7500","city":"Raniwara Kalan, Rājasthān","id":35426,"longitude":"72.2167","country":"India"},{"city":"Raniyah, As Sulaymānīyah","latitude":"36.2550","longitude":"44.8836","country":"Iraq","id":35427},{"city":"Ranjal, Telangāna","country":"India","latitude":"18.7458","longitude":"77.9483","id":35428},{"id":35429,"country":"India","longitude":"77.6500","city":"Rankhandi, Uttar Pradesh","latitude":"29.6167"},{"id":35430,"country":"India","city":"Ranko, Bihār","latitude":"25.5181","longitude":"86.4899"},{"country":"North Macedonia","latitude":"42.1719","id":35431,"longitude":"22.1167","city":"Rankovce, Rankovce"},{"longitude":"9.6500","city":"Rankweil, Vorarlberg","latitude":"47.2667","country":"Austria","id":35432},{"longitude":"77.8761","id":35433,"latitude":"25.0748","country":"India","city":"Ranod, Madhya Pradesh"},{"city":"Ranohira, Toliara","id":35434,"country":"Madagascar","longitude":"45.3500","latitude":"-22.4333"},{"id":35435,"longitude":"47.4500","country":"Madagascar","city":"Ranomafana, Fianarantsoa","latitude":"-21.2500"},{"latitude":"-18.9583","city":"Ranomafana, Toamasina","longitude":"48.8417","country":"Madagascar","id":35436},{"city":"Ranomafana, Toliara","id":35437,"country":"Madagascar","latitude":"-24.5667","longitude":"46.9667"},{"id":35438,"latitude":"-23.4167","longitude":"47.2667","city":"Ranomena, Fianarantsoa","country":"Madagascar"},{"id":35439,"city":"Ranong, Ranong","country":"Thailand","latitude":"9.9619","longitude":"98.6389"},{"latitude":"-25.0500","country":"Madagascar","longitude":"46.6667","city":"Ranopiso, Toliara","id":35440},{"city":"Ranpur, Gujarāt","country":"India","longitude":"71.6898","id":35441,"latitude":"22.3752"},{"country":"Haiti","city":"Ranquitte, Nord","id":35442,"longitude":"-72.0833","latitude":"19.4167"},{"city":"Ranranagudipeta, Tamil Nādu","country":"India","longitude":"78.5483","latitude":"12.6618","id":35443},{"longitude":"134.1667","latitude":"-1.5000","city":"Ransiki, Papua Barat","id":35444,"country":"Indonesia"},{"city":"Ranst, Flanders","country":"Belgium","latitude":"51.2000","id":35445,"longitude":"4.5500"},{"latitude":"-15.7000","id":35446,"longitude":"49.6500","country":"Madagascar","city":"Rantabe, Toamasina"},{"country":"Indonesia","id":35447,"city":"Rantau Prapat, Sumatera Utara","latitude":"2.3333","longitude":"100.0500"},{"city":"Rantepao, Sulawesi Selatan","country":"Indonesia","id":35448,"longitude":"119.9000","latitude":"-2.9690"},{"latitude":"26.3519","longitude":"86.0932","city":"Ranti, Bihār","id":35449,"country":"India"},{"longitude":"-88.1549","latitude":"40.3031","city":"Rantoul, Illinois","country":"United States","id":35450},{"longitude":"139.3205","country":"Japan","latitude":"36.0565","city":"Ranzan, Saitama","id":35451},{"longitude":"75.1900","country":"India","latitude":"30.5619","id":35452,"city":"Raonta, Punjab"},{"country":"Italy","id":35453,"longitude":"9.2333","city":"Rapallo, Liguria","latitude":"44.3500"},{"city":"Rapar, Gujarāt","country":"India","id":35454,"latitude":"23.5700","longitude":"70.6300"},{"longitude":"80.9674","country":"India","id":35455,"latitude":"16.3020","city":"Raparla, Andhra Pradesh"},{"longitude":"-76.4580","city":"Rapho, Pennsylvania","country":"United States","latitude":"40.1576","id":35456},{"city":"Rapid City, South Dakota","latitude":" 44° 04' 47\"","longitude":"-103° 13' 40\"","id":35457,"country":"United States"},{"latitude":"58.9944","country":"Estonia","city":"Rapla, Rapla","longitude":"24.8011","id":35458},{"longitude":"-43.8039","id":35459,"country":"Brazil","latitude":"-19.9669","city":"Raposos, Minas Gerais"},{"longitude":"119.8205","id":35460,"city":"Rappang, Sulawesi Selatan","country":"Indonesia","latitude":"-3.8447"},{"longitude":"8.8167","id":35461,"latitude":"47.2167","country":"Switzerland","city":"Rapperswil-Jona, Sankt Gallen"},{"country":"Philippines","longitude":"124.1300","city":"Rapu-Rapu, Albay","latitude":"13.1800","id":35462},{"id":35463,"country":"India","latitude":"14.2015","city":"Rapur, Andhra Pradesh","longitude":"79.5351"},{"country":"Colombia","longitude":"-73.6333","latitude":"5.5333","id":35464,"city":"Raquira, Boyacá"},{"country":"India","id":35465,"latitude":"22.6430","city":"Rardhu, Gujarāt","longitude":"72.7762"},{"city":"Raritan, New Jersey","country":"United States","longitude":"-74.8662","latitude":"40.5070","id":35466},{"city":"Rarott, Kerala","id":35467,"latitude":"11.4504","country":"India","longitude":"75.9306"},{"city":"Rarz, Sughd","id":35468,"longitude":"68.7442","country":"Tajikistan","latitude":"39.3803"},{"longitude":"36.4236","id":35469,"city":"Ras Baalbek, Baalbek-Hermel","country":"Lebanon","latitude":"34.2597"},{"id":35470,"city":"Ras El Oued, Fès-Meknès","country":"Morocco","longitude":"-4.5558","latitude":"34.3390"},{"city":"Ras Tanura, Ash Sharqīyah","id":35471,"latitude":"26.6500","country":"Saudi Arabia","longitude":"50.1667"},{"country":"Lebanon","latitude":"33.8500","longitude":"35.6667","city":"Ras el Metn, Mont-Liban","id":35472},{"city":"Ras el Oued, Bordj Bou Arréridj","id":35473,"country":"Algeria","latitude":"35.9497","longitude":"5.0358"},{"city":"Ras el Oued, Fès-Meknès","country":"Morocco","longitude":"-4.0000","id":35474,"latitude":"34.1500"},{"latitude":"31.5125","country":"Egypt","city":"Ras el-Barr, Ad Daqahlīyah","longitude":"31.8256","id":35475},{"id":35476,"country":"Iran","longitude":"61.4014","city":"Rasak, Sīstān va Balūchestān","latitude":"26.2356"},{"longitude":"84.8378","latitude":"26.1270","id":35477,"city":"Rasauli, Bihār","country":"India"},{"id":35478,"longitude":"86.5117","country":"India","latitude":"25.5537","city":"Rasaunk, Bihār"},{"city":"Rasdhoo, Ariatholhu Uthuruburi","id":35479,"country":"Maldives","latitude":"4.2631","longitude":"72.9919"},{"country":"Lesotho","longitude":"27.6628","id":35480,"latitude":"-29.8992","city":"Rasebetsane, Mafeteng"},{"id":35481,"latitude":"59.9750","longitude":"23.4333","city":"Raseborg, Uusimaa","country":"Finland"},{"city":"Raseiniai, Raseiniai","country":"Lithuania","latitude":"55.3667","longitude":"23.1167","id":35482},{"id":35483,"latitude":"37.2744","longitude":"49.5889","city":"Rasht, Gīlān","country":"Iran"},{"longitude":"70.3833","latitude":"39.0167","id":35484,"city":"Rasht, Nohiyahoi Tobei Jumhurí","country":"Tajikistan"},{"latitude":"26.0464","longitude":"86.3471","id":35485,"country":"India","city":"Rasiari, Bihār"},{"longitude":"77.3362","city":"Rasingapuram, Tamil Nādu","id":35486,"latitude":"9.9448","country":"India"},{"id":35487,"city":"Rasipuram, Tamil Nādu","latitude":"11.4700","country":"India","longitude":"78.1700"},{"id":35488,"latitude":"9.9639","longitude":"77.1000","country":"India","city":"Rasivarai Tottam, Tamil Nādu"},{"city":"Raska, Raška","id":35489,"country":"Serbia","latitude":"43.2919","longitude":"20.6156"},{"latitude":"45.5933","id":35490,"city":"Rasnov, Braşov","country":"Romania","longitude":"25.4603"},{"id":35491,"latitude":"20.6298","longitude":"85.3126","country":"India","city":"Rasol, Odisha"},{"country":"India","latitude":"25.5440","city":"Raspur Patasia, Bihār","id":35492,"longitude":"85.7247"},{"latitude":"25.8500","longitude":"83.8500","city":"Rasra, Uttar Pradesh","id":35493,"country":"India"},{"city":"Rass el Djebel, Bizerte","latitude":"37.2150","id":35494,"longitude":"10.1200","country":"Tunisia"},{"latitude":"52.6667","id":35495,"longitude":"41.8833","city":"Rasskazovo, Tambovskaya Oblast’","country":"Russia"},{"latitude":"48.8500","country":"Germany","id":35496,"city":"Rastatt, Baden-Württemberg","longitude":"8.2000"},{"city":"Rastede, Lower Saxony","id":35497,"longitude":"8.2000","country":"Germany","latitude":"53.2500"},{"id":35498,"city":"Rasulpur Dhuria, Bihār","country":"India","latitude":"25.5693","longitude":"87.0375"},{"country":"India","city":"Rasulpur, Bihār","id":35499,"latitude":"25.9938","longitude":"85.8935"},{"id":35500,"city":"Ratan, Bihār","longitude":"86.6432","country":"India","latitude":"25.4349"},{"id":35501,"longitude":"75.1167","city":"Ratangarh, Madhya Pradesh","latitude":"24.8167","country":"India"},{"country":"India","city":"Ratangarh, Rājasthān","longitude":"74.6219","id":35502,"latitude":"28.0787"},{"latitude":"24.8996","country":"India","city":"Ratanpur, Bihār","id":35503,"longitude":"86.2888"},{"longitude":"85.1259","country":"India","latitude":"26.5091","city":"Ratanpur, Bihār","id":35504},{"longitude":"82.1660","latitude":"22.2880","city":"Ratanpur, Chhattīsgarh","country":"India","id":35505},{"country":"India","id":35506,"latitude":"23.0851","longitude":"72.5716","city":"Ratanpur, Gujarāt"},{"city":"Ratau, Maseru","latitude":"-29.3828","longitude":"27.7892","country":"Lesotho","id":35507},{"city":"Ratauli, Bihār","latitude":"26.1861","longitude":"86.7104","id":35508,"country":"India"},{"longitude":"-4.9333","city":"Ratba, Fès-Meknès","country":"Morocco","id":35509,"latitude":"34.7833"},{"country":"Thailand","latitude":"13.5356","longitude":"99.8133","city":"Ratchaburi, Ratchaburi","id":35510},{"longitude":"10.7333","latitude":"53.9500","country":"Germany","id":35511,"city":"Ratekau, Schleswig-Holstein"},{"latitude":"53.5060","longitude":"-6.4630","city":"Rath To, Meath","id":35512,"country":"Ireland"},{"latitude":"25.5800","city":"Rath, Uttar Pradesh","country":"India","longitude":"79.5700","id":35513},{"city":"Rathdrum, Idaho","id":35514,"country":"United States","latitude":"47.7948","longitude":"-116.8944"},{"city":"Rathenow, Brandenburg","id":35515,"country":"Germany","latitude":"52.6000","longitude":"12.3333"},{"id":35516,"latitude":"53.2988","city":"Rathfarnham, South Dublin","country":"Ireland","longitude":"-6.2854"},{"country":"India","longitude":"75.5750","latitude":"29.6833","id":35517,"city":"Ratia, Haryāna"},{"longitude":"6.8500","country":"Germany","city":"Ratingen, North Rhine-Westphalia","latitude":"51.3000","id":35518},{"id":35519,"city":"Ratlam, Madhya Pradesh","country":"India","latitude":"23.3340","longitude":"75.0370"},{"city":"Ratnagiri, Karnātaka","longitude":"77.1301","id":35520,"country":"India","latitude":"13.8111"},{"country":"India","id":35521,"city":"Ratnagiri, Mahārāshtra","latitude":"16.9944","longitude":"73.3000"},{"country":"India","city":"Ratnahalli, Karnātaka","id":35522,"longitude":"76.5020","latitude":"12.3652"},{"latitude":"27.6167","id":35523,"longitude":"84.5000","city":"Ratnanagar, ","country":"Nepal"},{"city":"Ratnapur, ","longitude":"83.8900","id":35524,"country":"Nepal","latitude":"27.8600"},{"id":35525,"country":"Sri Lanka","longitude":"80.4022","city":"Ratnapura, Sabaragamuwa","latitude":"6.6806"},{"id":35526,"city":"Ratnapuram, Telangāna","country":"India","latitude":"18.6283","longitude":"79.5517"},{"latitude":"51.6500","id":35527,"city":"Ratne, Volynska Oblast","country":"Ukraine","longitude":"24.5333"},{"longitude":"68.2833","id":35528,"city":"Ratodero, Sindh","country":"Pakistan","latitude":"27.8000"},{"city":"Rattaphum, Songkhla","country":"Thailand","latitude":"7.1412","id":35529,"longitude":"100.2905"},{"longitude":"75.5000","id":35530,"city":"Rattihalli, Karnātaka","country":"India","latitude":"14.4167"},{"id":35531,"latitude":"23.4204","country":"India","longitude":"85.2146","city":"Ratu, Jhārkhand"},{"city":"Ratzeburg, Schleswig-Holstein","latitude":"53.7000","id":35532,"country":"Germany","longitude":"10.7500"},{"longitude":"101.8560","city":"Raub, Pahang","country":"Malaysia","latitude":"3.7952","id":35533},{"longitude":"12.1047","country":"Germany","latitude":"47.7881","city":"Raubling, Bavaria","id":35534},{"latitude":"-36.7667","longitude":"-59.1000","city":"Rauch, Buenos Aires","id":35535,"country":"Argentina"},{"country":"Chile","latitude":"-34.9167","longitude":"-71.3167","city":"Rauco, Maule","id":35536},{"country":"Germany","city":"Rauenberg, Baden-Württemberg","longitude":"8.7036","id":35537,"latitude":"49.2678"},{"city":"Raul Soares, Minas Gerais","id":35538,"country":"Brazil","latitude":"-20.0833","longitude":"-42.3667"},{"country":"Finland","latitude":"61.1333","id":35539,"longitude":"21.5000","city":"Rauma, Satakunta"},{"latitude":"25.6462","city":"Raun, Bihār","longitude":"86.3869","country":"India","id":35540},{"id":35541,"country":"India","latitude":"26.3431","longitude":"78.9443","city":"Raun, Madhya Pradesh"},{"city":"Raunds, Northamptonshire","country":"United Kingdom","latitude":"52.3450","id":35542,"longitude":"-0.5370"},{"latitude":"50.0167","id":35543,"longitude":"8.4500","country":"Germany","city":"Raunheim, Hesse"},{"latitude":"22.2492","city":"Raurkela, Odisha","country":"India","id":35544,"longitude":"84.8828"},{"latitude":"25.6630","country":"India","longitude":"87.5378","id":35545,"city":"Rautara, Bihār"},{"id":35546,"country":"Ukraine","city":"Rava-Rus'ka, Lvivska Oblast","longitude":"23.6242","latitude":"50.2250"},{"id":35547,"longitude":"46.6511","city":"Ravansar, Kermānshāh","latitude":"34.7125","country":"Iran"},{"id":35548,"city":"Ravanusa, Sicilia","longitude":"13.9667","country":"Italy","latitude":"37.2667"},{"id":35549,"city":"Ravar, Kermān","country":"Iran","latitude":"31.2633","longitude":"56.8072"},{"id":35550,"latitude":"51.3667","city":"Ravels, Flanders","country":"Belgium","longitude":"5.0000"},{"country":"Italy","latitude":"44.4161","longitude":"12.2017","city":"Ravenna, Emilia-Romagna","id":35551},{"latitude":"41.1612","id":35552,"longitude":"-81.2422","country":"United States","city":"Ravenna, Ohio"},{"longitude":"9.6114","country":"Germany","latitude":"47.7831","id":35553,"city":"Ravensburg, Baden-Württemberg"},{"country":"Australia","latitude":"-33.5817","longitude":"120.0469","city":"Ravensthorpe, Western Australia","id":35554},{"city":"Raver, Mahārāshtra","country":"India","latitude":"21.2431","longitude":"76.0333","id":35555},{"city":"Ravne na Koroskem, Ravne na Koroškem","id":35556,"country":"Slovenia","latitude":"46.5437","longitude":"14.9642"},{"city":"Ravulapalem, Andhra Pradesh","country":"India","longitude":"81.9833","id":35557,"latitude":"16.4833"},{"id":35558,"latitude":"17.3833","longitude":"82.3833","country":"India","city":"Ravutulapudi, Andhra Pradesh"},{"latitude":"51.7658","id":35559,"city":"Rawa Mazowiecka, Łódzkie","longitude":"20.2533","country":"Poland"},{"country":"Iraq","city":"Rawah, Al Anbār","longitude":"41.9167","id":35560,"latitude":"34.4686"},{"city":"Rawajaya, Jawa Tengah","latitude":"-7.5800","longitude":"108.8828","country":"Indonesia","id":35561},{"country":"Pakistan","latitude":"33.6000","longitude":"73.0333","id":35562,"city":"Rawalpindi, Punjab"},{"latitude":"36.6119","id":35563,"country":"Iraq","city":"Rawanduz, Arbīl","longitude":"44.5247"},{"latitude":"-7.5733","city":"Rawasari, Jawa Tengah","id":35564,"country":"Indonesia","longitude":"108.8833"},{"city":"Rawatbhata, Rājasthān","latitude":"24.9300","longitude":"75.5800","country":"India","id":35565},{"country":"India","latitude":"29.2800","city":"Rawatsar, Rājasthān","longitude":"74.3800","id":35566},{"country":"Canada","id":35567,"city":"Rawdon, Quebec","longitude":"-73.7167","latitude":"46.0500"},{"city":"Rawicz, Wielkopolskie","country":"Poland","longitude":"16.8575","id":35568,"latitude":"51.6092"},{"id":35569,"country":"USA","latitude":" 41° 47' 23\"","longitude":"-107° 14' 16\"","city":"Rawlins, Wyoming"},{"id":35570,"longitude":"-1.3439","city":"Rawmarsh, Rotherham","country":"United Kingdom","latitude":"53.4636"},{"city":"Rawson, Chubut","country":"Argentina","id":35571,"longitude":"-65.1000","latitude":"-43.3000"},{"id":35572,"city":"Rawtenstall, Lancashire","longitude":"-2.2910","country":"United Kingdom","latitude":"53.6990"},{"longitude":"84.8500","city":"Raxaul, Bihār","latitude":"26.9833","id":35573,"country":"India"},{"latitude":"15.8666","id":35574,"country":"Guatemala","longitude":"-90.0424","city":"Raxruha, Alta Verapaz"},{"city":"Rayachoti, Andhra Pradesh","country":"India","latitude":"14.0583","longitude":"78.7517","id":35575},{"longitude":"76.8524","country":"India","latitude":"14.6997","city":"Rayadrug, Andhra Pradesh","id":35576},{"latitude":"19.1700","country":"India","city":"Rayagada, Odisha","longitude":"83.4200","id":35577},{"latitude":"10.0879","id":35578,"country":"India","city":"Rayamangalam, Kerala","longitude":"76.5088"},{"id":35579,"city":"Rayapalle, Andhra Pradesh","country":"India","latitude":"16.2828","longitude":"81.2504"},{"country":"India","city":"Rayappanpatti, Tamil Nādu","longitude":"77.2372","id":35580,"latitude":"9.7997"},{"city":"Rayavaram, Andhra Pradesh","country":"India","latitude":"17.3608","longitude":"81.7530","id":35581},{"longitude":"74.7800","id":35582,"city":"Raybag, Karnātaka","country":"India","latitude":"16.4800"},{"country":"Russia","longitude":"129.4167","city":"Raychikhinsk, Amurskaya Oblast’","latitude":"49.7833","id":35583},{"latitude":"15.8233","longitude":"44.0386","country":"Yemen","city":"Raydah, ‘Amrān","id":35584},{"latitude":"29.5981","country":"Iran","id":35585,"longitude":"57.4383","city":"Rayen, Kermān"},{"longitude":"54.9358","latitude":"54.0664","id":35586,"country":"Russia","city":"Rayevskiy, Bashkortostan"},{"city":"Rayleigh, Essex","country":"United Kingdom","longitude":"0.6049","latitude":"51.5864","id":35587},{"longitude":"151.7441","id":35588,"latitude":"-32.7615","city":"Raymond Terrace, New South Wales","country":"Australia"},{"longitude":"-71.1994","id":35589,"country":"United States","city":"Raymond, New Hampshire","latitude":"43.0322"},{"city":"Raymondville, Texas","latitude":"26.4759","longitude":"-97.7769","country":"United States","id":35590},{"longitude":"-94.4583","latitude":"38.8029","id":35591,"city":"Raymore, Missouri","country":"United States"},{"longitude":"-104° 31' 00\"","id":35592,"city":"Raymore, Saskatchewan","country":"Canada","latitude":" 51° 25' 00\""},{"longitude":"-0.2321","id":35593,"city":"Raynes Park, Merton","country":"United Kingdom","latitude":"51.4033"},{"longitude":"-71.0437","country":"United States","id":35594,"city":"Raynham, Massachusetts","latitude":"41.9312"},{"id":35595,"city":"Rayon, México","longitude":"-99.5800","country":"Mexico","latitude":"19.1481"},{"latitude":"12.6742","longitude":"101.2789","city":"Rayong, Rayong","country":"Thailand","id":35596},{"country":"United States","latitude":"38.9944","id":35597,"city":"Raytown, Missouri","longitude":"-94.4641"},{"latitude":"14.1954","country":"India","id":35598,"city":"Razampeta, Andhra Pradesh","longitude":"79.1590"},{"id":35599,"country":"Iran","longitude":"49.0331","latitude":"35.3886","city":"Razan, Hamadān"},{"country":"Serbia","latitude":"43.6667","id":35600,"longitude":"21.5500","city":"Razanj, Ražanj"},{"latitude":"43.5333","longitude":"26.5167","country":"Bulgaria","id":35601,"city":"Razgrad, Razgrad"},{"id":35602,"longitude":"16.2882","country":"Slovenia","latitude":"46.5182","city":"Razkrizje, Razkrižje"},{"id":35603,"city":"Razlog, Blagoevgrad","country":"Bulgaria","latitude":"41.8833","longitude":"23.4667"},{"latitude":"16.4743","longitude":"81.8402","id":35604,"country":"India","city":"Razole, Andhra Pradesh"},{"longitude":"93.4086","country":"Burma","city":"Razua, Chin State","latitude":"22.0529","id":35605},{"country":"United States","longitude":"-71.1056","latitude":"42.5351","city":"Reading, Massachusetts","id":35606},{"city":"Reading, Ohio","country":"United States","latitude":"39.2242","longitude":"-84.4333","id":35607},{"country":"United States","id":35608,"longitude":"-75° 55' 40\"","city":"Reading, Pennsylvania","latitude":" 40° 20' 08\""},{"country":"United Kingdom","latitude":"51.4542","id":35609,"city":"Reading, Reading","longitude":"-0.9731"},{"id":35610,"country":"United States","city":"Readington, New Jersey","longitude":"-74.7796","latitude":"40.5822"},{"id":35611,"city":"Real, Quezon","latitude":"14.6700","country":"Philippines","longitude":"121.6000"},{"city":"Realeza, Paraná","country":"Brazil","latitude":"-25.7669","longitude":"-53.5269","id":35612},{"longitude":"8.8531","city":"Rebola, Bioko Norte","latitude":"3.7192","country":"Equatorial Guinea","id":35613},{"city":"Rebordosa, Porto","country":"Portugal","longitude":"-8.4120","id":35614,"latitude":"41.2200"},{"longitude":"-50.6928","latitude":"-25.6061","id":35615,"city":"Reboucas, Paraná","country":"Brazil"},{"city":"Recanati, Marche","id":35616,"country":"Italy","latitude":"43.4036","longitude":"13.5497"},{"latitude":"31.2859","country":"Morocco","longitude":"-4.2751","id":35617,"city":"Recani, Drâa-Tafilalet"},{"longitude":"9.1500","city":"Recco, Liguria","country":"Italy","latitude":"44.3667","id":35618},{"latitude":"35.4081","id":35619,"country":"Algeria","city":"Rechaiga, Tiaret","longitude":"1.9733"},{"city":"Rechytsa, Homyel’skaya Voblasts’","latitude":"52.3639","longitude":"30.3947","country":"Belarus","id":35620},{"id":35621,"city":"Recica, Rečica ob Savinji","country":"Slovenia","latitude":"46.3247","longitude":"14.9228"},{"country":"Brazil","latitude":"-8.0500","id":35622,"longitude":"-34.9000","city":"Recife, Pernambuco"},{"id":35623,"city":"Recke, North Rhine-Westphalia","latitude":"52.3700","longitude":"7.7189","country":"Germany"},{"id":35624,"country":"Germany","longitude":"7.1619","city":"Recklinghausen, North Rhine-Westphalia","latitude":"51.5850"},{"longitude":"-59.9333","country":"Argentina","latitude":"-29.2333","city":"Reconquista, Santa Fe","id":35625},{"city":"Recreio, Minas Gerais","latitude":"-21.5250","country":"Brazil","longitude":"-42.4689","id":35626},{"latitude":"-29.2667","id":35627,"city":"Recreo, Catamarca","country":"Argentina","longitude":"-65.0667"},{"id":35628,"country":"United States","city":"Red Bank, New Jersey","latitude":"40.3480","longitude":"-74.0672"},{"country":"United States","latitude":"33.9309","id":35629,"city":"Red Bank, South Carolina","longitude":"-81.2322"},{"latitude":"35.1117","country":"United States","city":"Red Bank, Tennessee","id":35630,"longitude":"-85.2962"},{"id":35631,"city":"Red Bluff, California","country":"United States","latitude":"40.1735","longitude":"-122.2413"},{"city":"Red Deer, Alberta","latitude":" 52° 16' 00\"","id":35632,"country":"Canada","longitude":"-113° 48' 00\""},{"id":35633,"city":"Red Hill, South Carolina","latitude":"33.7777","longitude":"-79.0111","country":"United States"},{"longitude":"-73.8788","country":"United States","latitude":"42.0188","city":"Red Hook, New York","id":35634},{"latitude":" 51° 04' 00\"","country":"Canada","longitude":"-93° 44' 00\"","id":35635,"city":"Red Lake, Ontario"},{"city":"Red Oak, Texas","longitude":"-96.7866","id":35636,"country":"United States","latitude":"32.5212"},{"id":35637,"city":"Red Wing, Minnesota","latitude":"44.5817","country":"United States","longitude":"-92.6036"},{"longitude":"18.3500","country":"Poland","city":"Reda, Pomorskie","latitude":"54.6167","id":35638},{"id":35639,"latitude":"33.7394","longitude":"-84.1644","city":"Redan, Georgia","country":"United States"},{"longitude":"5.8894","id":35640,"country":"Luxembourg","city":"Redange-sur-Attert, Redange","latitude":"49.7652"},{"city":"Redcar, Redcar and Cleveland","longitude":"-1.0690","country":"United Kingdom","latitude":"54.6180","id":35641},{"city":"Redcliff, Midlands","longitude":"29.7833","country":"Zimbabwe","latitude":"-19.0333","id":35642},{"city":"Reddigudem, Andhra Pradesh","country":"India","latitude":"16.8939","longitude":"80.6917","id":35643},{"city":"Redding, California","latitude":" 40° 36' 00\"","id":35644,"country":"United States","longitude":"-122° 25' 01\""},{"latitude":"14.1993","longitude":"78.0102","country":"India","id":35645,"city":"Reddipalle, Andhra Pradesh"},{"latitude":"11.2100","longitude":"78.2166","country":"India","id":35646,"city":"Reddippatti, Tamil Nādu"},{"longitude":"-2.1613","latitude":"53.4383","id":35647,"city":"Reddish, Stockport","country":"United Kingdom"},{"country":"United Kingdom","longitude":"-1.9333","city":"Redditch, Worcestershire","latitude":"52.3000","id":35648},{"city":"Reddiyapatti, Tamil Nādu","country":"India","latitude":"10.1581","longitude":"78.1901","id":35649},{"country":"Brazil","id":35650,"latitude":"-4.2258","longitude":"-38.7308","city":"Redencao, Ceará"},{"id":35651,"country":"Brazil","city":"Redencao, Pará","longitude":"-50.0308","latitude":"-8.0289"},{"country":"Brazil","latitude":"-27.6667","id":35652,"longitude":"-53.6500","city":"Redentora, Rio Grande do Sul"},{"id":35653,"country":"United Kingdom","city":"Redhill, Surrey","latitude":"51.2393","longitude":"-0.1726"},{"longitude":"-77.1464","latitude":"39.1339","id":35654,"country":"United States","city":"Redland, Maryland"},{"country":"United States","latitude":"34.0512","id":35655,"longitude":"-117.1712","city":"Redlands, California"},{"id":35656,"latitude":"39.0886","longitude":"-108.6582","city":"Redlands, Colorado","country":"United States"},{"id":35657,"longitude":"145.6977","city":"Redlynch, Queensland","country":"Australia","latitude":"-16.8894"},{"id":35658,"city":"Redmond, Oregon","latitude":"44.2612","country":"United States","longitude":"-121.1810"},{"latitude":"47.6763","city":"Redmond, Washington","country":"United States","id":35659,"longitude":"-122.1169"},{"city":"Redon, Bretagne","country":"France","latitude":"47.6522","longitude":"-2.0836","id":35660},{"latitude":"42.2833","id":35661,"country":"Spain","city":"Redondela, Galicia","longitude":"-8.6167"},{"city":"Redondo Beach, California","id":35662,"country":"United States","longitude":"-118° 23' 13\"","latitude":" 33° 49' 36\""},{"latitude":"50.2328","longitude":"-5.2264","id":35663,"country":"United Kingdom","city":"Redruth, Cornwall"},{"latitude":" 37° 28' 00\"","city":"Redwood City, California","country":"United States","longitude":"-122° 15' 00\"","id":35664},{"longitude":"-119.4471","id":35665,"country":"United States","city":"Reedley, California","latitude":"36.5988"},{"id":35666,"city":"Reedsburg, Wisconsin","latitude":"43.5348","country":"United States","longitude":"-89.9965"},{"id":35667,"city":"Rees, North Rhine-Westphalia","country":"Germany","longitude":"6.4000","latitude":"51.7667"},{"latitude":"52.0500","longitude":"4.7300","id":35668,"city":"Reeuwijk, Zuid-Holland","country":"Netherlands"},{"latitude":"52.0467","id":35669,"longitude":"4.7239","country":"Netherlands","city":"Reeuwijksebrug, Zuid-Holland"},{"longitude":"38.7686","id":35670,"city":"Refahiye, Erzincan","country":"Turkey","latitude":"39.9011"},{"longitude":"-93.1472","city":"Reforma, Chiapas","country":"Mexico","latitude":"17.8658","id":35671},{"id":35672,"longitude":"34.7660","city":"Regedor Quissico, Inhambane","country":"Mozambique","latitude":"-24.7257"},{"country":"Germany","city":"Regen, Bavaria","latitude":"48.9667","id":35673,"longitude":"13.1333"},{"country":"Brazil","city":"Regeneracao, Piauí","latitude":"-6.2378","longitude":"-42.6878","id":35674},{"city":"Regensburg, Bavaria","id":35675,"latitude":"49.0167","longitude":"12.0833","country":"Germany"},{"country":"Switzerland","city":"Regensdorf, Zürich","latitude":"47.4333","longitude":"8.4667","id":35676},{"longitude":"12.1283","country":"Germany","city":"Regenstauf, Bavaria","latitude":"49.1236","id":35677},{"latitude":"-22.2214","city":"Regente Feijo, São Paulo","id":35678,"longitude":"-51.3028","country":"Brazil"},{"longitude":"-9.6664","id":35679,"latitude":"29.5205","city":"Reggada, Souss-Massa","country":"Morocco"},{"id":35680,"latitude":"26.7203","city":"Reggane, Adrar","longitude":"0.1728","country":"Algeria"},{"country":"Italy","longitude":"11.5333","latitude":"43.6833","city":"Reggello, Tuscany","id":35681},{"longitude":"10.6333","latitude":"44.7000","city":"Reggio Emilia, Emilia-Romagna","id":35682,"country":"Italy"},{"city":"Reggio di Calabria, Calabria","latitude":"38.1114","country":"Italy","longitude":"15.6619","id":35683},{"latitude":"44.9167","city":"Reggiolo, Emilia-Romagna","id":35684,"country":"Italy","longitude":"10.8167"},{"latitude":"36.7631","id":35685,"country":"Algeria","city":"Reghaia, Boumerdes","longitude":"3.3426"},{"latitude":"46.7758","longitude":"24.7083","id":35686,"city":"Reghin, Mureş","country":"Romania"},{"id":35687,"city":"Regidor, Bolívar","country":"Colombia","latitude":"8.6667","longitude":"-73.8333"},{"country":"Canada","id":35688,"longitude":"-104° 30' 00\"","latitude":" 50° 30' 00\"","city":"Regina, Saskatchewan"},